{"geometry": {"coordinates": [126.892448, 37.564134], "type": "Point"}, "properties": {"address": "\uc11c\uc6b8\ud2b9\ubcc4\uc2dc \ub9c8\ud3ec\uad6c \uc99d\uc0b0\ub85c 32", "name": "\uc6d4\ub4dc\ucef5\uacf5\uc6d0\ubc18\ub824\uacac\ub180\uc774\ud130\ubc18\ub824\uacac\ub180\uc774\ud130", "type": "\ub3d9\ubb3c\ub180\uc774\ud130"}, "type": "Feature"}
{"geometry": {"coordinates": [126.844331, 37.530306], "type": "Point"}, "properties": {"address": "\uc11c\uc6b8\ud2b9\ubcc4\uc2dc \uac15\uc11c\uad6c \uacf0\ub2ec\ub798\ub85c 104 3\uce35 \uce74\ud398700", "name": "\uce74\ud398700\ubc18\ub824\uacac\ub180\uc774\ud130", "type": "\ub3d9\ubb3c\ub180\uc774\ud130"}, "type": "Feature"}
{"geometry": {"coordinates": [126.847042, 37.545379], "type": "Point"}, "properties": {"address": "\uc11c\uc6b8\ud2b9\ubcc4\uc2dc \uac15\uc11c\uad6c \uae4c\uce58\uc0b0\ub85c 75 \ud638\uc655\ube4c\ub529 7\uce35 \ub9c8\uc774\ub315\ub315\uc2a4\ucfe8", "name": "\ub9c8\uc774\ub315\ub315\uc2a4\ucfe8\ubc18\ub824\uacac\ub180\uc774\ud130", "type": "\ub3d9\ubb3c\ub180\uc774\ud130"}, "type": "Feature"}
{"geometry": {"coordinates": [127.056653, 37.568793], "type": "Point"}, "properties": {"address": "\uc11c\uc6b8\ud2b9\ubcc4\uc2dc \ub3d9\ub300\ubb38\uad6c \uc804\ub18d\ub85c 43 1\uce35", "name": "\uae4c\ub124\uc9c0\ub178\ubc18\ub824\uacac\ub180\uc774\ud130", "type": "\ub3d9\ubb3c\ub180\uc774\ud130"}, "type": "Feature"}
{"geometry": {"coordinates": [127.039143, 37.579038], "type": "Point"}, "properties": {"address": "\uc11c\uc6b8\ud2b9\ubcc4\uc2dc \ub3d9\ub300\ubb38\uad6c \uace0\uc0b0\uc790\ub85c36\uae38 3 \uacbd\ub3d9\uc2dc\uc7a5", "name": "\ub3c4\uadf8\uc5b4\uc2a4\ud50c\ub798\ub2db\ubc18\ub824\uacac\ub180\uc774\ud130", "type": "\ub3d9\ubb3c\ub180\uc774\ud130"}, "type": "Feature"}
{"geometry": {"coordinates": [127.078772, 37.552012], "type": "Point"}, "properties": {"address": "\uc11c\uc6b8\ud2b9\ubcc4\uc2dc \uad11\uc9c4\uad6c \ub2a5\ub3d9\ub85c 216", "name": "\uc5b4\ub9b0\uc774\ub300\uacf5\uc6d0 \ubc18\ub824\uacac \ub180\uc774\ud130\ubc18\ub824\uacac\ub180\uc774\ud130", "type": "\ub3d9\ubb3c\ub180\uc774\ud130"}, "type": "Feature"}
{"geometry": {"coordinates": [127.068431, 37.589811], "type": "Point"}, "properties": {"address": "\uc11c\uc6b8\ud2b9\ubcc4\uc2dc \ub3d9\ub300\ubb38\uad6c \ud718\uacbd\ub3d9 \uc0b06-26", "name": "\ud718\uacbd2\ub3d9 \ubc18\ub824\uacac\ub180\uc774\ud130\ubc18\ub824\uacac\ub180\uc774\ud130", "type": "\ub3d9\ubb3c\ub180\uc774\ud130"}, "type": "Feature"}
{"geometry": {"coordinates": [127.041384, 37.647494], "type": "Point"}, "properties": {"address": "\uc11c\uc6b8\ud2b9\ubcc4\uc2dc \ub3c4\ubd09\uad6c \ud574\ub4f1\ub85c3\uae38 48-11", "name": "\ucd08\uc548\uc0b0\uacf5\uacf5\ubc18\ub824\uacac\ub180\uc774\ud130\ubc18\ub824\uacac\ub180\uc774\ud130", "type": "\ub3d9\ubb3c\ub180\uc774\ud130"}, "type": "Feature"}
{"geometry": {"coordinates": [127.088353, 37.67587], "type": "Point"}, "properties": {"address": "\uc11c\uc6b8\ud2b9\ubcc4\uc2dc \ub178\uc6d0\uad6c \uc0c1\uacc4\ub3d9 \uc0b0158-1", "name": "\ub2f9\uace0\uac1c\ubc18\ub824\uacac\uc784\uc2dc\ub180\uc774\ud130\ubc18\ub824\uacac\ub180\uc774\ud130", "type": "\ub3d9\ubb3c\ub180\uc774\ud130"}, "type": "Feature"}
{"geometry": {"coordinates": [127.146792, 37.564722], "type": "Point"}, "properties": {"address": "\uc11c\uc6b8\ud2b9\ubcc4\uc2dc \uac15\ub3d9\uad6c \uc544\ub9ac\uc218\ub85c61\uae38 91-14 2\uce35", "name": "\uc2a4\ud14c\uc774\uc9c028\uc6c1\uc2dc\ub370\uc774\uc9c0\ubc18\ub824\uacac\ub180\uc774\ud130", "type": "\ub3d9\ubb3c\ub180\uc774\ud130"}, "type": "Feature"}
{"geometry": {"coordinates": [127.033359, 37.503909], "type": "Point"}, "properties": {"address": "\uc11c\uc6b8\ud2b9\ubcc4\uc2dc \uac15\ub0a8\uad6c \ubd09\uc740\uc0ac\ub85c20\uae38 52 \uc9c0\ud558 1\uce35", "name": "24\uac1c\uc2a4\ud2b8\ud558\uc6b0\uc2a4 \uac15\ub0a8\uac15\uc544\uc9c0\uc720\uce58\uc6d0\ubc18\ub824\uacac\ub180\uc774\ud130", "type": "\ub3d9\ubb3c\ub180\uc774\ud130"}, "type": "Feature"}
{"geometry": {"coordinates": [127.042934, 37.51447], "type": "Point"}, "properties": {"address": "\uc11c\uc6b8\ud2b9\ubcc4\uc2dc \uac15\ub0a8\uad6c \uc120\ub989\ub85c122\uae38 4", "name": "\uac1c\ub7ec\ub9ac\uc544 \uc0bc\uc131\ubcf8\uc810\ubc18\ub824\uacac\ub180\uc774\ud130", "type": "\ub3d9\ubb3c\ub180\uc774\ud130"}, "type": "Feature"}
{"geometry": {"coordinates": [127.042877, 37.499331], "type": "Point"}, "properties": {"address": "\uc11c\uc6b8\ud2b9\ubcc4\uc2dc \uac15\ub0a8\uad6c \uc5b8\uc8fc\ub85c79\uae38 14 2\uce35", "name": "\uac15\ub0a8\uac15\uc544\uc9c0\ubc18\ub824\uacac\ub180\uc774\ud130", "type": "\ub3d9\ubb3c\ub180\uc774\ud130"}, "type": "Feature"}
{"geometry": {"coordinates": [126.919491, 37.494892], "type": "Point"}, "properties": {"address": "\uc11c\uc6b8\ud2b9\ubcc4\uc2dc \ub3d9\uc791\uad6c \uc5ec\uc758\ub300\ubc29\ub85c20\uae38 33 \ubcf4\ub77c\ub9e4\uacf5\uc6d0", "name": "\ubcf4\ub77c\ub9e4\uacf5\uc6d0 \ubc18\ub824\uacac \ub180\uc774\ud130\ubc18\ub824\uacac\ub180\uc774\ud130", "type": "\ub3d9\ubb3c\ub180\uc774\ud130"}, "type": "Feature"}
{"geometry": {"coordinates": [126.922876, 37.508136], "type": "Point"}, "properties": {"address": "\uc11c\uc6b8\ud2b9\ubcc4\uc2dc \uc601\ub4f1\ud3ec\uad6c \uc5ec\uc758\ub300\ubc29\ub85c 249 \uc6b0\uc8fc\ub9c8\ub8e8\uc5d0\uc5b4\uc2a4\ud3ec\ub809\uc2a4 1\uce35", "name": "\uac1c\uc88b\uc740\ub0a0\ubc18\ub824\uacac\ub180\uc774\ud130", "type": "\ub3d9\ubb3c\ub180\uc774\ud130"}, "type": "Feature"}
{"geometry": {"coordinates": [126.818459, 37.573127], "type": "Point"}, "properties": {"address": "\uc11c\uc6b8\ud2b9\ubcc4\uc2dc \uac15\uc11c\uad6c \uc591\ucc9c\ub85c 132 2\uce35 \uba4d\ub9c8\ub974\ub728", "name": "\uba4d\ub9c8\ub974\ub728\ubc18\ub824\uacac\ub180\uc774\ud130", "type": "\ub3d9\ubb3c\ub180\uc774\ud130"}, "type": "Feature"}
