{"geometry": {"coordinates": [127.37913, 36.518172], "type": "Point"}, "properties": {"address": "\uc138\uc885\uc2dc", "name": "\ubb34\uc9c0\uac1c\uc5b8\ub355", "type": "\ub3d9\ubb3c\ud310\ub9e4\uc5c5"}, "type": "Feature"}
{"geometry": {"coordinates": [129.243442, 35.329766], "type": "Point"}, "properties": {"address": "\ubd80\uc0b0 \uae30\uc7a5\uad70", "name": "\ud30c\ud2b8\ub77c\uc288", "type": "\ub3d9\ubb3c\ud310\ub9e4\uc5c5"}, "type": "Feature"}
{"geometry": {"coordinates": [-73.966514, 40.78122], "type": "Point"}, "properties": {"address": "\ubd80\uc0b0 \uae30\uc7a5\uad70", "name": "\uc13c\ud2b8\ub7f4\ud30c\ud06c(\uc8fc)", "type": "\ub3d9\ubb3c\ud310\ub9e4\uc5c5"}, "type": "Feature"}
{"geometry": {"coordinates": [129.179908, 35.170178], "type": "Point"}, "properties": {"address": "\ubd80\uc0b0 \uae30\uc7a5\uad70", "name": "\uc544\uc774\ubcc4", "type": "\ub3d9\ubb3c\ud310\ub9e4\uc5c5"}, "type": "Feature"}
{"geometry": {"coordinates": [128.595658, 35.847757], "type": "Point"}, "properties": {"address": "\ub300\uad6c \ub2ec\uc11c\uad6c", "name": "\ub300\uad6c\ub7ec\ube0c\ud3ab", "type": "\ub3d9\ubb3c\ud310\ub9e4\uc5c5"}, "type": "Feature"}
{"geometry": {"coordinates": [126.922256, 37.549487], "type": "Point"}, "properties": {"address": "\uc778\ucc9c \uc11c\uad6c", "name": "\uc5b4\uac8c\uc778", "type": "\ub3d9\ubb3c\ud310\ub9e4\uc5c5"}, "type": "Feature"}
{"geometry": {"coordinates": [126.898094, 37.521344], "type": "Point"}, "properties": {"address": "\uc778\ucc9c \uc11c\uad6c", "name": "\u321c\ub354 \ud3ec\uc5d0\ubc84", "type": "\ub3d9\ubb3c\ud310\ub9e4\uc5c5"}, "type": "Feature"}
{"geometry": {"coordinates": [126.759665, 35.140823], "type": "Point"}, "properties": {"address": "\uad11\uc8fc \uad11\uc0b0\uad6c", "name": "\u321c\ud558\ub298\ud3ab", "type": "\ub3d9\ubb3c\ud310\ub9e4\uc5c5"}, "type": "Feature"}
{"geometry": {"coordinates": [129.105726, 35.498474], "type": "Point"}, "properties": {"address": "\uc6b8\uc0b0 \uc6b8\uc8fc\uad70", "name": "\uc774\ubcc4\uacf5\uac04", "type": "\ub3d9\ubb3c\ud310\ub9e4\uc5c5"}, "type": "Feature"}
{"geometry": {"coordinates": [126.805726, 37.713733], "type": "Point"}, "properties": {"address": "\uacbd\uae30 \uace0\uc591\uc2dc", "name": "\u321c\ud3ab\ubc14\ub77c\uae30", "type": "\ub3d9\ubb3c\ud310\ub9e4\uc5c5"}, "type": "Feature"}
{"geometry": {"coordinates": [127.36459, 37.680914], "type": "Point"}, "properties": {"address": "\uacbd\uae30 \ub0a8\uc591\uc8fc\uc2dc", "name": "\ubabd\ubabd\uc774\uc5e0\ud30c\ud06c", "type": "\ub3d9\ubb3c\ud310\ub9e4\uc5c5"}, "type": "Feature"}
{"geometry": {"coordinates": [-95.869136, 36.031161], "type": "Point"}, "properties": {"address": "\uacbd\uae30 \uc6a9\uc778\uc2dc", "name": "\ub9ac\uba64\ubc84", "type": "\ub3d9\ubb3c\ud310\ub9e4\uc5c5"}, "type": "Feature"}
{"geometry": {"coordinates": [127.374874, 37.169984], "type": "Point"}, "properties": {"address": "\uacbd\uae30 \uc6a9\uc778\uc2dc", "name": "\uc528\uc5d8\ub85c\ud3ab", "type": "\ub3d9\ubb3c\ud310\ub9e4\uc5c5"}, "type": "Feature"}
{"geometry": {"coordinates": [127.390376, 37.279527], "type": "Point"}, "properties": {"address": "\uacbd\uae30 \uc774\ucc9c\uc2dc", "name": "\u321c\uc544\ub9ac\uc544\ud3ab", "type": "\ub3d9\ubb3c\ud310\ub9e4\uc5c5"}, "type": "Feature"}
{"geometry": {"coordinates": [126.613882, 37.726827], "type": "Point"}, "properties": {"address": "\uacbd\uae30 \uae40\ud3ec\uc2dc", "name": "\ub9c8\uc2a4\uaf2c\ub530 \ud734\u321c", "type": "\ub3d9\ubb3c\ud310\ub9e4\uc5c5"}, "type": "Feature"}
{"geometry": {"coordinates": [126.607315, 37.722899], "type": "Point"}, "properties": {"address": "\uacbd\uae30 \uae40\ud3ec\uc2dc", "name": "\ud398\ud2b8\ub098\ub77c", "type": "\ub3d9\ubb3c\ud310\ub9e4\uc5c5"}, "type": "Feature"}
{"geometry": {"coordinates": [126.923439, 37.523328], "type": "Point"}, "properties": {"address": "\uacbd\uae30 \uae40\ud3ec\uc2dc", "name": "(\uc8fc)\ud558\uc774\ub8e8", "type": "\ub3d9\ubb3c\ud310\ub9e4\uc5c5"}, "type": "Feature"}
{"geometry": {"coordinates": [126.627684, 37.730802], "type": "Point"}, "properties": {"address": "\uacbd\uae30 \uae40\ud3ec\uc2dc", "name": "\uc544\uc774\ub4dc\ub9bc\ud3ab", "type": "\ub3d9\ubb3c\ud310\ub9e4\uc5c5"}, "type": "Feature"}
{"geometry": {"coordinates": [126.629804, 37.736008], "type": "Point"}, "properties": {"address": "\uacbd\uae30 \uae40\ud3ec\uc2dc", "name": "\u321c\uc704\ub514\uc548(\uc5d4\uc824\uc2a4\ud1a4)", "type": "\ub3d9\ubb3c\ud310\ub9e4\uc5c5"}, "type": "Feature"}
{"geometry": {"coordinates": [126.868503, 37.219246], "type": "Point"}, "properties": {"address": "\uacbd\uae30 \ud654\uc131\uc2dc", "name": "\ud3ab\uc624\ucf00\uc2a4\ud2b8\ub77c", "type": "\ub3d9\ubb3c\ud310\ub9e4\uc5c5"}, "type": "Feature"}
{"geometry": {"coordinates": [126.89468, 37.175182], "type": "Point"}, "properties": {"address": "\uacbd\uae30 \ud654\uc131\uc2dc", "name": "\uac15\uc544\uc9c0\ub137", "type": "\ub3d9\ubb3c\ud310\ub9e4\uc5c5"}, "type": "Feature"}
{"geometry": {"coordinates": [126.741482, 37.154761], "type": "Point"}, "properties": {"address": "\uacbd\uae30 \ud654\uc131\uc2dc", "name": "(\uc8fc)\uc6b0\ub9ac\ubc18\ub824\ub3d9\ubb3c\ubb38\ud654\uc6d0", "type": "\ub3d9\ubb3c\ud310\ub9e4\uc5c5"}, "type": "Feature"}
{"geometry": {"coordinates": [129.164488, 35.342814], "type": "Point"}, "properties": {"address": "\uacbd\uae30 \ud654\uc131", "name": "\uc2a4\ud1a0\ub9ac\ud3ab", "type": "\ub3d9\ubb3c\ud310\ub9e4\uc5c5"}, "type": "Feature"}
{"geometry": {"coordinates": [127.208692, 37.35901], "type": "Point"}, "properties": {"address": "\uacbd\uae30 \uad11\uc8fc\uc2dc", "name": "\u321c\ud3ab\ud3ec\ub808\uc2a4\ud2b8", "type": "\ub3d9\ubb3c\ud310\ub9e4\uc5c5"}, "type": "Feature"}
{"geometry": {"coordinates": [127.264299, 37.349196], "type": "Point"}, "properties": {"address": "\uacbd\uae30 \uad11\uc8fc\uc2dc", "name": "21\uadf8\ub7a8 \ubc18\ub824\ub3d9\ubb3c \uc7a5\ub840\uc2dd\uc7a5", "type": "\ub3d9\ubb3c\ud310\ub9e4\uc5c5"}, "type": "Feature"}
{"geometry": {"coordinates": [127.126883, 37.581252], "type": "Point"}, "properties": {"address": "\uacbd\uae30 \uad11\uc8fc\uc2dc", "name": "\u321c\ud574\ud53c\uc5d4\ub529", "type": "\ub3d9\ubb3c\ud310\ub9e4\uc5c5"}, "type": "Feature"}
{"geometry": {"coordinates": [127.394579, 37.353406], "type": "Point"}, "properties": {"address": "\uacbd\uae30 \uad11\uc8fc\uc2dc", "name": "\ubc31\uaf43\uc0ac\ub791\ud558\uc774\ube5b", "type": "\ub3d9\ubb3c\ud310\ub9e4\uc5c5"}, "type": "Feature"}
{"geometry": {"coordinates": [127.309786, 37.396955], "type": "Point"}, "properties": {"address": "\uacbd\uae30 \uad11\uc8fc\uc2dc", "name": "\ud558\ub298\uc560", "type": "\ub3d9\ubb3c\ud310\ub9e4\uc5c5"}, "type": "Feature"}
{"geometry": {"coordinates": [127.284472, 37.416725], "type": "Point"}, "properties": {"address": "\uacbd\uae30 \uad11\uc8fc\uc2dc", "name": "\ub7ec\ube0c\ud3ab", "type": "\ub3d9\ubb3c\ud310\ub9e4\uc5c5"}, "type": "Feature"}
{"geometry": {"coordinates": [126.921514, 37.809188], "type": "Point"}, "properties": {"address": "\uacbd\uae30 \uc591\uc8fc\uc2dc", "name": "\ub354 \uace0\ub9c8\uc6cc", "type": "\ub3d9\ubb3c\ud310\ub9e4\uc5c5"}, "type": "Feature"}
{"geometry": {"coordinates": [127.212478, 37.815588], "type": "Point"}, "properties": {"address": "\uacbd\uae30 \ud3ec\ucc9c\uc2dc", "name": "\uc2a4\ud0c0\ud3ab", "type": "\ub3d9\ubb3c\ud310\ub9e4\uc5c5"}, "type": "Feature"}
{"geometry": {"coordinates": [128.8122, 37.832398], "type": "Point"}, "properties": {"address": "\uac15\uc6d0 \uac15\ub989\uc2dc", "name": "\uac15\ub989 \ud3ab\uc0ac\ub791", "type": "\ub3d9\ubb3c\ud310\ub9e4\uc5c5"}, "type": "Feature"}
{"geometry": {"coordinates": [127.928449, 37.51961], "type": "Point"}, "properties": {"address": "\uac15\uc6d0 \ud6a1\uc131\uad70", "name": "\ud3ab \uba54\ubaa8\ub9ac\uc5bc", "type": "\ub3d9\ubb3c\ud310\ub9e4\uc5c5"}, "type": "Feature"}
{"geometry": {"coordinates": [128.154486, 37.14194], "type": "Point"}, "properties": {"address": "\ucda9\ubd81 \uc81c\ucc9c\uc2dc", "name": "\uad7f\ubc14\uc774\ud3ab", "type": "\ub3d9\ubb3c\ud310\ub9e4\uc5c5"}, "type": "Feature"}
{"geometry": {"coordinates": [127.628759, 36.182986], "type": "Point"}, "properties": {"address": "\ucda9\uccad \uc625\ucc9c\uad70", "name": "\ub300\uc804 \uc2a4\uce74\uc774 \ud3ab", "type": "\ub3d9\ubb3c\ud310\ub9e4\uc5c5"}, "type": "Feature"}
{"geometry": {"coordinates": [127.024829, 37.497428], "type": "Point"}, "properties": {"address": "\ucda9\ubd81 \uc601\ub3d9\uad70", "name": "\uc2a4\ub9c8\uc77c \uc5b4\uac8c\uc778", "type": "\ub3d9\ubb3c\ud310\ub9e4\uc5c5"}, "type": "Feature"}
{"geometry": {"coordinates": [127.382714, 36.566921], "type": "Point"}, "properties": {"address": "\ucda9\ubd81 \uccad\uc8fc\uc2dc", "name": "\ud3ab\ub85c\uc2a4\uc5d4\uc824", "type": "\ub3d9\ubb3c\ud310\ub9e4\uc5c5"}, "type": "Feature"}
{"geometry": {"coordinates": [-91.624973, 30.757835], "type": "Point"}, "properties": {"address": "\ucda9\ubd81 \uccad\uc8fc\uc2dc", "name": "\uc6b0\ubc14\uc2a4", "type": "\ub3d9\ubb3c\ud310\ub9e4\uc5c5"}, "type": "Feature"}
{"geometry": {"coordinates": [127.143513, 36.767868], "type": "Point"}, "properties": {"address": "\ucda9\ub0a8 \ucc9c\uc548\uc2dc", "name": "\uc5d0\uc774\uc9c0\ud3ab", "type": "\ub3d9\ubb3c\ud310\ub9e4\uc5c5"}, "type": "Feature"}
{"geometry": {"coordinates": [126.964248, 37.534084], "type": "Point"}, "properties": {"address": "\ucda9\ub0a8 \uacf5\uc8fc\uc2dc", "name": "\u321c\uc88b\uc740\uce5c\uad6c\ub4e4", "type": "\ub3d9\ubb3c\ud310\ub9e4\uc5c5"}, "type": "Feature"}
{"geometry": {"coordinates": [-76.941185, 38.983853], "type": "Point"}, "properties": {"address": "\ucda9\ub0a8 \ub17c\uc0b0\uc2dc", "name": "\ub9ac\uba64\ubc84 \ud30c\ud06c", "type": "\ub3d9\ubb3c\ud310\ub9e4\uc5c5"}, "type": "Feature"}
{"geometry": {"coordinates": [126.917163, 36.698241], "type": "Point"}, "properties": {"address": "\ucda9\ub0a8 \uc608\uc0b0\uad70", "name": "\uc704\ub4dc\uc5d4\uc824", "type": "\ub3d9\ubb3c\ud310\ub9e4\uc5c5"}, "type": "Feature"}
{"geometry": {"coordinates": [126.805726, 37.713733], "type": "Point"}, "properties": {"address": "\uc804\ubd81 \ub0a8\uc6d0\uc2dc", "name": "\ud3ab\ubc14\ub77c\uae30", "type": "\ub3d9\ubb3c\ud310\ub9e4\uc5c5"}, "type": "Feature"}
{"geometry": {"coordinates": [127.148556, 35.813276], "type": "Point"}, "properties": {"address": "\uc804\ubd81 \uc644\uc8fc\uad70", "name": "\uc804\uc8fc \ud558\ub298", "type": "\ub3d9\ubb3c\ud310\ub9e4\uc5c5"}, "type": "Feature"}
{"geometry": {"coordinates": [127.348814, 35.539036], "type": "Point"}, "properties": {"address": "\uc804\ubd81 \uc784\uc2e4\uad70", "name": "\uc624\uc218 \ud3ab \ucd94\ubaa8\uacf5\uc6d0", "type": "\ub3d9\ubb3c\ud310\ub9e4\uc5c5"}, "type": "Feature"}
{"geometry": {"coordinates": [128.27324, 36.315756], "type": "Point"}, "properties": {"address": "\uacbd\ubd81 \uad6c\ubbf8\uc2dc", "name": "(\uc8fc)\ub354\uc18c\uc6b8\ud3ab", "type": "\ub3d9\ubb3c\ud310\ub9e4\uc5c5"}, "type": "Feature"}
{"geometry": {"coordinates": [128.78526, 35.952911], "type": "Point"}, "properties": {"address": "\uacbd\ubd81 \uacbd\uc0b0\uc2dc", "name": "\uc544\uc774\ub4e4\ub79c\ub4dc", "type": "\ub3d9\ubb3c\ud310\ub9e4\uc5c5"}, "type": "Feature"}
{"geometry": {"coordinates": [128.725889, 35.718188], "type": "Point"}, "properties": {"address": "\uacbd\ubd81 \uccad\ub3c4\uad70", "name": "\ud558\uc580\ubbfc\ub4e4\ub808", "type": "\ub3d9\ubb3c\ud310\ub9e4\uc5c5"}, "type": "Feature"}
{"geometry": {"coordinates": [126.607315, 37.722899], "type": "Point"}, "properties": {"address": "\uacbd\ubd81 \uc131\uc8fc\uad70", "name": "\uac15\uc544\uc9c0 \ud3ab \ud5e4\ube10", "type": "\ub3d9\ubb3c\ud310\ub9e4\uc5c5"}, "type": "Feature"}
{"geometry": {"coordinates": [128.323561, 35.998608], "type": "Point"}, "properties": {"address": "\uacbd\ubd81 \uce60\uace1\uad70", "name": "\uc2a4\uc717\ub4dc\ub9bc \ud3ab", "type": "\ub3d9\ubb3c\ud310\ub9e4\uc5c5"}, "type": "Feature"}
{"geometry": {"coordinates": [128.848169, 35.340662], "type": "Point"}, "properties": {"address": "\uacbd\ub0a8 \uae40\ud574\uc2dc", "name": "\uc544\uc774\ud5e4\ube10", "type": "\ub3d9\ubb3c\ud310\ub9e4\uc5c5"}, "type": "Feature"}
{"geometry": {"coordinates": [128.824712, 35.308676], "type": "Point"}, "properties": {"address": "\uacbd\ub0a8 \uae40\ud574\uc2dc", "name": "\uc2dc\ubbfc\ubc18\ub824\ub3d9\ubb3c\uc7a5\ub840\uc2dd\uc7a5", "type": "\ub3d9\ubb3c\ud310\ub9e4\uc5c5"}, "type": "Feature"}
{"geometry": {"coordinates": [127.010079, 37.062872], "type": "Point"}, "properties": {"address": "\uacbd\ub0a8 \uae40\ud574\uc2dc", "name": "\ud3ab\ub204\ub9ac", "type": "\ub3d9\ubb3c\ud310\ub9e4\uc5c5"}, "type": "Feature"}
{"geometry": {"coordinates": [128.911554, 35.299024], "type": "Point"}, "properties": {"address": "\uacbd\ub0a8 \uae40\ud574\uc2dc", "name": "\ud3ab\ub85c\uc2a4 \ucf00\uc5b4", "type": "\ub3d9\ubb3c\ud310\ub9e4\uc5c5"}, "type": "Feature"}
{"geometry": {"coordinates": [129.042201, 35.423047], "type": "Point"}, "properties": {"address": "\uacbd\ub0a8 \uc591\uc0b0\uc2dc", "name": "(\uc8fc)\ud3ab\ub178\ube14\ub808\uc2a4", "type": "\ub3d9\ubb3c\ud310\ub9e4\uc5c5"}, "type": "Feature"}
{"geometry": {"coordinates": [129.040729, 35.453158], "type": "Point"}, "properties": {"address": "\uacbd\ub0a8 \uc591\uc0b0\uc2dc", "name": "\uc704\ub4dc\uc5c5", "type": "\ub3d9\ubb3c\ud310\ub9e4\uc5c5"}, "type": "Feature"}
{"geometry": {"coordinates": [128.355799, 35.336107], "type": "Point"}, "properties": {"address": "\uacbd\ub0a8 \ud568\uc548\uad70", "name": "\ud55c\ubcc4 \ub9ac\uba64\ubc84\ud30c\ud06c", "type": "\ub3d9\ubb3c\ud310\ub9e4\uc5c5"}, "type": "Feature"}
{"geometry": {"coordinates": [127.026698, 37.808509], "type": "Point"}, "properties": {"address": "\uacbd\ub0a8 \uace0\uc131\uad70", "name": "\ud558\ub298\uc18c\ud48d", "type": "\ub3d9\ubb3c\ud310\ub9e4\uc5c5"}, "type": "Feature"}
