{"geometry": {"coordinates": [126.905469, 37.553094], "type": "Point"}, "properties": {"name": "\ub124\uc624\uc2a4\ub9c8\ud2b8\ubc14\uc774", "type": "medical_device"}, "type": "Feature"}
{"geometry": {"coordinates": [126.910368, 37.479266], "type": "Point"}, "properties": {"name": "\ub098\uc2a4\ud2f0\uc2a4", "type": "medical_device"}, "type": "Feature"}
{"geometry": {"coordinates": [127.017272, 37.510369], "type": "Point"}, "properties": {"name": "(\uc8fc)\uc720\uc720\uc5e0", "type": "medical_device"}, "type": "Feature"}
{"geometry": {"coordinates": [127.010686, 37.491324], "type": "Point"}, "properties": {"name": "(\uc8fc)\uc544\uc774\uc13c\uc2a4", "type": "medical_device"}, "type": "Feature"}
{"geometry": {"coordinates": [127.044774, 37.476879], "type": "Point"}, "properties": {"name": "(\uc8fc)\ub809\uc2a4\ud329\uc778\ud130\ub0b4\uc154\ub110", "type": "medical_device"}, "type": "Feature"}
{"geometry": {"coordinates": [127.014097, 37.485977], "type": "Point"}, "properties": {"name": "(\uc8fc)\uc528\uc5d8\uc5d0\uc774\uc778\ud130\ub0b4\uc154\ub0a0", "type": "medical_device"}, "type": "Feature"}
{"geometry": {"coordinates": [126.984479, 37.497799], "type": "Point"}, "properties": {"name": "\ub370\ub2c8\uc2a4\ud14c\ud06c", "type": "medical_device"}, "type": "Feature"}
{"geometry": {"coordinates": [127.01572, 37.491592], "type": "Point"}, "properties": {"name": "(\uc8fc)\ub458\ub9ac\uc815\ubcf4\ud1b5\uc2e0", "type": "medical_device"}, "type": "Feature"}
{"geometry": {"coordinates": [127.004197, 37.485284], "type": "Point"}, "properties": {"name": "\uc138\uc911\ubb34\uc5ed\uc0c1\uc0ac", "type": "medical_device"}, "type": "Feature"}
{"geometry": {"coordinates": [127.018263, 37.51437], "type": "Point"}, "properties": {"name": "\ud55c\uad6d IMV", "type": "medical_device"}, "type": "Feature"}
{"geometry": {"coordinates": [127.065073, 37.542012], "type": "Point"}, "properties": {"name": "\ud0dc\uc0b0\uc57d\ud488", "type": "medical_device"}, "type": "Feature"}
{"geometry": {"coordinates": [127.04486, 37.467779], "type": "Point"}, "properties": {"name": "\ubca0\ud2b8\ucef4\ucf54\ub9ac\uc544(\uc8fc)", "type": "medical_device"}, "type": "Feature"}
{"geometry": {"coordinates": [127.04486, 37.467779], "type": "Point"}, "properties": {"name": "\ubca0\ud2b8\ucef4\ucf54\ub9ac\uc544(\uc8fc)", "type": "medical_device"}, "type": "Feature"}
{"geometry": {"coordinates": [127.022488, 37.504631], "type": "Point"}, "properties": {"name": "\ube0c\uc774\ucf00\uc5b4\ub3d9\ubb3c\ubcd1\uc6d0", "type": "medical_device"}, "type": "Feature"}
{"geometry": {"coordinates": [127.049812, 37.448865], "type": "Point"}, "properties": {"name": "(\uc8fc)\uc911\uc559\uc9c4\ud14c\ud06c", "type": "medical_device"}, "type": "Feature"}
{"geometry": {"coordinates": [126.896516, 37.483354], "type": "Point"}, "properties": {"name": "\ub354\uac00\uac00", "type": "medical_device"}, "type": "Feature"}
{"geometry": {"coordinates": [127.119173, 37.487594], "type": "Point"}, "properties": {"name": "\uad7f\ud30c\uc778\ub354", "type": "medical_device"}, "type": "Feature"}
{"geometry": {"coordinates": [127.057417, 37.512619], "type": "Point"}, "properties": {"name": "(\uc8fc)\ud638\ud154\ub86f\ub370 \ub86f\ub370\uba74\uc138\uc810 \ucf54\uc5d1\uc2a4\uc810", "type": "medical_device"}, "type": "Feature"}
{"geometry": {"coordinates": [127.039105, 37.485546], "type": "Point"}, "properties": {"name": "\ube44\uc698\ub4dc\uc6d4\ub4dc \uc8fc\uc2dd\ud68c\uc0ac", "type": "medical_device"}, "type": "Feature"}
{"geometry": {"coordinates": [127.025311, 37.50367], "type": "Point"}, "properties": {"name": "HnCmedical", "type": "medical_device"}, "type": "Feature"}
{"geometry": {"coordinates": [127.029877, 37.499016], "type": "Point"}, "properties": {"name": "GS25 \uac15\ub0a8\ub3d9\uc6d0\uc810", "type": "medical_device"}, "type": "Feature"}
{"geometry": {"coordinates": [127.021015, 37.515631], "type": "Point"}, "properties": {"name": "\uc8fc\uc2dd\ud68c\uc0ac \ubd04\ud504\ub80c\uc988", "type": "medical_device"}, "type": "Feature"}
{"geometry": {"coordinates": [127.112746, 37.510428], "type": "Point"}, "properties": {"name": "\uc774\ud604\ucf54\ub9ac\uc544", "type": "medical_device"}, "type": "Feature"}
{"geometry": {"coordinates": [127.029877, 37.499016], "type": "Point"}, "properties": {"name": "GS25\uac15\ub0a8\ub3d9\uc6d0\uc810", "type": "medical_device"}, "type": "Feature"}
{"geometry": {"coordinates": [127.029522, 37.498933], "type": "Point"}, "properties": {"name": "(\uc8fc)\uc5d8\uc5d0\uc2a4\ud14d", "type": "medical_device"}, "type": "Feature"}
{"geometry": {"coordinates": [127.116787, 37.466266], "type": "Point"}, "properties": {"name": "\uba54\ub514\ub808\uc774", "type": "medical_device"}, "type": "Feature"}
{"geometry": {"coordinates": [127.030522, 37.526358], "type": "Point"}, "properties": {"name": "(\uc8fc)\ud3ab\uc2ac\ub7a9(PETXLAB)", "type": "medical_device"}, "type": "Feature"}
{"geometry": {"coordinates": [127.032751, 37.50619], "type": "Point"}, "properties": {"name": "\uc8fc\uc2dd\ud68c\uc0ac \ub9c8\ubca8\ud30c\ud2b8\ub108\uc2a4", "type": "medical_device"}, "type": "Feature"}
{"geometry": {"coordinates": [127.05066, 37.505863], "type": "Point"}, "properties": {"name": "(\uc8fc)\uc5d0\uc774\ucde8\ube0c\ub77c\ub354\uc2a4", "type": "medical_device"}, "type": "Feature"}
{"geometry": {"coordinates": [127.06514, 37.512472], "type": "Point"}, "properties": {"name": "\ud788\ud0c0\uce58\uc544\ub85c\uce74\uba54\ub514\uce7c\ud55c\uad6d \uc8fc\uc2dd\ud68c\uc0ac", "type": "medical_device"}, "type": "Feature"}
{"geometry": {"coordinates": [127.051252, 37.504729], "type": "Point"}, "properties": {"name": "\ud55c\uad6d\uc870\uc5d0\ud2f0\uc2a4 \uc8fc\uc2dd\ud68c\uc0ac", "type": "medical_device"}, "type": "Feature"}
{"geometry": {"coordinates": [127.047218, 37.525218], "type": "Point"}, "properties": {"name": "(\uc8fc)\ub514\ud2b8\ub9ac\ucee4\ubba4\ub2c8\ucf00\uc774\uc158\uc988", "type": "medical_device"}, "type": "Feature"}
{"geometry": {"coordinates": [126.970666, 37.531622], "type": "Point"}, "properties": {"name": "\uc9c0\uc774\ud5ec\uc2a4\ucf00\uc5b4\ucf54\ub9ac\uc544(\uc8fc)", "type": "medical_device"}, "type": "Feature"}
{"geometry": {"coordinates": [126.970666, 37.531622], "type": "Point"}, "properties": {"name": "\uc9c0\uc774\ud5ec\uc2a4\ucf00\uc5b4\ucf54\ub9ac\uc544(\uc8fc)", "type": "medical_device"}, "type": "Feature"}
{"geometry": {"coordinates": [127.102654, 37.487186], "type": "Point"}, "properties": {"name": "\uac15\ud654\uba54\ub514\ud14c\ud06c", "type": "medical_device"}, "type": "Feature"}
{"geometry": {"coordinates": [127.033188, 37.499294], "type": "Point"}, "properties": {"name": "(\uc8fc)\ud55c\ub3c5", "type": "medical_device"}, "type": "Feature"}
{"geometry": {"coordinates": [127.116787, 37.466266], "type": "Point"}, "properties": {"name": "\uc8fc\uc2dd\ud68c\uc0ac \ub808\uc774\ud22c\ud14c\ud06c", "type": "medical_device"}, "type": "Feature"}
{"geometry": {"coordinates": [127.031596, 37.497382], "type": "Point"}, "properties": {"name": "\ud074\ub77c\uc774\ub124\ub3c5", "type": "medical_device"}, "type": "Feature"}
{"geometry": {"coordinates": [127.045097, 37.507938], "type": "Point"}, "properties": {"name": "\uc8fc\uc2dd\ud68c\uc0ac \ud54f\ud3ab", "type": "medical_device"}, "type": "Feature"}
{"geometry": {"coordinates": [126.860238, 37.532097], "type": "Point"}, "properties": {"name": "\ud55c\uc2a4\ud14c\ud06c", "type": "medical_device"}, "type": "Feature"}
{"geometry": {"coordinates": [127.05188, 37.503456], "type": "Point"}, "properties": {"name": "\uc8fc\uc2dd\ud68c\uc0ac \ubd04\ud504\ub80c\uc988", "type": "medical_device"}, "type": "Feature"}
{"geometry": {"coordinates": [127.112746, 37.510428], "type": "Point"}, "properties": {"name": "\uac15\uc724\uae00\ub85c\ubc8c", "type": "medical_device"}, "type": "Feature"}
{"geometry": {"coordinates": [127.035747, 37.494559], "type": "Point"}, "properties": {"name": "\ud3f4\ub9ac\ud30c\ud06c \uc5ed\uc0bc\uc810", "type": "medical_device"}, "type": "Feature"}
{"geometry": {"coordinates": [127.040703, 37.526076], "type": "Point"}, "properties": {"name": "\uc8fc\uc2dd\ud68c\uc0ac \ud0a4\ubca0\uc774\uc9c1", "type": "medical_device"}, "type": "Feature"}
{"geometry": {"coordinates": [127.088057, 37.592345], "type": "Point"}, "properties": {"name": "\uc774\ubc88\ucb48", "type": "medical_device"}, "type": "Feature"}
{"geometry": {"coordinates": [127.089127, 37.509377], "type": "Point"}, "properties": {"name": "\ub9c8\uc77c\ub4dc\ub9c8\ucf13", "type": "medical_device"}, "type": "Feature"}
{"geometry": {"coordinates": [127.13029, 37.485686], "type": "Point"}, "properties": {"name": "(\uc8fc)\uc54c\uc5d0\uc2a4\ud53c\uae00\ub85c\ubc8c", "type": "medical_device"}, "type": "Feature"}
{"geometry": {"coordinates": [127.116446, 37.511958], "type": "Point"}, "properties": {"name": "\uc7a0\uc2e4\uc758\ub8cc\uae30", "type": "medical_device"}, "type": "Feature"}
{"geometry": {"coordinates": [127.088254, 37.505], "type": "Point"}, "properties": {"name": "\uc720\ub2c8\uba54\ub4dc\uc81c\uc57d(\uc8fc)", "type": "medical_device"}, "type": "Feature"}
{"geometry": {"coordinates": [127.010609, 37.49411], "type": "Point"}, "properties": {"name": "\uc0c1\uc815\uc0c1\uc0ac(\uc8fc)", "type": "medical_device"}, "type": "Feature"}
{"geometry": {"coordinates": [127.120541, 37.494296], "type": "Point"}, "properties": {"name": "\uc8fc\uc2dd\ud68c\uc0ac \uacbd\uc4f0", "type": "medical_device"}, "type": "Feature"}
{"geometry": {"coordinates": [127.123651, 37.51135], "type": "Point"}, "properties": {"name": "\uc5e0\ucf00\uc774(MK)\ubb3c\ub958", "type": "medical_device"}, "type": "Feature"}
{"geometry": {"coordinates": [127.119567, 37.537144], "type": "Point"}, "properties": {"name": "\uc81c\uc774\ud398\uc774\ubc84", "type": "medical_device"}, "type": "Feature"}
{"geometry": {"coordinates": [127.133456, 37.508906], "type": "Point"}, "properties": {"name": "\uc6cc\ud06c\uc564\ub7f0", "type": "medical_device"}, "type": "Feature"}
{"geometry": {"coordinates": [127.092516, 37.502795], "type": "Point"}, "properties": {"name": "\uc560\uacac\uc6a9\ud488\ud560\uc778\ub9e4\uc7a5 \ub3c4\uadf8\ubc84\ub514 \uc0bc\uc804\uc810", "type": "medical_device"}, "type": "Feature"}
{"geometry": {"coordinates": [127.086199, 37.508384], "type": "Point"}, "properties": {"name": "\uc560\uc644\uc6a9\ud488\ud560\uc778\ub9e4\uc7a5 \ub3c4\uadf8\ubc84\ub514-\uc7a0\uc2e4\uc810", "type": "medical_device"}, "type": "Feature"}
{"geometry": {"coordinates": [127.092516, 37.502795], "type": "Point"}, "properties": {"name": "\uc560\uc644\uc6a9\ud488\ud560\uc778\ub9e4\uc7a5 \ub3c4\uadf8\ubc84\ub514-\uc0bc\uc804\uc810", "type": "medical_device"}, "type": "Feature"}
{"geometry": {"coordinates": [127.117227, 37.510211], "type": "Point"}, "properties": {"name": "\uc560\uc644\uc6a9\ud488\ud560\uc778\ub9e4\uc7a5 \ub3c4\uadf8\ubc84\ub514-\ubc29\uc774\uc810", "type": "medical_device"}, "type": "Feature"}
{"geometry": {"coordinates": [127.117227, 37.510211], "type": "Point"}, "properties": {"name": "\uc560\uc644\uc6a9\ud488\ud560\uc778\ub9e4\uc7a5 \ub3c4\uadf8\ubc84\ub514-\ubc29\uc774\uc810", "type": "medical_device"}, "type": "Feature"}
{"geometry": {"coordinates": [126.860646, 37.504089], "type": "Point"}, "properties": {"name": "(\uc8fc)\ub9ac\ucf00\uc774", "type": "medical_device"}, "type": "Feature"}
{"geometry": {"coordinates": [127.089127, 37.509377], "type": "Point"}, "properties": {"name": "(\uc8fc)\uc11c\uad11\ub77c\ubcf4\ud14d", "type": "medical_device"}, "type": "Feature"}
{"geometry": {"coordinates": [127.147566, 37.500796], "type": "Point"}, "properties": {"name": "\uc8fc\uc2dd\ud68c\uc0ac \ud5ec\ub85c", "type": "medical_device"}, "type": "Feature"}
{"geometry": {"coordinates": [127.133218, 37.485089], "type": "Point"}, "properties": {"name": "\uae30\ud504\ud2b8 \ud3ab", "type": "medical_device"}, "type": "Feature"}
{"geometry": {"coordinates": [127.100885, 37.499159], "type": "Point"}, "properties": {"name": "\uc138\uc9c4\uad50\uc5ed", "type": "medical_device"}, "type": "Feature"}
{"geometry": {"coordinates": [127.125043, 37.477576], "type": "Point"}, "properties": {"name": "\uc8fc\uc2dd\ud68c\uc0ac \uba85\uc778\uba54\ub514\ud14d", "type": "medical_device"}, "type": "Feature"}
{"geometry": {"coordinates": [127.095392, 37.504325], "type": "Point"}, "properties": {"name": "(\uc8fc)\ub3d9\uad11\uba54\ub514\ud14d", "type": "medical_device"}, "type": "Feature"}
{"geometry": {"coordinates": [127.125043, 37.477576], "type": "Point"}, "properties": {"name": "(\uc8fc)\ubc14\uc774\uc624\ub77c\uc774\ud2b8", "type": "medical_device"}, "type": "Feature"}
{"geometry": {"coordinates": [127.115275, 37.535207], "type": "Point"}, "properties": {"name": "\ub300\ud55c\uc758\ub8cc\uc778\uba54\ub514\uceec\uc9c0\uc6d0\uc13c\ud130", "type": "medical_device"}, "type": "Feature"}
{"geometry": {"coordinates": [127.125043, 37.477576], "type": "Point"}, "properties": {"name": "\uc528\uc564\uc9c0", "type": "medical_device"}, "type": "Feature"}
{"geometry": {"coordinates": [127.036128, 37.500945], "type": "Point"}, "properties": {"name": "\uc8fc\uc2dd\ud68c\uc0ac \uc5b4\ubc14\uc6c3\ud3ab", "type": "medical_device"}, "type": "Feature"}
{"geometry": {"coordinates": [127.010609, 37.49411], "type": "Point"}, "properties": {"name": "\ud788\ud3ec\uc0ac\uc774\uc5b8\uc2a4", "type": "medical_device"}, "type": "Feature"}
{"geometry": {"coordinates": [127.125043, 37.477576], "type": "Point"}, "properties": {"name": "\uc8fc\uc2dd\ud68c\uc0ac \ucf54\ub9ac\uc544\uc820", "type": "medical_device"}, "type": "Feature"}
{"geometry": {"coordinates": [127.100487, 37.514266], "type": "Point"}, "properties": {"name": "\ub86f\ub370\uc1fc\ud551(\uc8fc) \ub86f\ub370\ub9c8\ud2b8\uc0ac\uc5c5\ubcf8\ubd80", "type": "medical_device"}, "type": "Feature"}
{"geometry": {"coordinates": [126.991276, 37.48735], "type": "Point"}, "properties": {"name": "\uc791\uc740\ud615\uc544 \ucf54\ud37c\ub808\uc774\uc158", "type": "medical_device"}, "type": "Feature"}
{"geometry": {"coordinates": [127.147464, 37.532961], "type": "Point"}, "properties": {"name": "\uae30\uac00\uba54\ub514\uce7c", "type": "medical_device"}, "type": "Feature"}
{"geometry": {"coordinates": [127.125043, 37.477576], "type": "Point"}, "properties": {"name": "(\uc8fc)\ub2e4\uc6b0\uc9c4\uc720\uc804\uc790 \uc5f0\uad6c\uc18c", "type": "medical_device"}, "type": "Feature"}
{"geometry": {"coordinates": [127.022488, 37.504631], "type": "Point"}, "properties": {"name": "(\uc8fc)\ud3ab\ub2e5", "type": "medical_device"}, "type": "Feature"}
{"geometry": {"coordinates": [127.073062, 37.674803], "type": "Point"}, "properties": {"name": "\ud3ab\ud074\ub7fd \uc0c1\uacc4\uc5ed\uc0ac\uc810", "type": "medical_device"}, "type": "Feature"}
{"geometry": {"coordinates": [127.121004, 37.528859], "type": "Point"}, "properties": {"name": "\ub300\ud55c\uc758\ub8cc\uc778\uba54\ub514\uceec\uc9c0\uc6d0\uc13c\ud130", "type": "medical_device"}, "type": "Feature"}
{"geometry": {"coordinates": [127.120832, 37.529497], "type": "Point"}, "properties": {"name": "\uc8fc\uc2dd\ud68c\uc0ac \uc5d4\uc5d0\uc774\uce58\ub18d\ud611\ubb34\uc5ed", "type": "medical_device"}, "type": "Feature"}
{"geometry": {"coordinates": [126.896516, 37.483354], "type": "Point"}, "properties": {"name": "\ub354\uac00\uac00", "type": "medical_device"}, "type": "Feature"}
{"geometry": {"coordinates": [126.860646, 37.504089], "type": "Point"}, "properties": {"name": "(\uc8fc)\ub9ac\ucf00\uc774", "type": "medical_device"}, "type": "Feature"}
{"geometry": {"coordinates": [127.022437, 37.57384], "type": "Point"}, "properties": {"name": "(\uc8fc)\uba54\ub4dc\ub85c\ucf54\ub9ac\uc544", "type": "medical_device"}, "type": "Feature"}
{"geometry": {"coordinates": [127.019861, 37.574451], "type": "Point"}, "properties": {"name": "\ubc14\ub2e4\ub974\uc0b0\uc2a4(\uc8fc)", "type": "medical_device"}, "type": "Feature"}
{"geometry": {"coordinates": [127.00551, 37.570488], "type": "Point"}, "properties": {"name": "\ud0dc\ub9ac\uba54\ub514\uce7c", "type": "medical_device"}, "type": "Feature"}
{"geometry": {"coordinates": [126.99309, 37.570123], "type": "Point"}, "properties": {"name": "(\uc8fc)\uc601\ub3d9\uc2f8\uc774\uc5b8\uc2a4", "type": "medical_device"}, "type": "Feature"}
{"geometry": {"coordinates": [127.049796, 37.511322], "type": "Point"}, "properties": {"name": "\uc8fc\uc2dd\ud68c\uc0ac \ud3ab\ud504\ub80c\uc988", "type": "medical_device"}, "type": "Feature"}
{"geometry": {"coordinates": [126.993191, 37.569973], "type": "Point"}, "properties": {"name": "\ud53c\uc528\uc0c1\uc0ac", "type": "medical_device"}, "type": "Feature"}
{"geometry": {"coordinates": [126.991693, 37.570026], "type": "Point"}, "properties": {"name": "\ub3d9\uacbd\uba54\ub514\uad50\uc5ed\uc0c1\uc0ac", "type": "medical_device"}, "type": "Feature"}
{"geometry": {"coordinates": [126.896516, 37.483354], "type": "Point"}, "properties": {"name": "\uc6b0\uacf5\ub9c8\ucf13", "type": "medical_device"}, "type": "Feature"}
{"geometry": {"coordinates": [126.973114, 37.564895], "type": "Point"}, "properties": {"name": "\ub8e8\uac00\ub178\uba54\ub514\uceec", "type": "medical_device"}, "type": "Feature"}
{"geometry": {"coordinates": [126.973748, 37.555465], "type": "Point"}, "properties": {"name": "\ud034\uc544\uc820\ucf54\ub9ac\uc544 \uc720\ud55c\ud68c\uc0ac", "type": "medical_device"}, "type": "Feature"}
{"geometry": {"coordinates": [126.985114, 37.566448], "type": "Point"}, "properties": {"name": "\uc5d0\uc2a4\ucf00\uc774\ud154\ub808\ucf64(\uc8fc)", "type": "medical_device"}, "type": "Feature"}
{"geometry": {"coordinates": [127.054987, 37.679189], "type": "Point"}, "properties": {"name": "\uc774\uc548\ub374\uba54\ub4dc", "type": "medical_device"}, "type": "Feature"}
{"geometry": {"coordinates": [126.828171, 37.660849], "type": "Point"}, "properties": {"name": "\uc9c0\uc720(GU)\uc870\uba85", "type": "medical_device"}, "type": "Feature"}
{"geometry": {"coordinates": [126.973114, 37.564804], "type": "Point"}, "properties": {"name": "\uc8fc\uc2dd\ud68c\uc0ac \uc81c\ud0c0\uc774\ubbf8\uc9d5", "type": "medical_device"}, "type": "Feature"}
{"geometry": {"coordinates": [126.995431, 37.566949], "type": "Point"}, "properties": {"name": "\uac00\ub78c\uc804\uc790", "type": "medical_device"}, "type": "Feature"}
{"geometry": {"coordinates": [126.980298, 37.570162], "type": "Point"}, "properties": {"name": "\uc8fc\uc2dd\ud68c\uc0ac \ud1b5\uc77c\uc758\ub8cc\uae30", "type": "medical_device"}, "type": "Feature"}
{"geometry": {"coordinates": [126.972604, 37.54982], "type": "Point"}, "properties": {"name": "(\uc8fc)\uc0bc\uc2e0\uc774\uc564\ube44", "type": "medical_device"}, "type": "Feature"}
{"geometry": {"coordinates": [126.960676, 37.529092], "type": "Point"}, "properties": {"name": "(\uc8fc)\uc815\ud638\uc774\uc5d4\ud53c", "type": "medical_device"}, "type": "Feature"}
{"geometry": {"coordinates": [126.972471, 37.536415], "type": "Point"}, "properties": {"name": "(\uc8fc)\ub808\uc774\ucf00\uc5b4", "type": "medical_device"}, "type": "Feature"}
{"geometry": {"coordinates": [126.970599, 37.533099], "type": "Point"}, "properties": {"name": "\uc974\ub9ad\ud30c\ub9c8\ucf54\ub9ac\uc544(\uc8fc)", "type": "medical_device"}, "type": "Feature"}
{"geometry": {"coordinates": [126.978612, 37.54678], "type": "Point"}, "properties": {"name": "\uc8fc\uc2dd\ud68c\uc0ac \ud3ab\ud0d1", "type": "medical_device"}, "type": "Feature"}
{"geometry": {"coordinates": [127.046473, 37.547814], "type": "Point"}, "properties": {"name": "(\uc8fc)\uc2e0\uc138\uacc4\ud2f0\ube44\uc1fc\ud551", "type": "medical_device"}, "type": "Feature"}
{"geometry": {"coordinates": [127.035791, 37.563659], "type": "Point"}, "properties": {"name": "\uc8fc\uc2dd\ud68c\uc0ac \uae4c\ub9cc\ub3cc", "type": "medical_device"}, "type": "Feature"}
{"geometry": {"coordinates": [127.037478, 37.558543], "type": "Point"}, "properties": {"name": "\uc81c\uc81c(zeze)", "type": "medical_device"}, "type": "Feature"}
{"geometry": {"coordinates": [127.05726, 37.542962], "type": "Point"}, "properties": {"name": "(\uc8fc)\uc5e0\uc528\uc528\ubc14\uc774\uc624", "type": "medical_device"}, "type": "Feature"}
{"geometry": {"coordinates": [127.016898, 37.541674], "type": "Point"}, "properties": {"name": "\uc81c\uc774\ud638\ud640\ub529\uc2a4 \uc8fc\uc2dd\ud68c\uc0ac", "type": "medical_device"}, "type": "Feature"}
{"geometry": {"coordinates": [127.03252, 37.554315], "type": "Point"}, "properties": {"name": "\ub3c4\ub2f4\ub3d9\ubb3c\ubcd1\uc6d0", "type": "medical_device"}, "type": "Feature"}
{"geometry": {"coordinates": [127.050312, 37.547342], "type": "Point"}, "properties": {"name": "(\uc8fc)\uc5d0\uc2a4\uc528\ud3ec\uc778\ud2b8", "type": "medical_device"}, "type": "Feature"}
{"geometry": {"coordinates": [127.079183, 37.553593], "type": "Point"}, "properties": {"name": "(\uc8fc)\ud3ec\uc778\ud2b8\ud5ec\uc2a4\ucf00\uc5b4", "type": "medical_device"}, "type": "Feature"}
{"geometry": {"coordinates": [127.087928, 37.54453], "type": "Point"}, "properties": {"name": "\uc6b0\uc8fc\uc0c1\uc0ac", "type": "medical_device"}, "type": "Feature"}
{"geometry": {"coordinates": [127.072979, 37.549592], "type": "Point"}, "properties": {"name": "\uc9c4\uc601\uc0c1\uc0ac", "type": "medical_device"}, "type": "Feature"}
{"geometry": {"coordinates": [126.896516, 37.483354], "type": "Point"}, "properties": {"name": "\ud604\uc774\ub124\ub9c8\ucf13", "type": "medical_device"}, "type": "Feature"}
{"geometry": {"coordinates": [127.050055, 37.591568], "type": "Point"}, "properties": {"name": "KH\uba54\ub514\uce7c", "type": "medical_device"}, "type": "Feature"}
{"geometry": {"coordinates": [127.023882, 37.571979], "type": "Point"}, "properties": {"name": "\uc544\uc0b0\uc81c\uc57d(\uc8fc)", "type": "medical_device"}, "type": "Feature"}
{"geometry": {"coordinates": [127.030243, 37.5736], "type": "Point"}, "properties": {"name": "\ub3d9\uc544\uc5d0\uc2a4\ud2f0(\uc8fc)", "type": "medical_device"}, "type": "Feature"}
{"geometry": {"coordinates": [127.05474, 37.58765], "type": "Point"}, "properties": {"name": "\ub450\ub9ac\uba54\ub514\uce7c", "type": "medical_device"}, "type": "Feature"}
{"geometry": {"coordinates": [127.078593, 37.608141], "type": "Point"}, "properties": {"name": "\ud504\ub77c\uc784\ud050\ub137", "type": "medical_device"}, "type": "Feature"}
{"geometry": {"coordinates": [127.077682, 37.594033], "type": "Point"}, "properties": {"name": "\uba4d\uc774\ub0e5\uc774", "type": "medical_device"}, "type": "Feature"}
{"geometry": {"coordinates": [127.074268, 37.60965], "type": "Point"}, "properties": {"name": "(\uc8fc)\uc5d0\uc2a4\uc528\uc544\uc774\ube44\uc5d0\uc2a4", "type": "medical_device"}, "type": "Feature"}
{"geometry": {"coordinates": [127.0761, 37.610982], "type": "Point"}, "properties": {"name": "\uc601\uc77c\uad50\uc5ed", "type": "medical_device"}, "type": "Feature"}
{"geometry": {"coordinates": [127.08792, 37.58658], "type": "Point"}, "properties": {"name": "\uc5d0\uc774\uce58\ud544", "type": "medical_device"}, "type": "Feature"}
{"geometry": {"coordinates": [127.0456, 37.620864], "type": "Point"}, "properties": {"name": "\ud76c\uc1a1\ucef4\ud37c\ub2c8", "type": "medical_device"}, "type": "Feature"}
{"geometry": {"coordinates": [127.01758, 37.635088], "type": "Point"}, "properties": {"name": "\uc7a5\ubcf4\ub294\uac15\uc544\uc9c0\uc640\uace0\uc591\uc774", "type": "medical_device"}, "type": "Feature"}
{"geometry": {"coordinates": [127.019717, 37.634189], "type": "Point"}, "properties": {"name": "\uc8fc)\ubca0\ub77c\uc778\ud130\ub0b4\uc154\ub110", "type": "medical_device"}, "type": "Feature"}
{"geometry": {"coordinates": [127.119318, 37.49315], "type": "Point"}, "properties": {"name": "\uce7c\uc2a4\ud1a8\uce20\uc5d4\ub3c4\uc2a4\ucf54\ud53c\ucf54\ub9ac\uc544(\uc720)", "type": "medical_device"}, "type": "Feature"}
{"geometry": {"coordinates": [127.022772, 37.633718], "type": "Point"}, "properties": {"name": "\uc8fc\uc2dd\ud68c\uc0ac \uc5d0\uc2a4\uc5d0\uc2a4\ud53c\uc564\ub514", "type": "medical_device"}, "type": "Feature"}
{"geometry": {"coordinates": [127.023174, 37.630768], "type": "Point"}, "properties": {"name": "\ud3ab\uc2a4\ucfe8", "type": "medical_device"}, "type": "Feature"}
{"geometry": {"coordinates": [126.896516, 37.483354], "type": "Point"}, "properties": {"name": "\ud604\uc774\ub124\ub9c8\ucf13", "type": "medical_device"}, "type": "Feature"}
{"geometry": {"coordinates": [127.041288, 37.654997], "type": "Point"}, "properties": {"name": "\uc0c1\uc0c1\ud640\ub9ad", "type": "medical_device"}, "type": "Feature"}
{"geometry": {"coordinates": [127.013884, 37.661812], "type": "Point"}, "properties": {"name": "\ud3f4\ub9ac\ud30c\ud06c \uc30d\ubb38\uc810", "type": "medical_device"}, "type": "Feature"}
{"geometry": {"coordinates": [127.0773, 37.619246], "type": "Point"}, "properties": {"name": "\uc8fc\uc2dd\ud68c\uc0ac \ub0a0\ub77c\uc8fc", "type": "medical_device"}, "type": "Feature"}
{"geometry": {"coordinates": [127.056403, 37.670996], "type": "Point"}, "properties": {"name": "\ud3f4\ub9ac\ud30c\ud06c \uc0c1\uacc4\uc810", "type": "medical_device"}, "type": "Feature"}
{"geometry": {"coordinates": [126.938377, 37.652583], "type": "Point"}, "properties": {"name": "(\uc8fc)\ucc3d\ubcf4\ub204\ub9ac", "type": "medical_device"}, "type": "Feature"}
{"geometry": {"coordinates": [126.928643, 37.612306], "type": "Point"}, "properties": {"name": "\ud3ab\uce20\uc6e8\uc774", "type": "medical_device"}, "type": "Feature"}
{"geometry": {"coordinates": [126.926539, 37.623669], "type": "Point"}, "properties": {"name": "D&C", "type": "medical_device"}, "type": "Feature"}
{"geometry": {"coordinates": [126.922152, 37.601269], "type": "Point"}, "properties": {"name": "(\uc8fc)\uc2f8\uc774\ud37c\uc77c\ub809\ud2b8\ub85c\ub2c9", "type": "medical_device"}, "type": "Feature"}
{"geometry": {"coordinates": [126.954963, 37.563608], "type": "Point"}, "properties": {"name": "(\uc8fc)\uc5d0\uc774\uc2a4\ube4c", "type": "medical_device"}, "type": "Feature"}
{"geometry": {"coordinates": [126.96299, 37.561088], "type": "Point"}, "properties": {"name": "\uc9c0\uba58\uc2a4\ud5ec\uc2dc\ub2c8\uc5b4\uc2a4(\uc8fc)", "type": "medical_device"}, "type": "Feature"}
{"geometry": {"coordinates": [126.932502, 37.559861], "type": "Point"}, "properties": {"name": "\ud3f4\ub9ac\ud30c\ud06c \uc2e0\ucd0c\uc810", "type": "medical_device"}, "type": "Feature"}
{"geometry": {"coordinates": [126.923487, 37.557686], "type": "Point"}, "properties": {"name": "\uc8fc\uc2dd\ud68c\uc0ac \ud3ec\ud30c\ucf54 \ud64d\ub300\uc9c0\uc810", "type": "medical_device"}, "type": "Feature"}
{"geometry": {"coordinates": [126.918206, 37.554474], "type": "Point"}, "properties": {"name": "(\uc8fc)\uc131\ubcf4\uc0ac\uc774\uc5b8\uc2a4\ud14d", "type": "medical_device"}, "type": "Feature"}
{"geometry": {"coordinates": [126.959788, 37.557084], "type": "Point"}, "properties": {"name": "S.H.C.P KOREA", "type": "medical_device"}, "type": "Feature"}
{"geometry": {"coordinates": [126.912218, 37.547914], "type": "Point"}, "properties": {"name": "\uc8fc\uc2dd\ud68c\uc0ac \ud504\ub85c\ubcb3", "type": "medical_device"}, "type": "Feature"}
{"geometry": {"coordinates": [126.896415, 37.575924], "type": "Point"}, "properties": {"name": "(\uc8fc)\ub808\uc774\ucf00\uc5b4", "type": "medical_device"}, "type": "Feature"}
{"geometry": {"coordinates": [126.923257, 37.556853], "type": "Point"}, "properties": {"name": "\ucc39\uc564\ucc39", "type": "medical_device"}, "type": "Feature"}
{"geometry": {"coordinates": [126.910244, 37.564433], "type": "Point"}, "properties": {"name": "\ud574\uc640\ub2ec", "type": "medical_device"}, "type": "Feature"}
{"geometry": {"coordinates": [126.958396, 37.550632], "type": "Point"}, "properties": {"name": "\ub9c8\uc774\uc2a4\ub9ac\ubaa8", "type": "medical_device"}, "type": "Feature"}
{"geometry": {"coordinates": [126.944779, 37.539371], "type": "Point"}, "properties": {"name": "\uc8fc\uc2dd\ud68c\uc0ac \ub098\uc6b0\uc704", "type": "medical_device"}, "type": "Feature"}
{"geometry": {"coordinates": [126.857394, 37.555156], "type": "Point"}, "properties": {"name": "(\uc8fc)\uc138\uc77c\ucf00\uc774\uc5e0", "type": "medical_device"}, "type": "Feature"}
{"geometry": {"coordinates": [126.816908, 37.564601], "type": "Point"}, "properties": {"name": "\uba54\ub514\ubcb3\ud5ec\uc2a4\ucf00\uc5b4", "type": "medical_device"}, "type": "Feature"}
{"geometry": {"coordinates": [126.848031, 37.565315], "type": "Point"}, "properties": {"name": "(\uc8fc)\ucf00\uc774\ube44\uc5e0\uc57d\ud488", "type": "medical_device"}, "type": "Feature"}
{"geometry": {"coordinates": [126.822237, 37.573834], "type": "Point"}, "properties": {"name": "\uc8fc\uc2dd\ud68c\uc0ac \uc5e0\ud2b8\ub9ac\uc13c", "type": "medical_device"}, "type": "Feature"}
{"geometry": {"coordinates": [126.89223, 37.497658], "type": "Point"}, "properties": {"name": "\uc8fc\uc2dd\ud68c\uc0ac \ud55c\uae38\ubc18\ub3c4\uccb4", "type": "medical_device"}, "type": "Feature"}
{"geometry": {"coordinates": [126.937153, 37.556225], "type": "Point"}, "properties": {"name": "\uc8fc\uc2dd\ud68c\uc0ac \ud2f0\uc5d0\uc2a4\uc5e0\ud14d\ud640\ub529\uc2a4", "type": "medical_device"}, "type": "Feature"}
{"geometry": {"coordinates": [126.889925, 37.500344], "type": "Point"}, "properties": {"name": "\uc81c\ub124\uc2a4", "type": "medical_device"}, "type": "Feature"}
{"geometry": {"coordinates": [126.893286, 37.484465], "type": "Point"}, "properties": {"name": "VINE", "type": "medical_device"}, "type": "Feature"}
{"geometry": {"coordinates": [126.898798, 37.485116], "type": "Point"}, "properties": {"name": "(\uc8fc)\uc81c\uc77c\uba54\ub514\uce7c\ucf54\ud37c\ub808\uc774\uc158", "type": "medical_device"}, "type": "Feature"}
{"geometry": {"coordinates": [126.877195, 37.479909], "type": "Point"}, "properties": {"name": "(\uc8fc)\ubca0\uc2a4\ud2b8\uc720\uc5b4\uc988", "type": "medical_device"}, "type": "Feature"}
{"geometry": {"coordinates": [126.88262, 37.480099], "type": "Point"}, "properties": {"name": "(\uc8fc)\ucf54\uc820\ubc14\uc774\uc624\ud14d", "type": "medical_device"}, "type": "Feature"}
{"geometry": {"coordinates": [126.88057, 37.480632], "type": "Point"}, "properties": {"name": "\uc5d0\uc2a4\uc564\ub514\uba54\ub514\ucf00\uc5b4", "type": "medical_device"}, "type": "Feature"}
{"geometry": {"coordinates": [126.88057, 37.480632], "type": "Point"}, "properties": {"name": "\uc5d0\uc2a4\ub514\ud1b5\uc0c1", "type": "medical_device"}, "type": "Feature"}
{"geometry": {"coordinates": [126.887453, 37.456088], "type": "Point"}, "properties": {"name": "\ubc14\ub978\uba54\ub514\uce7c", "type": "medical_device"}, "type": "Feature"}
{"geometry": {"coordinates": [126.878098, 37.483912], "type": "Point"}, "properties": {"name": "\uc2dc\uc628\ud558\uc774\ud14d", "type": "medical_device"}, "type": "Feature"}
{"geometry": {"coordinates": [126.88262, 37.480099], "type": "Point"}, "properties": {"name": "\uc8fc\uc2dd\ud68c\uc0ac \ub354\uc5d4\uc0c1\uc0ac", "type": "medical_device"}, "type": "Feature"}
{"geometry": {"coordinates": [126.962973, 37.597762], "type": "Point"}, "properties": {"name": "\ud3ab\uc6d4\ub4dc", "type": "medical_device"}, "type": "Feature"}
{"geometry": {"coordinates": [126.926115, 37.51429], "type": "Point"}, "properties": {"name": "\ud050\ucc2c\uc2a4(\uc8fc)", "type": "medical_device"}, "type": "Feature"}
{"geometry": {"coordinates": [126.918074, 37.515029], "type": "Point"}, "properties": {"name": "(\uc8fc)\uc81c\uc774\uc5d0\uc774\uce58\ub9ac\ub354", "type": "medical_device"}, "type": "Feature"}
{"geometry": {"coordinates": [126.89212, 37.540066], "type": "Point"}, "properties": {"name": "(\uc8fc)\uc131\ubcf4\uc0ac\uc774\uc5b8\uc2a4", "type": "medical_device"}, "type": "Feature"}
{"geometry": {"coordinates": [126.898773, 37.514445], "type": "Point"}, "properties": {"name": "(\uc8fc)\ub300\uc11d\uba54\ub4dc", "type": "medical_device"}, "type": "Feature"}
{"geometry": {"coordinates": [126.896516, 37.483354], "type": "Point"}, "properties": {"name": "\ubcf4\uc131\uacfc\ud559(\uc8fc)", "type": "medical_device"}, "type": "Feature"}
{"geometry": {"coordinates": [126.923233, 37.515089], "type": "Point"}, "properties": {"name": "(\uc0ac)\ub0a8\ubd81\uacbd\ud611\uacbd\uc81c\uc778\uc5f0\ud569\ud68c", "type": "medical_device"}, "type": "Feature"}
{"geometry": {"coordinates": [126.89215, 37.54011], "type": "Point"}, "properties": {"name": "(\uc8fc)\uc77c\uc2e0\uc528\uc5d4\uc5e0", "type": "medical_device"}, "type": "Feature"}
{"geometry": {"coordinates": [126.89215, 37.54011], "type": "Point"}, "properties": {"name": "(\uc8fc)\uc5e0\ub514\uc820", "type": "medical_device"}, "type": "Feature"}
{"geometry": {"coordinates": [126.839, 37.557864], "type": "Point"}, "properties": {"name": "(\uc8fc)\ub354\ube14\ub958\uc5e0\ucf54\ud37c\ub808\uc774\uc158", "type": "medical_device"}, "type": "Feature"}
{"geometry": {"coordinates": [126.97972, 37.483921], "type": "Point"}, "properties": {"name": "\uc131\uc9c4\uba54\ub4dc", "type": "medical_device"}, "type": "Feature"}
{"geometry": {"coordinates": [126.950726, 37.511498], "type": "Point"}, "properties": {"name": "\ud1a0\ud0c8\ub7a9\uc194\ub8e8\uc158", "type": "medical_device"}, "type": "Feature"}
{"geometry": {"coordinates": [126.925254, 37.492321], "type": "Point"}, "properties": {"name": "\ubcf4\ub77c\ub9e4\ucee8\uc124\ud305", "type": "medical_device"}, "type": "Feature"}
{"geometry": {"coordinates": [127.051351, 37.545554], "type": "Point"}, "properties": {"name": "(\uc8fc)\uc140\ub7ec\ud5c8\ube0c", "type": "medical_device"}, "type": "Feature"}
{"geometry": {"coordinates": [126.938325, 37.462618], "type": "Point"}, "properties": {"name": "\uc5d8\ucf00\uc5b4", "type": "medical_device"}, "type": "Feature"}
{"geometry": {"coordinates": [126.927367, 37.484189], "type": "Point"}, "properties": {"name": "\ud3f4\ub9ac\ud30c\ud06c \uc2e0\ub9bc\uc810", "type": "medical_device"}, "type": "Feature"}
{"geometry": {"coordinates": [127.019397, 37.49608], "type": "Point"}, "properties": {"name": "\ube44\ub9c8\uc774\ud3ab \uc8fc\uc2dd\ud68c\uc0ac", "type": "medical_device"}, "type": "Feature"}
{"geometry": {"coordinates": [127.018701, 37.513556], "type": "Point"}, "properties": {"name": "\uc8fc\uc2dd\ud68c\uc0ac \ubc14\uc787\ubbf8", "type": "medical_device"}, "type": "Feature"}
{"geometry": {"coordinates": [127.014086, 37.488383], "type": "Point"}, "properties": {"name": "\uba54\ub514\uc2a8 \ucf54\ub9ac\uc544", "type": "medical_device"}, "type": "Feature"}
{"geometry": {"coordinates": [127.014086, 37.488383], "type": "Point"}, "properties": {"name": "(\uc8fc)\ub354\ubc14\ub514", "type": "medical_device"}, "type": "Feature"}
{"geometry": {"coordinates": [127.147464, 37.532961], "type": "Point"}, "properties": {"name": "\uc8fc\uc2dd\ud68c\uc0ac \ud55c\ubbf8\uba54\ub4dc\ub77c\uc778", "type": "medical_device"}, "type": "Feature"}
{"geometry": {"coordinates": [127.17312, 37.565286], "type": "Point"}, "properties": {"name": "\ubcb3\uc2a4\ubab0", "type": "medical_device"}, "type": "Feature"}
{"geometry": {"coordinates": [127.144345, 37.548439], "type": "Point"}, "properties": {"name": "\ud3f4\ub9ac\ud30c\ud06c \ub454\ucd0c\uc810", "type": "medical_device"}, "type": "Feature"}
{"geometry": {"coordinates": [127.147464, 37.532961], "type": "Point"}, "properties": {"name": "\ud55c\ubbf8\uba54\ub4dc", "type": "medical_device"}, "type": "Feature"}
{"geometry": {"coordinates": [127.142134, 37.534575], "type": "Point"}, "properties": {"name": "\ub450\ub9ac \uba54\ub514\uce7c", "type": "medical_device"}, "type": "Feature"}
{"geometry": {"coordinates": [127.143962, 37.540965], "type": "Point"}, "properties": {"name": "\uc8fc\uc2dd\ud68c\uc0ac \uc2a4\ud53c\uc5b4\ud150", "type": "medical_device"}, "type": "Feature"}
{"geometry": {"coordinates": [127.129758, 37.555335], "type": "Point"}, "properties": {"name": "(\uc8fc)\ud050\uc5b4\ubc14\uc774\uc624", "type": "medical_device"}, "type": "Feature"}
{"geometry": {"coordinates": [127.051351, 37.545554], "type": "Point"}, "properties": {"name": "(\uc8fc)\ucee4\uba38\uc2a4\ud5c8\ube0c", "type": "medical_device"}, "type": "Feature"}
{"geometry": {"coordinates": [126.89589, 37.469824], "type": "Point"}, "properties": {"name": "(\uc8fc)\ub354\ube14\uc720\uba54\ub514\ud14d", "type": "medical_device"}, "type": "Feature"}
{"geometry": {"coordinates": [126.866149, 37.503152], "type": "Point"}, "properties": {"name": "0514\ub9c8\ub974\uc170", "type": "medical_device"}, "type": "Feature"}
{"geometry": {"coordinates": [127.113958, 37.516571], "type": "Point"}, "properties": {"name": "\ud55c\ubbf8\ud5ec\uc2a4\ucf00\uc5b4", "type": "medical_device"}, "type": "Feature"}
{"geometry": {"coordinates": [126.923294, 37.474503], "type": "Point"}, "properties": {"name": "\ub7f0\ud558\ud2b8", "type": "medical_device"}, "type": "Feature"}
{"geometry": {"coordinates": [127.047744, 37.577127], "type": "Point"}, "properties": {"name": "JS\uc758\ub8cc\uae30", "type": "medical_device"}, "type": "Feature"}
{"geometry": {"coordinates": [126.981437, 37.563033], "type": "Point"}, "properties": {"name": "\ub3d9\ubc29\uc5d0\uc2a4\uc564\ub514(\uc8fc)", "type": "medical_device"}, "type": "Feature"}
{"geometry": {"coordinates": [127.119173, 37.487594], "type": "Point"}, "properties": {"name": "\uc138\ub77c\ub178\ud2f1\uc2a4(\uc8fc)", "type": "medical_device"}, "type": "Feature"}
{"geometry": {"coordinates": [127.083264, 37.571479], "type": "Point"}, "properties": {"name": "\uc544\ubca8\ubc14\uc774\uc624", "type": "medical_device"}, "type": "Feature"}
{"geometry": {"coordinates": [127.071526, 37.641674], "type": "Point"}, "properties": {"name": "(\uc8fc)\uc815\ub3c4\ube44\uc564\ud53c", "type": "medical_device"}, "type": "Feature"}
{"geometry": {"coordinates": [126.954004, 37.543336], "type": "Point"}, "properties": {"name": "\uc8fc\uc2dd\ud68c\uc0ac \uc544\uc6b8", "type": "medical_device"}, "type": "Feature"}
{"geometry": {"coordinates": [127.069731, 37.5484], "type": "Point"}, "properties": {"name": "\ud30c\ub77c\uace4\ub3d9\ubb3c\ubcd1\uc6d0", "type": "medical_device"}, "type": "Feature"}
{"geometry": {"coordinates": [127.12438, 37.500381], "type": "Point"}, "properties": {"name": "\ud540\uc5d0\uc2a4\ucf54\ub9ac\uc544(\uc8fc)", "type": "medical_device"}, "type": "Feature"}
{"geometry": {"coordinates": [127.121124, 37.504156], "type": "Point"}, "properties": {"name": "\ud0dc\uac74", "type": "medical_device"}, "type": "Feature"}
{"geometry": {"coordinates": [127.056714, 37.50746], "type": "Point"}, "properties": {"name": "\uc2dc\uadf8\ub2c8\ucc98\ubc14\uc774\ucf54\ub9ac\uc544(\uc8fc)", "type": "medical_device"}, "type": "Feature"}
{"geometry": {"coordinates": [126.973621, 37.557057], "type": "Point"}, "properties": {"name": "\ud55c\uad6d\ubca0\ub9c1\uac70\uc778\uac94\ud558\uc784\ub3d9\ubb3c\uc57d\ud488(\uc8fc)", "type": "medical_device"}, "type": "Feature"}
{"geometry": {"coordinates": [126.878648, 37.478683], "type": "Point"}, "properties": {"name": "(\uc8fc)\ud14c\ud06c\ud50c\ub7ec\uc2a4", "type": "medical_device"}, "type": "Feature"}
{"geometry": {"coordinates": [126.927032, 37.487349], "type": "Point"}, "properties": {"name": "\ub2e4\uc815\uba54\ub514\uce7c", "type": "medical_device"}, "type": "Feature"}
{"geometry": {"coordinates": [126.950715, 37.544594], "type": "Point"}, "properties": {"name": "\uc8fc\uc2dd\ud68c\uc0ac \uac00\ub78c\ud3ec\ub9ac\uc544", "type": "medical_device"}, "type": "Feature"}
{"geometry": {"coordinates": [126.88609, 37.478914], "type": "Point"}, "properties": {"name": "\uc5e0\ub514\ucf00\uc774(MDK)", "type": "medical_device"}, "type": "Feature"}
{"geometry": {"coordinates": [126.950715, 37.544594], "type": "Point"}, "properties": {"name": "\uc8fc\uc2dd\ud68c\uc0ac \uc2dd\uc2a4\ub098\ub8e8", "type": "medical_device"}, "type": "Feature"}
{"geometry": {"coordinates": [127.045813, 37.538587], "type": "Point"}, "properties": {"name": "\uc8fc\uc2dd\ud68c\uc0ac \ub3d9\ub3c4\ubc14\uc774\uc624\ud14d", "type": "medical_device"}, "type": "Feature"}
{"geometry": {"coordinates": [127.121124, 37.480984], "type": "Point"}, "properties": {"name": "\ud1b0\uacfc\uc2a4\ub204\ud53c", "type": "medical_device"}, "type": "Feature"}
{"geometry": {"coordinates": [126.875384, 37.506298], "type": "Point"}, "properties": {"name": "(\uc8fc)\uc9c0\uc624\ubbf8\ub514\uc5b4", "type": "medical_device"}, "type": "Feature"}
{"geometry": {"coordinates": [127.12594, 37.499628], "type": "Point"}, "properties": {"name": "\uc5d0\uc774\ube44\ud53c\uc544\uc774(\uc8fc)", "type": "medical_device"}, "type": "Feature"}
{"geometry": {"coordinates": [127.064007, 37.547513], "type": "Point"}, "properties": {"name": "(\uc8fc)\ub124\uc624\ub518\ubc14\uc774\uc624\ubcb3", "type": "medical_device"}, "type": "Feature"}
{"geometry": {"coordinates": [126.989996, 37.57509], "type": "Point"}, "properties": {"name": "(\uc8fc)\uc544\uc774\ubc14\uc774\uc624\uc0ac\uc774\uc5b8\uc2a4", "type": "medical_device"}, "type": "Feature"}
{"geometry": {"coordinates": [126.966977, 37.563287], "type": "Point"}, "properties": {"name": "\ud3ec\ubca0\uc624", "type": "medical_device"}, "type": "Feature"}
{"geometry": {"coordinates": [126.918279, 37.559478], "type": "Point"}, "properties": {"name": "\ub098\ubb34\uc2dc\uc2a4", "type": "medical_device"}, "type": "Feature"}
{"geometry": {"coordinates": [127.125043, 37.477576], "type": "Point"}, "properties": {"name": "\ubbf8\uc2a4\ud130\ub77c\ub77c", "type": "medical_device"}, "type": "Feature"}
{"geometry": {"coordinates": [126.905348, 37.518422], "type": "Point"}, "properties": {"name": "\ubca0\uc774\ube44\ubabd", "type": "medical_device"}, "type": "Feature"}
{"geometry": {"coordinates": [126.896516, 37.483354], "type": "Point"}, "properties": {"name": "\ub2f4\ucef4\ud37c\ub2c8", "type": "medical_device"}, "type": "Feature"}
{"geometry": {"coordinates": [127.107792, 37.513544], "type": "Point"}, "properties": {"name": "\ubc84\ubc15\ucf54\ub9ac\uc544(\uc8fc)", "type": "medical_device"}, "type": "Feature"}
{"geometry": {"coordinates": [126.944611, 37.53605], "type": "Point"}, "properties": {"name": "\ud14d\uc18c\ud53c\uc544\ubab0", "type": "medical_device"}, "type": "Feature"}
{"geometry": {"coordinates": [126.904101, 37.553342], "type": "Point"}, "properties": {"name": "\ube44\uc564\ucf00\uc774", "type": "medical_device"}, "type": "Feature"}
{"geometry": {"coordinates": [126.904101, 37.553342], "type": "Point"}, "properties": {"name": "\uc5d0\uc2a4\uc81c\uc774", "type": "medical_device"}, "type": "Feature"}
{"geometry": {"coordinates": [127.135525, 37.532558], "type": "Point"}, "properties": {"name": "\uba54\ub514365", "type": "medical_device"}, "type": "Feature"}
{"geometry": {"coordinates": [126.894746, 37.535671], "type": "Point"}, "properties": {"name": "\uc120\uc720\uc0ac", "type": "medical_device"}, "type": "Feature"}
{"geometry": {"coordinates": [126.850096, 37.494207], "type": "Point"}, "properties": {"name": "\ub2e4\uc6b0\ub9ac", "type": "medical_device"}, "type": "Feature"}
{"geometry": {"coordinates": [127.142083, 37.546987], "type": "Point"}, "properties": {"name": "\ub9c8\ub8e8\ubaa8\uc544", "type": "medical_device"}, "type": "Feature"}
{"geometry": {"coordinates": [127.053852, 37.512848], "type": "Point"}, "properties": {"name": "\uc8fc\uc2dd\ud68c\uc0ac \ud30c\uc774\ube0c\uc6d0", "type": "medical_device"}, "type": "Feature"}
{"geometry": {"coordinates": [127.053852, 37.512848], "type": "Point"}, "properties": {"name": "\uc8fc\uc2dd\ud68c\uc0ac \ud30c\uc774\ube0c\uc6d0", "type": "medical_device"}, "type": "Feature"}
{"geometry": {"coordinates": [127.023604, 37.631914], "type": "Point"}, "properties": {"name": "(\uc8fc)\ub300\uc885\uae30\uae30\uc0b0\uc5c5", "type": "medical_device"}, "type": "Feature"}
{"geometry": {"coordinates": [127.02141, 37.567452], "type": "Point"}, "properties": {"name": "(\uc8fc)\ucf00\uc774\ub514\uc54c\ud55c\uad6d\uae30\uc5c5\uc11c\ube44\uc2a4", "type": "medical_device"}, "type": "Feature"}
{"geometry": {"coordinates": [127.032883, 37.495588], "type": "Point"}, "properties": {"name": "(\uc8fc)\ube44\uc5e0\uc5d0\uc2a4", "type": "medical_device"}, "type": "Feature"}
{"geometry": {"coordinates": [127.036595, 37.576112], "type": "Point"}, "properties": {"name": "\ub3d9\uc544\uc5d0\uc2a4\ud2f0(\uc8fc)", "type": "medical_device"}, "type": "Feature"}
{"geometry": {"coordinates": [127.119173, 37.487594], "type": "Point"}, "properties": {"name": "\ubbf8\uc2a4\ud130\ub77c\ub77c", "type": "medical_device"}, "type": "Feature"}
{"geometry": {"coordinates": [126.968856, 37.530088], "type": "Point"}, "properties": {"name": "\ud638\ud06c\ub9c8\ud589\uc815\uc0ac\uc0ac\ubb34\uc18c", "type": "medical_device"}, "type": "Feature"}
{"geometry": {"coordinates": [127.079267, 37.54075], "type": "Point"}, "properties": {"name": "\uc8fc\uc2dd\ud68c\uc0ac \uc704\ub4dc\ud3ab\ubc14\uc774\uc624", "type": "medical_device"}, "type": "Feature"}
{"geometry": {"coordinates": [127.119173, 37.487594], "type": "Point"}, "properties": {"name": "\ubbf8\uc2a4\ud130\ub77c\ub77c", "type": "medical_device"}, "type": "Feature"}
{"geometry": {"coordinates": [126.830747, 37.576489], "type": "Point"}, "properties": {"name": "(\uc8fc)\ud0dc\uc6c5\uba54\ub514\uce7c", "type": "medical_device"}, "type": "Feature"}
{"geometry": {"coordinates": [126.905641, 37.52056], "type": "Point"}, "properties": {"name": "\uc8fc\uc2dd\ud68c\uc0ac \uc0c1\uc0c1\ud0c0\ub798", "type": "medical_device"}, "type": "Feature"}
{"geometry": {"coordinates": [126.945447, 37.486266], "type": "Point"}, "properties": {"name": "(\uc8fc)\ud0d1\ucee4\uba38\uc2a4 \uad00\uc545\uc9c0\uc810", "type": "medical_device"}, "type": "Feature"}
{"geometry": {"coordinates": [127.064657, 37.561472], "type": "Point"}, "properties": {"name": "\uc81c\uc774\uc5d0\uc2a4\ud14c\ud06c", "type": "medical_device"}, "type": "Feature"}
{"geometry": {"coordinates": [126.89273, 37.485154], "type": "Point"}, "properties": {"name": "(\uc8fc)\ub514\uc9c0\uc778", "type": "medical_device"}, "type": "Feature"}
{"geometry": {"coordinates": [126.891461, 37.574791], "type": "Point"}, "properties": {"name": "\uc6f0\ube44\ud2b8", "type": "medical_device"}, "type": "Feature"}
{"geometry": {"coordinates": [127.035772, 37.515095], "type": "Point"}, "properties": {"name": "\uc8fc\uc2dd\ud68c\uc0ac \ud5c8\uae00", "type": "medical_device"}, "type": "Feature"}
{"geometry": {"coordinates": [127.035772, 37.515095], "type": "Point"}, "properties": {"name": "\uc8fc\uc2dd\ud68c\uc0ac \ud5c8\uae00", "type": "medical_device"}, "type": "Feature"}
{"geometry": {"coordinates": [127.030584, 37.509457], "type": "Point"}, "properties": {"name": "\uc5d0\uc2a4\ub514\ud5ec\uc2a4\ucf00\uc5b4", "type": "medical_device"}, "type": "Feature"}
{"geometry": {"coordinates": [127.045499, 37.472648], "type": "Point"}, "properties": {"name": "\uc544\ub08c\uc5c6\uc774\uc8fc\ub294\ub098\ubb34", "type": "medical_device"}, "type": "Feature"}
{"geometry": {"coordinates": [127.019495, 37.493711], "type": "Point"}, "properties": {"name": "\uc8fc\uc2dd\ud68c\uc0ac \uc11c\uc6b8\ucf54\ud37c\ub808\uc774\uc158", "type": "medical_device"}, "type": "Feature"}
{"geometry": {"coordinates": [127.046478, 37.474148], "type": "Point"}, "properties": {"name": "\ub354\ubca0\ub9ac\uc53d the very thing", "type": "medical_device"}, "type": "Feature"}
{"geometry": {"coordinates": [126.92042, 37.574874], "type": "Point"}, "properties": {"name": "\ub85c\uadf8\uc778\ud3ec\uc720", "type": "medical_device"}, "type": "Feature"}
{"geometry": {"coordinates": [126.896186, 37.508231], "type": "Point"}, "properties": {"name": "\ud5ec\ub124\uace0\uc6d4\ucee4", "type": "medical_device"}, "type": "Feature"}
{"geometry": {"coordinates": [127.047436, 37.496134], "type": "Point"}, "properties": {"name": "931\uc2a4\ud1a0\uc5b4", "type": "medical_device"}, "type": "Feature"}
{"geometry": {"coordinates": [127.08495, 37.554416], "type": "Point"}, "properties": {"name": "\uc6b0\uc5f0\ucef4\ud37c\ub2c8", "type": "medical_device"}, "type": "Feature"}
{"geometry": {"coordinates": [126.901593, 37.494063], "type": "Point"}, "properties": {"name": "\uc625\uc774\ucee4\ud53c", "type": "medical_device"}, "type": "Feature"}
{"geometry": {"coordinates": [127.015271, 37.571757], "type": "Point"}, "properties": {"name": "\ub780\uc81c\ub9ac\ud558\uc6b0\uc2a4", "type": "medical_device"}, "type": "Feature"}
{"geometry": {"coordinates": [127.05832, 37.669524], "type": "Point"}, "properties": {"name": "\ud0c0\uc785\ube44", "type": "medical_device"}, "type": "Feature"}
{"geometry": {"coordinates": [127.041798, 37.508654], "type": "Point"}, "properties": {"name": "(\uc8fc)\ub808\uc774\ubc14\uc774\uc624\uc5d0\uc774\uce58\uc564\ube44", "type": "medical_device"}, "type": "Feature"}
{"geometry": {"coordinates": [126.882282, 37.493418], "type": "Point"}, "properties": {"name": "(\uc8fc)\ubaa8\ub4e0\ud1b5\uc0c1", "type": "medical_device"}, "type": "Feature"}
{"geometry": {"coordinates": [126.973621, 37.557057], "type": "Point"}, "properties": {"name": "\ud55c\uad6d\ubca0\ub9c1\uac70\uc778\uac94\ud558\uc784\ub3d9\ubb3c\uc57d\ud488(\uc8fc)", "type": "medical_device"}, "type": "Feature"}
{"geometry": {"coordinates": [126.847954, 37.544365], "type": "Point"}, "properties": {"name": "(\uc8fc)\ud55c\uc6b8\ud53c\uc564\ucf00\uc774", "type": "medical_device"}, "type": "Feature"}
{"geometry": {"coordinates": [127.014829, 37.486823], "type": "Point"}, "properties": {"name": "\uc2ec\ucf69\ucea3", "type": "medical_device"}, "type": "Feature"}
{"geometry": {"coordinates": [126.93628, 37.54662], "type": "Point"}, "properties": {"name": "\ud0a4\uc988\ubc0b\uc778\ud130\ub124\uc154\ub110", "type": "medical_device"}, "type": "Feature"}
{"geometry": {"coordinates": [126.923114, 37.642233], "type": "Point"}, "properties": {"name": "\ud558\uc6b8", "type": "medical_device"}, "type": "Feature"}
{"geometry": {"coordinates": [127.025308, 37.545227], "type": "Point"}, "properties": {"name": "\uc62c\ub9ac\uace0365\uc131\ub3d9\uc9c0\uc0ac", "type": "medical_device"}, "type": "Feature"}
