,lat,long,name,address,type
0,37.5543692,126.9303532,워킹페코반려동물,"서울특별시 마포구 서강로9길 59 3층, 핑크색 문❤",동물위탁관리업
1,37.5490226,126.9068567,독핏 케어센터반려동물,서울특별시 마포구 희우정로1길 25 지하1층,동물위탁관리업
2,37.5317992,126.8582818,하울 애견 유치원애견훈련,서울특별시 강서구 곰달래로 227 2층.3층 하울유치원,동물위탁관리업
3,37.5332212,126.8692555,도그하우스애견훈련,서울특별시 양천구 목동중앙서로 47 성보주상복합아파트 1층,동물위탁관리업
4,37.5281566,126.8587809,키움반려견아카데미애견훈련,서울특별시 양천구 은행정로 94 201호,동물위탁관리업
5,37.5387966,126.9639117,도기캠프애견훈련,"서울특별시 용산구 백범로 313 롯데캐슬상가 B2층 203,204호 도기캠프",동물위탁관리업
6,37.6372458,126.8322044,퍼피루시드앤로던트클럽반려동물미용,경기도 고양시 덕양구 꽃마을로 4 퍼스트타워 310호,동물위탁관리업
7,37.5281566,126.8587809,이든반려견문화센터반려동물미용,서울특별시 양천구 은행정로 94,동물위탁관리업
8,37.5545019,126.8615889,곁에 있을개반려동물미용,서울특별시 강서구 화곡로66길 162,동물위탁관리업
9,37.549892,126.8748115,강아지정류장애견카페,서울특별시 강서구 양천로 709,동물위탁관리업
10,37.5453378,126.8470297,마이댕댕스쿨반려견놀이터,서울특별시 강서구 까치산로 75 호왕빌딩 7층 마이댕댕스쿨,동물위탁관리업
11,37.5462095,126.8461517,꽃길만가개반려동물,서울특별시 강서구 화곡로42가길 5-7,동물위탁관리업
12,37.5683731,126.9782699,박준훈련사애견유치원강아지훈련소애견훈련,서울특별시 중구 세종대로 136,동물위탁관리업
13,37.6220653,126.9270822,내생각애견호텔유치원반려동물호텔,서울특별시 은평구 연서로 298 2층,동물위탁관리업
14,37.6592063,126.8716043,멍설유치원반려견놀이터,경기도 고양시 덕양구 서삼릉길 357 1층,동물위탁관리업
15,37.6546652,126.8982438,힐링독반려견센터애견훈련,경기도 고양시 덕양구 통일로 210 1층,동물위탁관리업
16,37.6339441,126.8725315,네발아이들애견훈련,경기도 고양시 덕양구 의장로 122 원프라자 4층,동물위탁관리업
17,37.5800586,127.0036687,강아지대학로애견카페,서울특별시 종로구 대학로12길 92 지하1층,동물위탁관리업
18,37.6387457,127.0202733,핫Dog 1호점반려동물미용,서울특별시 강북구 노해로11길 41,동물위탁관리업
19,37.6093856,127.0224424,GODOG반려동물미용,서울특별시 성북구 삼양로 69 지상1층,동물위탁관리업
20,37.6377335,127.0224042,멍멍슈퍼반려동물,서울특별시 강북구 노해로7길 7-1,동물위탁관리업
21,37.6057605,127.0243654,더케어코리아기업,서울특별시 성북구 삼양로4길 3 한림빌딩 4F,동물위탁관리업
22,37.4742622,126.6313671,멜리애견유치원애견훈련,인천광역시 중구 월촌길 52,동물위탁관리업
23,37.4954307,126.5430811,러블리독반려동물미용,인천광역시 중구 운중로 170 러블리독,동물위탁관리업
24,37.4859037,126.5401787,개인플레이반려동물호텔,인천광역시 중구 운중로48번길 102,동물위탁관리업
25,37.5148088,126.5353952,견과류 Dog&You반려동물호텔,인천광역시 중구 논골길 5,동물위탁관리업
26,37.3788938,126.6388452,하이포우반려견유치원반려견놀이터,인천광역시 연수구 하모니로 158 D동 412호,동물위탁관리업
27,37.52731,126.6278726,베테랑동물병원 청라점동물병원,인천광역시 서구 청라한내로100번길 8-28,동물위탁관리업
28,37.52731,126.6278726,아토 사랑스러워반려동물미용,인천광역시 서구 청라한내로161번길 3-3 4층 아토사랑스러워,동물위탁관리업
29,37.3788938,126.6388452,별다섯 개반려동물호텔,인천광역시 연수구 하모니로188번길 17 SK뷰센트럴 상가 218호,동물위탁관리업
30,37.400886,126.6386,아소비퍼피스반려견놀이터,인천광역시 연수구 아트센터대로 107 커낼워크 301동 513호,동물위탁관리업
31,37.4225466,126.6474225,놀러들오개애견카페,인천광역시 연수구 한나루로 87 주문빌딩5층,동물위탁관리업
32,37.5387966,126.9639117,도기캠프애견훈련,"서울특별시 용산구 백범로 313 롯데캐슬상가 B2층 203,204호 도기캠프",동물위탁관리업
33,37.4985126,127.0257229,스타몽 강아지 유치원애견훈련,서울특별시 서초구 서초대로73길 12 세계빌딩 B1층,동물위탁관리업
34,37.5065872,126.9621719,나밍밍강아지네반려동물미용,서울특별시 동작구 서달로 150 이랜드 해가든 상가 110호,동물위탁관리업
35,37.4991233,126.9981167,프랑소와펫 아카데미애견훈련,서울특별시 서초구 서래로 47 지하1층,동물위탁관리업
36,37.504631,127.0224878,브이케어반려동물미용,서울특별시 서초구 강남대로79길 32 2층,동물위탁관리업
37,37.5184931,126.9395997,슈퍼독애견훈련,서울특별시 영등포구 여의동로 213 상가층 114호,동물위탁관리업
38,37.5571021,127.0401852,바우라움 강아지유치원애견훈련,서울특별시 성동구 왕십리로 241 4층 바우라움,동물위탁관리업
39,37.5474202,127.044763,댕댕이하우스반려동물미용,서울특별시 성동구 왕십리로 110 2층,동물위탁관리업
40,37.54638740000001,127.042291,9PETS반려동물미용,서울특별시 성동구 서울숲2길 32-14 101동 106~107호,동물위탁관리업
41,37.5506123,127.0459769,모동모동반려동물미용,서울특별시 성동구 왕십리로 16 트리마제 상가 103호,동물위탁관리업
42,37.5592162,127.076535,키즈멍애견훈련,서울특별시 광진구 동일로62길 41,동물위탁관리업
43,37.5618437,127.0826714,뚜뚜미엘반려동물미용,서울특별시 광진구 긴고랑로 60 2층 뚜뚜미엘,동물위탁관리업
44,37.5235096,127.0297941,필스타반려동물,서울특별시 강남구 논현로164길 17,동물위탁관리업
45,37.5251795,127.0554979,바라봄애견카페,서울특별시 강남구 영동대로142길 27 1층,동물위탁관리업
46,37.5595296,127.0878678,와사비네집애견훈련,서울특별시 광진구 용마산로 66 3층 와사비네집,동물위탁관리업
47,37.5136773,127.0618982,강아지유치원 퍼피스쿨반려동물,서울특별시 강남구 봉은사로104길 10 동화빌딩 4층,동물위탁관리업
48,37.5213517,127.1026097,박준애견유치원강아지훈련소애견훈련,서울특별시 송파구 올림픽로 300,동물위탁관리업
49,37.5440055,127.1212667,한강펫케어센터 강동점반려동물호텔,서울특별시 강동구 천중로2길 57 노승빌딩 5층,동물위탁관리업
50,37.617544,127.0356305,코코퍼피반려동물미용,서울특별시 강북구 오현로 56 꿈의숲 롯데캐슬 101동 4호,동물위탁관리업
51,37.6136415,127.05085,마이도그반려동물미용,서울특별시 성북구 돌곶이로 19 한양빌딩 1층 골목 초입,동물위탁관리업
52,37.619344,127.0448112,땡일리 강아지유치원애견훈련,서울특별시 성북구 월계로32길 24,동물위탁관리업
53,37.6566014,127.0629736,도니바니애견카페애견카페,서울특별시 노원구 상계로 71-1 2층,동물위탁관리업
54,37.670274,127.0820675,포레스트독반려동물,서울특별시 노원구 덕릉로126길 12 병창빌딩,동물위탁관리업
55,37.6669626,127.1147453,멍뭉유치원반려동물,경기도 남양주시 별내3로 334 다우프라자 2층 멍뭉유치원,동물위탁관리업
56,37.6631312,127.1271035,리틀원유치원반려견놀이터,경기도 남양주시 별내5로23번길 18-26 1층 리틀원,동물위탁관리업
57,37.6484473,127.1092994,파파퍼피 DOG하우스애견훈련,경기도 남양주시 불암로81번길 7,동물위탁관리업
58,37.6360028,127.2165279,우리아기 예뻐지는 날반려동물미용,경기도 남양주시 덕송2로10번길 15-94 102호,동물위탁관리업
59,37.5463194,127.1346938,제제네멍치원반려동물호텔,서울특별시 강동구 구천면로42길 8 5층,동물위탁관리업
60,37.5691025,127.18498,도리스애견훈련,"경기도 하남시 미사강변중앙로 189 에코브릿지2 308,309호",동물위탁관리업
61,37.5691025,127.18498,해피독 트레이닝 스쿨애견훈련,경기도 하남시 미사강변한강로136번안길 9 1층,동물위탁관리업
62,37.5691025,127.18498,안녕강아지애견카페,경기도 하남시 미사강변중앙로 221 센트럴파크2 305호 안녕강아지,동물위탁관리업
63,37.5058775,127.086794,MM애견공방반려동물미용,서울특별시 송파구 백제고분로 165 서도빌딩,동물위탁관리업
64,37.5134326,127.1096249,펫도그 애견스쿨애견훈련,서울특별시 송파구 새말로 146 하나빌딩 3층,동물위탁관리업
65,37.4889676,127.1244482,힐링몽애견훈련,서울특별시 송파구 동남로4길 13 지하1층,동물위탁관리업
66,37.4951713,127.1265098,멍찌네하우스반려동물호텔,서울특별시 송파구 중대로16길 19-10,동물위탁관리업
67,37.4885328,127.1241434,멍돌하우스반려동물호텔,서울특별시 송파구 문정로1길 26,동물위탁관리업
68,37.513265,127.101133,돌봄반려동물호텔,서울특별시 송파구 백제고분로7길 6-5 지하1층,동물위탁관리업
69,37.4836751,127.1286743,갓독애견호텔반려동물호텔,서울특별시 송파구 새말로 62 송파 푸르지오시티,동물위탁관리업
70,37.503868,127.0333441,24개스트하우스 강남강아지유치원반려견놀이터,서울특별시 강남구 봉은사로20길 52 지하 1층,동물위탁관리업
71,37.4935884,127.0354824,멍투게더 강아지유치원반려동물호텔,서울특별시 강남구 역삼로14길 14 명진빌딩 3층,동물위탁관리업
72,37.4999269,127.0365526,준애견훈련소강아지유치원애견훈련,서울특별시 강남구 테헤란로 152,동물위탁관리업
73,37.4993527,127.0428502,강남강아지반려견놀이터,서울특별시 강남구 언주로79길 14 2층,동물위탁관리업
74,37.5155371,127.0306609,해피퍼피애견훈련,서울특별시 강남구 논현로134길 5,동물위탁관리업
75,37.5045647,127.0340341,스타일리다독반려동물미용,서울특별시 강남구 논현로101길 10,동물위탁관리업
76,37.5214217,127.0381383,나나리펫하우스반려동물호텔,서울특별시 강남구 논현로 70 동성빌딩 2층,동물위탁관리업
77,37.5120274,127.0411376,전설의강아지애견카페,서울특별시 강남구 선릉로115길 22,동물위탁관리업
78,37.4794966,127.0425575,야옹아멍멍해봐 양재점반려동물분양,서울특별시 서초구 양재천로 141,동물위탁관리업
79,37.4858797,126.9889187,하울팟 케어클럽 서초본점반려동물,서울특별시 서초구 서초대로58길 36 4~5F,동물위탁관리업
80,37.4961266,126.9970813,프랑소와펫 서래점반려동물미용,"서울특별시 서초구 서래로1길 18 엠제이빌딩 1층, 지하1층",동물위탁관리업
81,37.4858797,126.9889187,하울팟 케어클럽 서초본점반려동물,서울특별시 서초구 서초대로58길 36 4~5F,동물위탁관리업
82,37.4880562,126.986664,유어마이독반려동물,서울특별시 서초구 도구로 128-13 1층,동물위탁관리업
83,37.48111859999999,126.9141954,디어몽반려동물미용,서울특별시 관악구 난곡로63길 6,동물위탁관리업
84,37.488577,126.928096,투퍼피반려동물호텔,서울특별시 관악구 신림로 387 3층 투퍼피,동물위탁관리업
85,37.487627,126.9326428,개라다이스반려동물호텔,서울특별시 관악구 봉천로 283 대윤빌딩,동물위탁관리업
86,37.4778815,126.9345174,태우하우스반려동물호텔,서울특별시 관악구 신림로 242,동물위탁관리업
87,37.5029226,126.9094598,다즐링반려동물미용,서울특별시 영등포구 신길로 119 1층 121호,동물위탁관리업
88,37.4955123,126.7861847,체크인독반려동물호텔,경기도 광명시 금하로 534 종만빌딩 4층,동물위탁관리업
89,37.517007,126.9041419,박준강아지유치원애견훈련소애견훈련,서울특별시 영등포구 영중로 15,동물위탁관리업
90,37.4756175,126.8523921,몽이슈반려동물미용,경기도 광명시 광명로 855-1 3층,동물위탁관리업
91,37.4703975,126.8560839,아름다울개반려동물미용,경기도 광명시 도덕로 79 3층,동물위탁관리업
92,37.519515,126.8565618,몽몽바블펫샵반려동물미용,서울특별시 양천구 중앙로36길 24,동물위탁관리업
93,37.5590032,126.8343207,포독반려동물미용,서울특별시 강서구 마곡동로10길 46 406호,동물위탁관리업
94,37.6147407,126.8331688,댕댕당반려동물미용,경기도 고양시 덕양구 무원로6번길 61 GL프라자 3층,동물위탁관리업
