,infra_id,name,lat,lng,address,type_id
0,a_1,더조은 동물의료센터,37.44951674,126.9033108,서울특별시 금천구 시흥대로 172 서우빌딩 (시흥동),1
1,a_2,광진동물의료센터,37.54525344,127.0859485,서울특별시 광진구 광나루로 507 (구의동),1
2,a_3,놀로동물행동클리닉,37.51944086,127.0490301,서울특별시 강남구 삼성로133길 7 베디베로스퀘어 5층 (청담동),1
3,a_4,현대종합동물병원,37.66440307,127.0420598,서울특별시 도봉구 도봉로 669 1층 (방학동),1
4,a_5,홍익동물종합병원,37.5480971,126.9183856,서울특별시 마포구 독막로 45 (합정동),1
5,a_6,헬릭스동물심장수술센터,37.56588427,127.0033458,서울특별시 중구 을지로38길 20 뉴천지관광호텔 2층 (을지로5가),1
6,a_7,헬릭스동물암센터,37.56588427,127.0033458,서울특별시 중구 을지로38길 20 뉴천지관광호텔 1층 (을지로5가),1
7,a_8,서울동물영상종양센터,37.56588427,127.0033458,서울특별시 중구 을지로38길 20 뉴천지관광호텔 1층 (을지로5가),1
8,a_9,웰니스 동물병원,37.6273414,127.0618584,서울특별시 노원구 마들로3길 15 월계이마트 2층 (월계동),1
9,a_10,다랑동물병원,37.48398832,127.0673919,서울특별시 강남구 삼성로 11 상가동 103104호 (개포동 디에이치아너힐즈),1
10,a_11,라파엘동물병원,37.50877779,127.0218964,서울특별시 서초구 강남대로 525-3 (반포동),1
11,a_12,로얄동물병원,37.61115321,126.9168037,서울특별시 은평구 연서로 137 (구산동),1
12,a_13,H 동물병원,37.61795032,127.0189395,서울특별시 강북구 삼양로27길 35-21 미아프라자 106호 (미아동),1
13,a_14,북악동물병원,37.59888814,126.9602501,서울특별시 종로구 자하문로 293 (홍지동),1
14,a_15,올리브동물병원,37.59928153,126.9589825,서울특별시 종로구 자하문로 305 (홍지동),1
15,a_16,VIP 동물의료센터,37.59230998,127.0134277,서울특별시 성북구 동소문로 73 1층 (동소문동6가 시티플레이스),1
16,a_17,헬릭스동물메디컬센터,37.50488863,127.0020907,서울특별시 서초구 신반포로 162 (반포동 르본시티 2층),1
17,a_18,VIP동물의료센터 청담점,37.51944086,127.0490301,서울특별시 강남구 삼성로133길 7 베디베로스퀘어 234층 (청담동),1
18,a_19,이로동물의료센터,37.48421211,126.9368195,서울특별시 관악구 남부순환로 1678 1 2층 (신림동),1
19,a_20,치료해 주오,37.61294498,127.0768558,서울특별시 중랑구 동일로 925 3층 (묵동),1
20,a_21,선동물병원,37.58445027,126.9699803,서울특별시 종로구 자하문로 95 신교빌딩 1층 (신교동),1
21,a_22,대학로동물병원,37.58445027,126.9699803,서울특별시 종로구 창경궁로 261 (명륜2가),1
22,a_23,클로버 동물병원,37.58445027,126.9699803,서울특별시 구로구 서해안로 2096 203 204호 (항동),1
23,a_24,해동물병원,37.57490218,127.015511,서울특별시 종로구 지봉로 53-1 (창신동),1
24,a_25,누리봄동물병원,37.5757938,126.9710648,서울특별시 종로구 사직로12길 2 (내자동),1
25,a_26,우리동물병원,37.57870643,127.0156443,서울특별시 종로구 지봉로 96-3 (숭인동),1
26,a_27,월드펫동물병원,37.60605787,126.9608157,서울특별시 종로구 진흥로 477-1 (신영동),1
27,a_28,윤신근박사동물병원,37.56162905,126.9968562,서울특별시 중구 퇴계로 226 (필동2가),1
28,a_29,웰펫동물병원,37.55431208,127.0114859,서울특별시 중구 동호로 178 (신당동),1
29,a_30,황동물병원,37.56237206,127.0000057,서울특별시 중구 퇴계로 254-1 (묵정동),1
30,a_31,바우미우동물병원,37.55929355,127.0128413,서울특별시 중구 다산로 175 명덕빌딩 (신당동),1
31,a_32,미래지동물의료센터,37.55365415,127.0096509,서울특별시 중구 다산로 107 2층 (신당동),1
32,a_33,남산동물병원,37.54868079,127.0088805,서울특별시 중구 다산로 32 5상가동 217호 (신당동 남산타운),1
33,a_34,대한동물병원,37.56206135,126.9968919,서울특별시 중구 퇴계로 227 (충무로4가),1
34,a_35,좋아요 동물병원,37.56052698,127.0191102,서울특별시 중구 다산로36길 83 1층 (신당동),1
35,a_36,백슬동물병원,37.55508977,126.9655637,서울특별시 중구 만리재로 177 105호 (만리동2가 서울역한라비발디센트럴),1
36,a_37,웰니스클리닉(청계천점),37.57097823,127.0214337,서울특별시 중구 청계천로 400 지하 1층 (황학동 롯데캐슬베네치아),1
37,a_38,메종동물병원,37.56349857,127.0159749,서울특별시 중구 다산로 230 하나빌딩 1층 (신당동),1
38,a_39,엘 동물병원,37.50860202,127.1339813,서울특별시 송파구 중대로 320 이화빌딩 1층 (오금동),1
39,a_40,바다동물병원(Bada Animal Hospital),37.52427452,126.9706847,서울특별시 용산구 서빙고로 67 지하1층 비21호 (용산동5가 파크타워),1
40,a_41,퍼스동물병원,37.5431017,126.9878326,서울특별시 용산구 신흥로 54 106호 (용산동2가 북동연립),1
41,a_42,동물병원 메이,37.53371351,127.0027743,서울특별시 용산구 대사관로 41 지상2층 (한남동),1
42,a_43,이태원동물병원,37.53639468,126.9872419,서울특별시 용산구 녹사평대로 210 지상12층 (이태원동),1
43,a_44,바른동물병원,37.5661716,127.0219093,서울특별시 중구 퇴계로 447 1층 131호 (황학동 황학 아크로타워),1
44,a_45,민트동물병원,37.53402866,126.9504087,서울특별시 용산구 원효로 51 119호 (산천동 삼성테마트),1
45,a_46,보광동물병원,37.52652219,127.0007582,서울특별시 용산구 보광로 22-1 (보광동),1
46,a_47,달래동물의료센터,37.5355651,127.0065154,서울특별시 용산구 한남대로 76 한남프라자 2층 (한남동),1
47,a_48,원효종합동물병원,37.53643341,126.9631532,서울특별시 용산구 원효로 187 (원효로2가),1
48,a_49,한사랑동물병원,37.54170591,126.9873984,서울특별시 용산구 신흥로 36-1 (용산동2가),1
49,a_50,차오름동물병원,37.53428079,126.9511239,서울특별시 용산구 효창원로 14 (산천동),1
50,a_51,펫동물병원,37.53959805,126.9610828,서울특별시 용산구 백범로 285 지상1층 (효창동),1
51,a_52,좋아서하는 동물병원,37.53827656,126.9673632,서울특별시 용산구 백범로 341 B동 지상1층 113114호 (원효로1가 리첸시아 용산),1
52,a_53,열린동물종합병원,37.53562558,126.9617531,서울특별시 용산구 원효로 171 신영빌딩 (원효로2가),1
53,a_54,한남동물병원,37.53242301,127.0052773,서울특별시 용산구 대사관로24길 28 (한남동),1
54,a_55,21세기동물병원,37.52837456,126.9992137,서울특별시 용산구 보광로 46 용호빌딩 지상2층 202203호 (보광동),1
55,a_56,원스동물병원,37.54498057,126.9694907,서울특별시 용산구 청파로47길 16 지상1층 (청파동2가),1
56,a_57,키다리 동물병원,37.56951632,126.9050208,서울특별시 마포구 월드컵북로 218 2층 (성산동),1
57,a_58,효창동물병원,37.53931909,126.9618869,서울특별시 용산구 백범로 293 (효창동),1
58,a_59,남산동물병원,37.55049947,126.9771056,서울특별시 용산구 후암로 51 지상1층 (후암동),1
59,a_60,펫토이동물병원,37.53350972,127.0016835,서울특별시 용산구 대사관로 32 (한남동),1
60,a_61,엉클장동물병원,37.53827656,126.9673632,서울특별시 용산구 백범로 341 A동 지상1층 106호 (원효로1가 리첸시아 용산),1
61,a_62,아이러브펫동물병원 은평점,37.63914583,126.9191995,서울특별시 은평구 통일로 1050 롯데몰 은평점 2층 (진관동),1
62,a_63,라온동물병원,37.53964635,126.9895612,서울특별시 용산구 회나무로13길 6 (이태원동),1
63,a_64,메디펫 동물병원,37.48757268,127.0259362,서울특별시 서초구 효령로 384 (서초동),1
64,a_65,베이동물병원,37.5193301,126.9750265,서울특별시 용산구 이촌로 248 11동 102호 (이촌동 한강맨션),1
65,a_66,24시LC동물의료센터,37.56640638,127.0527473,서울특별시 성동구 천호대로 288 (용답동),1
66,a_67,스테이동물병원,37.54847748,127.0139948,서울특별시 성동구 매봉길 50 (옥수동 이편한세상옥수파크힐스),1
67,a_68,청화종합동물병원,37.53110903,126.99583,서울특별시 용산구 보광로 90 태광빌딩 1층 (이태원동),1
68,a_69,워너비동물병원 용산점,37.52511134,126.969145,서울특별시 용산구 서빙고로 35 101동 101호 (한강로3가 용산시티파크1단지),1
69,a_70,포레동물병원,37.54363123,127.0491998,서울특별시 성동구 성수일로 33 1층 (성수동1가 정인숙보습학원),1
70,a_71,경희궁 바른 동물병원,37.54363123,127.0491998,서울특별시 종로구 송월길 99 상가동 2층 2229호 (홍파동 경희궁자이 2단지),1
71,a_72,달링동물병원,37.53882398,127.0450459,서울특별시 성동구 왕십리로 16 (성수동1가 트리마제),1
72,a_73,다온동물병원,37.56611112,127.0275956,서울특별시 성동구 왕십리로 410 (하왕십리동 센트라스),1
73,a_74,바라봄동물병원,37.56611112,127.0275956,서울특별시 성동구 왕십리로 410 127동 지하층 030호 (하왕십리동 센트라스),1
74,a_75,수동물병원,37.54852956,127.0672,서울특별시 성동구 광나루로 337 (송정동),1
75,a_76,바우라움동물병원,37.55714918,127.0401492,서울특별시 성동구 왕십리로 241 4층 (행당동 서울숲 더샵),1
76,a_77,베이지동물병원,37.56611112,127.0275956,서울특별시 성동구 왕십리로 410 D동 106호 (하왕십리동 센트라스),1
77,a_78,오늘동물병원,37.54686574,127.0448688,서울특별시 성동구 왕십리로 104 영화빌딩 2층 (성수동1가),1
78,a_79,옥수수 동물병원,37.54227994,127.0181404,서울특별시 성동구 독서당로40길 39 213호 (옥수동 어울림상가),1
79,a_80,서울숲동물병원,37.53909863,127.0532292,서울특별시 성동구 뚝섬로 386 (성수동2가),1
80,a_81,펫365동물병원,37.53909863,127.0532292,서울특별시 성동구 독서당로 328 (금호동4가),1
81,a_82,텐즈힐링동물병원,37.56933691,127.0253741,서울특별시 성동구 마장로 137 221동 134호 (상왕십리동 텐즈힐몰),1
82,a_83,오석헌동물병원,37.54513715,127.0137148,서울특별시 성동구 매봉길 13 1층 420호 (옥수동 래미안옥수리버젠상가),1
83,a_84,아지동물병원,37.54803125,127.0210449,서울특별시 성동구 독서당로 289 (금호동4가지상1층),1
84,a_85,24시 명동물메디컬센터,37.50039891,126.8481477,서울특별시 구로구 남부순환로 775 (개봉동 개봉푸르지오),1
85,a_86,제인동물병원,37.53904849,127.0546896,서울특별시 성동구 뚝섬로 395 (성수동2가),1
86,a_87,오렌지동물병원,37.55604217,127.033968,서울특별시 성동구 행당로8길 41-2 (행당동),1
87,a_88,평화와생명동물병원,37.55588046,127.0292074,서울특별시 성동구 행당로 76 110호 (행당동 한진노변상가),1
88,a_89,라임동물병원,37.56553967,127.0303175,서울특별시 성동구 무학로 16 (홍익동),1
89,a_90,쿨펫동물병원,37.56553967,127.0303175,서울특별시 광진구 아차산로 272 (자양동 이마트 자양점),1
90,a_91,도담동물병원(출장진료전문 동물병원),37.55437105,127.0328369,서울특별시 성동구 독서당로59길 84 신동아아파트상가동 1층 111호 (행당동),1
91,a_92,함께하는동물병원,37.54305312,127.0131405,서울특별시 성동구 독서당로 200 (옥수동),1
92,a_93,기린동물병원,37.56569241,127.0427762,서울특별시 성동구 마장로 296 (마장동),1
93,a_94,바른동물병원,37.54596998,127.0198217,서울특별시 성동구 독서당로 270 상가동 2층 206호 (금호동4가 금호동 대우아파트),1
94,a_95,금호동물병원,37.55129246,127.0245414,서울특별시 성동구 금호로 105 비201호 (금호동2가 래미안하이리버 상가동),1
95,a_96,한양동물메디컬센터,37.55966173,127.037014,서울특별시 성동구 왕십리로 282 (행당동),1
96,a_97,이윤세동물병원,37.55588046,127.0292074,서울특별시 성동구 행당로 76 한진노변상가 12층 108호109호203호 (행당동),1
97,a_98,왕십리조은동물병원,37.56456738,127.0278788,서울특별시 성동구 왕십리로 381 (하왕십리동),1
98,a_99,자양동물병원,37.53179361,127.0793492,서울특별시 광진구 뚝섬로52길 4 (자양동),1
99,a_100,한빛동물병원,37.55334425,127.0195509,서울특별시 성동구 금호산길 58(금호동2가),1
100,a_101,다온동물병원,37.56595234,127.0814788,서울특별시 광진구 면목로 142 (중곡동),1
101,a_102,나루동물병원,37.54317802,127.0995649,서울특별시 광진구 아차산로 537-17 (광장동),1
102,a_103,파라곤동물병원,37.54317802,127.0995649,서울특별시 광진구 광나루로 361 2동 103호 (군자동 광진동양파라곤),1
103,a_104,사랑동물병원,37.64535911,127.0153323,서울특별시 강북구 삼양로123길 6-12 (수유동),1
104,a_105,준동물병원,37.53491937,127.0703776,서울특별시 광진구 뚝섬로 541 (자양동),1
105,a_106,더편한동물병원,37.53491937,127.0703776,서울특별시 성북구 숭인로 50 상가동 2203호 (길음동 래미안길음센터피스),1
106,a_107,서울동물병원,37.55455299,127.0870759,서울특별시 광진구 천호대로 623-1 1층 (중곡동),1
107,a_108,쥬라기동물병원,37.54209725,127.0952127,서울특별시 광진구 광나루로 601 (광장동),1
108,a_109,봉식동물병원,37.62585998,127.0184778,서울특별시 강북구 삼양로 252 (미아동),1
109,a_110,연두동물병원,37.62585998,127.0184778,서울특별시 광진구 광나루로 524 (구의동),1
110,a_111,반디동물병원,37.62585998,127.0184778,서울특별시 광진구 능동로 18 125호 (자양동 이튼타워리버3차),1
111,a_112,아이본 동물병원,37.5323746,127.0857524,서울특별시 광진구 자양로 48 104호 (자양동),1
112,a_113,삼색이동물병원,37.54662379,126.9254874,서울특별시 마포구 독막로20나길 22 B106호 (상수동 래미안밤섬리베뉴 1),1
113,a_114,아차산동물병원,37.55179231,127.0902246,서울특별시 광진구 천호대로 663 (구의동),1
114,a_115,광진24시필동물병원,37.53862751,127.0958741,서울특별시 광진구 광나루로56길 32 105106201호 (구의동 구의현대2단지아파트),1
115,a_116,서울동물복지지원센터 동물병원,37.57564072,126.8900451,서울특별시 마포구 매봉산로 31 S-PLEX CENTER 지하1층 (상암동),1
116,a_117,로엘동물병원,37.53205059,127.0787832,서울특별시 광진구 뚝섬로 622-1 (자양동),1
117,a_118,애플동물병원,37.55319121,127.0883049,서울특별시 광진구 천호대로 642-1 (능동),1
118,a_119,보람동물병원,37.55052286,127.0711611,서울특별시 광진구 군자로 84 (군자동),1
119,a_120,방주종합동물병원,37.55932687,127.0809431,서울특별시 광진구 능동로 334 (중곡동),1
120,a_121,중곡동물병원,37.5627496,127.0815722,서울특별시 광진구 긴고랑로 47 (중곡동),1
121,a_122,용마동물병원,37.55952572,127.0878843,서울특별시 광진구 용마산로 66 (중곡동),1
122,a_123,피카소동물병원,37.5472923,127.0732766,서울특별시 광진구 광나루로 392-1 (화양동),1
123,a_124,시민동물병원,37.53613911,127.0840782,서울특별시 광진구 자양로 94 (자양동),1
124,a_125,동서울동물병원,37.54179949,127.0961971,서울특별시 광진구 아차산로 493 (광장동),1
125,a_126,프라임동물병원,37.53930491,127.091991,서울특별시 광진구 아차산로 451 (구의동),1
126,a_127,스마트동물병원군자점,37.56083008,127.0812359,서울특별시 광진구 능동로43길 3-5 (중곡동),1
127,a_128,로얄 도그앤캣 메디컬센터,37.53581427,127.068334,서울특별시 광진구 능동로 49 (자양동 영지빌딩),1
128,a_129,나래동물병원,37.55535058,127.0781539,서울특별시 광진구 능동로 283 (군자동),1
129,a_130,노룬산동물병원,37.53688773,127.0617782,서울특별시 광진구 뚝섬로 462 (자양동),1
130,a_131,드림펫 동물병원,37.5654322,127.0837956,서울특별시 광진구 능동로 407 2층 (중곡동),1
131,a_132,제연동물병원,37.57513162,127.0496141,서울특별시 동대문구 답십리로 77 (전농동),1
132,a_133,강남예치과동물병원,37.51513789,127.0426526,서울특별시 강남구 선릉로126길 6(삼성동),1
133,a_134,그린동물병원,37.57718451,127.0357214,서울특별시 동대문구 정릉천동로 58 1층 125호 (용두동 롯데캐슬피렌체),1
134,a_135,맑은 동물병원,37.5719993,127.0239123,서울특별시 동대문구 청계천로 417 108호 (신설동 청계천 대성 스카이렉스1),1
135,a_136,아인스동물병원,37.5650705,127.0673871,서울특별시 동대문구 장한로 44 1층 (장안동),1
136,a_137,현대종합동물병원,37.57250674,127.0730556,서울특별시 동대문구 답십리로 293 1층 (장안동),1
137,a_138,디아크동물병원,37.58594478,127.0435319,서울특별시 동대문구 홍릉로 64-1 (청량리동),1
138,a_139,주주동물병원,37.57786875,127.0584781,서울특별시 동대문구 사가정로 121 (전농동),1
139,a_140,안암동물병원,37.58054867,127.0267918,서울특별시 동대문구 안암로 40 1층 (용두동),1
140,a_141,장평25시동물종합병원,37.57290203,127.0713917,서울특별시 동대문구 장한로 139 (장안동),1
141,a_142,푸른종합동물병원,37.58458597,127.0440709,서울특별시 동대문구 홍릉로 48-1 1층 (청량리동),1
142,a_143,애니케어동물병원,37.59404111,127.0588681,서울특별시 동대문구 이문로 80 (이문동),1
143,a_144,그랜드동물병원,37.57266033,127.0576371,서울특별시 동대문구 전농로 86-1 (답십리동),1
144,a_145,뉴월드동물병원,37.56960338,127.0645337,서울특별시 동대문구 한천로 94 1층 (장안동),1
145,a_146,박철환동물병원,37.57891556,127.0696928,서울특별시 동대문구 사가정로 221 (장안동),1
146,a_147,심재웅동물병원,37.59110333,127.0665155,서울특별시 동대문구 망우로 120 (휘경동),1
147,a_148,하이유 동물병원,37.56662026,127.0559076,서울특별시 동대문구 전농로 15-3 (답십리동),1
148,a_149,더케이동물병원,37.57247271,127.0556422,서울특별시 동대문구 답십리로 140 세기프라자 2층 211호 (답십리동),1
149,a_150,바론동물병원,37.59847855,127.0619154,서울특별시 동대문구 이문로 136 2층 208호 (이문동 이문동 웰츠타워),1
150,a_151,아띠동물의료센터,37.57374084,127.0523331,서울특별시 동대문구 사가정로 51 (전농동),1
151,a_152,봄봄동물병원,37.59034385,127.0540492,서울특별시 동대문구 회기로18길 46 (회기동),1
152,a_153,시그널동물병원,37.50296339,126.9096077,서울특별시 영등포구 신길로 119 112동 비104105호 (신길동 신길뉴타운 한화 꿈에그린),1
153,a_154,페트로동물의료원,37.5678743,127.0685075,서울특별시 동대문구 장한로 77 가나빌딩 (장안동),1
154,a_155,엘동물병원,37.57467132,127.0376297,서울특별시 동대문구 고산자로 393-5 (용두동),1
155,a_156,쥬라기동물병원,37.61632566,127.0926774,서울특별시 중랑구 신내로 211 119호 (신내동 금강리빙스텔),1
156,a_157,주연동물병원,37.57729477,127.0857068,서울특별시 중랑구 면목로 273 (면목동),1
157,a_158,금란동물병원,37.59845021,127.1005968,서울특별시 중랑구 용마산로 532 금란동물병원 (망우동),1
158,a_159,진정훈동물병원,37.59996753,127.0795029,서울특별시 중랑구 동일로 777 진정훈동물병원 (중화동),1
159,a_160,신내동물병원,37.60271571,127.0857173,서울특별시 중랑구 봉화산로 103 1층 (중화동 삼일시티빌),1
160,a_161,홍상희동물병원,37.61066504,127.07739,서울특별시 중랑구 동일로 899 1층 (묵동),1
161,a_162,엔젤동물병원,37.58879668,127.0883707,서울특별시 중랑구 겸재로 187 (면목동),1
162,a_163,보람동물병원,37.57702543,127.0857522,서울특별시 중랑구 면목로 269 (면목동),1
163,a_164,혜원동물병원,37.58234924,127.0882921,서울특별시 중랑구 면목로 341 혜원동물병원 (면목동),1
164,a_165,태능동물병원,37.61259591,127.0775794,서울특별시 중랑구 동일로 920 3층 (묵동),1
165,a_166,중랑차 동물병원,37.59243805,127.0726364,서울특별시 중랑구 중랑천로 81 (상봉동),1
166,a_167,한국동물영상의학센터,37.59504205,127.0794227,서울특별시 중랑구 망우로 241 지하1층 (중화동 영해빌딩),1
167,a_168,보담동물병원,37.58995068,127.0974041,서울특별시 중랑구 용마산로 434 (면목동 청파빌딩),1
168,a_169,행복이 있는 동물병원,37.60780464,127.0981454,서울특별시 중랑구 봉화산로 232 B동 1층 (신내동),1
169,a_170,도그플러스 동물병원,37.61579466,127.0937633,서울특별시 중랑구 신내로 201 2층 (신내동 홈플러스),1
170,a_171,모네동물피부과,37.61891215,127.0293976,서울특별시 강북구 도봉로 110-1 4층 (미아동),1
171,a_172,하스펫탈동물병원,37.59157198,127.086958,서울특별시 중랑구 면목로 442-1 1층 (면목동),1
172,a_173,성지동물병원,37.57991334,127.0877735,서울특별시 중랑구 면목로 311 (면목동),1
173,a_174,힐링페츠,37.57309219,127.0814714,서울특별시 중랑구 답십리로77길 33 1층 (면목동),1
174,a_175,아이봄 동물병원,37.60504968,127.0956274,서울특별시 중랑구 신내로 66 (신내동),1
175,a_176,한사랑동물병원,37.5903549,127.0038358,서울특별시 성북구 성북로 27 (성북동1가),1
176,a_177,하니동물병원,37.61695743,127.091292,서울특별시 중랑구 신내로 225 디아뜨갤러리 142호 (신내동),1
177,a_178,면목동물병원,37.58121548,127.0849019,서울특별시 중랑구 사가정로 363 (면목동),1
178,a_179,동물병원 움,37.61235073,126.9317116,서울특별시 은평구 불광로 59 1층 나호 (불광동),1
179,a_180,세진동물병원,37.59868115,127.0962545,서울특별시 중랑구 망우로 396 신인빌딩 (망우동),1
180,a_181,진서동물병원,37.60469895,127.0959236,서울특별시 중랑구 신내로10길 7 (신내동),1
181,a_182,금천 24시 K동물의료센터,37.45618649,126.8995285,서울특별시 금천구 시흥대로 251 (시흥동 도일산호시티빌),1
182,a_183,스마트동물병원 성북길음점,37.60967473,127.019032,서울특별시 성북구 길음로13길 22 103호 104호 (길음동 길음7구역두산위브아파트),1
183,a_184,강북동물병원,37.59620752,127.035165,서울특별시 성북구 종암로 65 (종암동),1
184,a_185,서울종합동물병원,37.58710485,127.0181967,서울특별시 성북구 보문로 137 (보문동2가),1
185,a_186,서울우유협동조합유우진료소,37.59172589,127.0723691,서울특별시 중랑구 중랑천로 71 (상봉동),1
186,a_187,나래종합동물병원,37.59139751,127.0129724,서울특별시 성북구 동소문로 66 (동소문동3가),1
187,a_188,큐동물병원,37.61400378,127.0457024,서울특별시 성북구 장위로 81 (장위동),1
188,a_189,우리동물병원,37.6108517,127.0225604,서울특별시 성북구 삼양로 84 (길음동),1
189,a_190,24시 애니동물병원,37.58393877,127.0198339,서울특별시 성북구 보문로 99 (보문동5가),1
190,a_191,플러스동물메디컬센터,37.53681449,126.8996452,서울특별시 영등포구 양평로12가길 14 르네상스 한강 오피스텔 1층 103호 (양평동4가),1
191,a_192,24시루시드동물메디컬센터,37.60957101,127.0306308,서울특별시 강북구 월계로 3 덕신빌딩 4층 (미아동),1
192,a_193,로얄동물메디컬센터,37.59543565,127.0800198,서울특별시 중랑구 망우로 247 (중화동),1
193,a_194,숲속동물병원,37.58931453,127.0905617,서울특별시 중랑구 겸재로 207 1층 (면목동),1
194,a_195,비비펫 동물병원,37.60299006,127.0421312,서울특별시 성북구 화랑로 91 (하월곡동),1
195,a_196,중앙동물병원,37.60887019,127.0593201,서울특별시 성북구 돌곶이로 56 (석관동),1
196,a_197,대학동물병원,37.61364718,127.0610192,서울특별시 성북구 화랑로 299 2층 210호 (장위동 석계역 한일노벨리아시티),1
197,a_198,미소동물병원,37.59839997,127.0343382,서울특별시 성북구 종암로19길 7 (종암동),1
198,a_199,행복한동물병원,37.61117656,127.0563507,서울특별시 성북구 돌곶이로 91 (장위동),1
199,a_200,길음동물병원,37.60277264,127.0237759,서울특별시 성북구 동소문로 248 (길음동 삼부상가 102동 67호),1
200,a_201,꿈의숲동물병원,37.61978148,127.0461089,서울특별시 성북구 돌곶이로 220 105동 112호 (장위동 꿈의숲코오롱하늘채아파트),1
201,a_202,호담동물병원,37.60678532,127.0285317,서울특별시 성북구 동소문로 302 (하월곡동),1
202,a_203,마로동물병원,37.60652582,127.0303814,서울특별시 성북구 동소문로44길 43 (하월곡동 성북힐스테이트 101동112호),1
203,a_204,쓰담쓰담 동물병원,37.60016214,127.0336745,서울특별시 성북구 종암로 113 (종암동),1
204,a_205,태양 동물병원,37.60702932,127.0606852,서울특별시 성북구 돌곶이로 31 (석관동),1
205,a_206,드림동물병원,37.59183621,127.0136985,서울특별시 성북구 동소문로 74 (동소문동5가),1
206,a_207,앙리동물병원,37.59345869,127.0017174,서울특별시 성북구 성북로 66 1층 (성북동),1
207,a_208,카카오 N 동물병원,37.60755748,127.0179488,서울특별시 성북구 길음로 33 (길음동 길음뉴타운 제상가비동 제지2층 25호),1
208,a_209,성신동물병원,37.59451561,127.0163276,서울특별시 성북구 아리랑로 18 1층 101호 (동선동5가),1
209,a_210,강북 24시 N 동물의료센터,37.60583985,127.0243771,서울특별시 성북구 삼양로4길 3 (길음동),1
210,a_211,넬 동물의료센터,37.60880778,127.0357822,서울특별시 성북구 오패산로 75-1 (하월곡동),1
211,a_212,대형동물병원,37.64588208,127.0182239,서울특별시 강북구 한천로 1135(수유동),1
212,a_213,로이동물병원,37.5953573,127.0157568,서울특별시 성북구 아리랑로 27 (동소문동6가),1
213,a_214,포유동물병원,37.60421915,127.0377435,서울특별시 성북구 오패산로 22 (하월곡동),1
214,a_215,현대종합동물병원,37.64376681,127.0230328,서울특별시 강북구 노해로 94 (수유동),1
215,a_216,동물병원 위드,37.63480317,127.0226131,서울특별시 강북구 덕릉로 79 (수유동),1
216,a_217,중앙동물병원,37.61702685,127.0303959,서울특별시 강북구 도봉로 88 (미아동),1
217,a_218,사랑의 동물병원,37.61996945,127.0127926,서울특별시 강북구 솔샘로 184 에스케이북한산시티 상가동 2동 209호 (미아동),1
218,a_219,위즈동물병원,37.62674255,127.0263061,서울특별시 강북구 도봉로 202 (미아동),1
219,a_220,창문동물병원,37.61111733,127.0337937,서울특별시 강북구 월계로 35 (미아동),1
220,a_221,24시 수유 바른펫 동물의료센터,37.64145251,127.0222654,서울특별시 강북구 노해로 65 1 2층 (수유동 리안스페이스),1
221,a_222,초이스동물병원,37.6433951,127.0156995,서울특별시 강북구 삼양로117길 5 1층 (수유동),1
222,a_223,애니케어 동물병원 수유점,37.64775523,127.0142602,서울특별시 강북구 삼양로 499 (수유동),1
223,a_224,행복한동물병원,37.54669833,126.8753914,서울특별시 양천구 공항대로 636 (목동),1
224,a_225,솔샘동물병원,37.61731164,127.0204015,서울특별시 강북구 삼양로27길 19 상가 204동 108호 (미아동 삼성래미안트리베라아파트),1
225,a_226,일오삼동물병원,37.52051987,126.8349232,서울특별시 양천구 지양로 52 (신월동),1
226,a_227,쿠키동물병원,37.61731164,127.0204015,서울특별시 강북구 삼양로27길 19 (미아동 래미안트리베라 201동 116호),1
227,a_228,호 동물병원,37.61193253,127.0353651,서울특별시 강북구 월계로 53 (미아동),1
228,a_229,보노보노동물병원,37.6334473,127.0177426,서울특별시 강북구 삼양로 336 예향교회 1층 (수유동),1
229,a_230,강북동물병원,37.62881253,127.0398989,서울특별시 강북구 오현로 194 (번동 덕수빌딩 1층),1
230,a_231,동물을사랑하는사람들,37.6408482,127.03276,서울특별시 강북구 도봉로98길 56 (번동),1
231,a_232,스마트 동물병원,37.62030395,127.0153473,서울특별시 강북구 솔샘로 203-2 1층 (미아동),1
232,a_233,삼성동물병원,37.62030395,127.0153473,서울특별시 강북구 삼양로19길 25 110동 지층 1-21-3호 (미아동 삼성래미안트리베라1차아파트),1
233,a_234,나우동물의료센터,37.67440221,127.0556147,서울특별시 노원구 동일로 1636 1층 (상계동),1
234,a_235,아이사랑동물병원,37.61720438,127.0221044,서울특별시 강북구 삼양로24길 19 102동 110호 (미아동 현대성우아파트),1
235,a_236,보성통증동물병원,37.61058165,127.0093899,서울특별시 성북구 보국문로 68-1 정호빌딩 1층 (정릉동),1
236,a_237,가나동물병원,37.66266602,127.0341032,서울특별시 도봉구 방학로 162 (방학동),1
237,a_238,삼성동물종합병원,37.65022906,127.0352896,서울특별시 도봉구 도봉로 499 1층 (쌍문동),1
238,a_239,강북우리동물의료센터,37.65687103,127.0400345,서울특별시 도봉구 도봉로 586 (창동),1
239,a_240,태일동물종합병원,37.65793671,127.0364243,서울특별시 도봉구 해등로 184 (쌍문동),1
240,a_241,해봄동물병원,37.68254439,127.0475044,서울특별시 도봉구 도봉로180길 28 도봉투웨니퍼스트2단지 (도봉동),1
241,a_242,트윈스동물병원,37.64535971,127.0337002,서울특별시 도봉구 도봉로110다길 20 (창동),1
242,a_243,방학동물외과센터,37.66909478,127.043201,서울특별시 도봉구 도봉로 723 3층 (방학동),1
243,a_244,별난동물병원,37.65859271,127.0403049,서울특별시 도봉구 도봉로 603 1층 지층 (쌍문동),1
244,a_245,둘리동물병원,37.6503718,127.0361024,서울특별시 도봉구 도봉로 506 (창동),1
245,a_246,하비동물병원,37.65204181,127.0465311,서울특별시 도봉구 노해로65길 14 1층 지층 (창동 영일빌딩),1
246,a_247,한빛동물병원,37.64018986,127.0397901,서울특별시 도봉구 덕릉로 256 (창동),1
247,a_248,화신종합동물병원,37.66381263,127.0346621,서울특별시 도봉구 도당로 63 (방학동),1
248,a_249,신창동물병원,37.64144069,127.0340342,서울특별시 도봉구 덕릉로 230 (창동),1
249,a_250,퓨리나동물병원,37.64144069,127.0340342,서울특별시 도봉구 도봉로 469 (쌍문동),1
250,a_251,사랑해요동물병원,37.65619054,127.0277182,서울특별시 도봉구 시루봉로 59 (쌍문동),1
251,a_252,행복한동물병원,37.65943029,127.0417783,서울특별시 도봉구 도봉로 618 108호 (창동),1
252,a_253,도담동물병원,37.68267589,127.0455402,서울특별시 도봉구 도봉로 875 (도봉동),1
253,a_254,빛가온동물병원,37.67219503,127.046366,서울특별시 도봉구 마들로 695 1층 (도봉동),1
254,a_255,참사랑동물병원,37.6517358,127.0775929,서울특별시 노원구 한글비석로 272 101호 (중계동 중원코아빌딩),1
255,a_256,당고개동물병원,37.6704303,127.0842395,서울특별시 노원구 덕릉로 810-1 (상계동),1
256,a_257,우리들동물종합병원,37.6427209,127.0665675,서울특별시 노원구 동일로 1280 116호 (중계동 시영2단지상가),1
257,a_258,미래동물병원,37.6427209,127.0665675,서울특별시 노원구 공릉로 168 (공릉동),1
258,a_259,닥터스종합동물병원,37.62914964,127.0578458,서울특별시 노원구 월계로 336 상천빌딩 1층 (월계동),1
259,a_260,고려동물병원,37.62914964,127.0578458,서울특별시 노원구 덕릉로 738 (상계동 정진145빌딩),1
260,a_261,그린동물병원,37.62914964,127.0578458,서울특별시 노원구 노원로 540 (상계동 상계주공아파트 9단지상가),1
261,a_262,리즈동물병원,37.53353781,126.8694898,서울특별시 양천구 목동중앙로 43 (목동106호),1
262,a_263,365동물병원,37.66298944,127.0463658,서울특별시 도봉구 방학로 54 (방학동),1
263,a_264,키움 동물병원,37.62219252,127.086393,서울특별시 노원구 노원로1길 9 (공릉동 해중빌딩),1
264,a_265,스마트동물병원,37.6584609,127.0657591,서울특별시 노원구 노원로 470 1층 (상계동 금녕빌딩),1
265,a_266,신정 동물병원,37.52526962,126.8594647,서울특별시 양천구 오목로 198-1 (신정동1층),1
266,a_267,중계이오동물병원,37.64959685,127.0763775,서울특별시 노원구 한글비석로 245 (중계동 두타빌 A동 111112호),1
267,a_268,은마로동물병원,37.65791011,127.0744269,서울특별시 노원구 한글비석로 363 종로약국 (중계동),1
268,a_269,엔젤동물병원,37.62850376,127.0718766,서울특별시 노원구 동일로 1104 (공릉동),1
269,a_270,펫가든,37.64654844,127.07109,서울특별시 노원구 노원로 330 (중계동),1
270,a_271,은빛동물병원,37.64654844,127.07109,서울특별시 노원구 동일로 1649 (상계동 윤일빌딩),1
271,a_272,25시동물병원,37.647276,127.0779149,서울특별시 노원구 한글비석로8길 16 102호 (중계동 대림벽산상가),1
272,a_273,롯데동물병원,37.64202635,127.0641084,서울특별시 노원구 동일로207길 17 118호 (중계동 시영1단지B상가 ),1
273,a_274,스마일플러스동물병원,37.6238013,127.0732318,서울특별시 노원구 동일로 1051 (공릉동 영운빌딩 1층),1
274,a_275,아란종합동물병원,37.6238013,127.0732318,서울특별시 노원구 월계로 333 (월계동),1
275,a_276,이앤박동물병원,37.6238013,127.0732318,서울특별시 노원구 한글비석로52길 18 (상계동),1
276,a_277,로얄벳 동물병원,37.6238013,127.0732318,서울특별시 노원구 월계동 331-1   번지 신세계이마트 2층 ,1
277,a_278,웰리스 동물병원,37.6238013,127.0732318,서울특별시 노원구 섬밭로 258 (중계동 건영옴니백화점),1
278,a_279,우솔동물병원,37.6238013,127.0732318,서울특별시 노원구 화랑로 349 (월계동),1
279,a_280,유림동물병원,37.6238013,127.0732318,서울특별시 노원구 월계로45길 28 (월계동 월계아파트형공장),1
280,a_281,화랑동물병원,37.6238013,127.0732318,서울특별시 노원구 화랑로 473 (공릉동),1
281,a_282,수락 동물병원,37.6238013,127.0732318,서울특별시 노원구 동일로 1622 (상계동 유성상가),1
282,a_283,(주)한빛종합동물병원,37.65092277,127.0618806,서울특별시 노원구 동일로 1370 (상계동),1
283,a_284,브라운동물병원,37.65092277,127.0618806,서울특별시 노원구 동일로203가길 29 (중계동 브라운스톤중계),1
284,a_285,브이아이피 동물의료센터,37.64782621,127.0623289,서울특별시 노원구 동일로 1333 (상계동),1
285,a_286,수 동물병원,37.68160471,127.0565913,서울특별시 노원구 동일로 1689 (상계동 하이베라스),1
286,a_287,더싼 동물병원,37.65041791,127.0612653,서울특별시 노원구 동일로 1363 명지프라자빌딩 102호 (상계동),1
287,a_288,서정동물병원,37.67357096,127.0558228,서울특별시 노원구 동일로 1626 1층 (상계동),1
288,a_289,필동물종합병원,37.53144217,126.8641309,서울특별시 양천구 등촌로 16 (목동),1
289,a_290,시마동물병원,37.65006548,127.0622173,서울특별시 노원구 동일로 1356 상가동 2층 201호 (상계동 상계주공4단지아파트),1
290,a_291,스누피동물병원,37.62770278,127.077564,서울특별시 노원구 동일로192길 87 (공릉동),1
291,a_292,한강동물병원,37.66246793,127.0660686,서울특별시 노원구 노원로34길 76 (상계동),1
292,a_293,참동물병원,37.66246793,127.0660686,서울특별시 노원구 동일로 1530 (상계동 다모아빌딩),1
293,a_294,피움동물병원,37.63817134,126.9192164,서울특별시 은평구 진관3로 37 은평구 뉴타운2지구 에코테라스 102호 (진관동),1
294,a_295,강현림 종합동물병원,37.54407187,126.8624454,서울특별시 양천구 등촌로 160 (목동),1
295,a_296,메디펫동물병원,37.62198182,126.9195228,서울특별시 은평구 통일로 885 (갈현동),1
296,a_297,우신동물병원,37.60556954,126.9157111,서울특별시 은평구 연서로 72 1층 101호 (역촌동),1
297,a_298,참좋은동물병원,37.58821405,126.922459,서울특별시 은평구 백련산로 29 (응암동),1
298,a_299,개와냥이동물병원,37.61020707,126.9292168,서울특별시 은평구 통일로 727-5 2층 (대조동),1
299,a_300,둘레길동물병원,37.62375611,126.9276981,서울특별시 은평구 연서로 317 (불광동 동윤빌딩),1
300,a_301,도그원 동물의료센터,37.6196409,126.9177317,서울특별시 은평구 연서로29길 24 지 2층 (갈현동 정운빌딩),1
301,a_302,뉴타운동물병원,37.64198459,126.9226062,서울특별시 은평구 진관3로 70 (진관동 상림마을 821동 101호),1
302,a_303,Dr.윤24시동물병원,37.6165476,126.9231745,서울특별시 은평구 통일로 817 (대조동),1
303,a_304,더독동물병원,37.61136326,126.9176151,서울특별시 은평구 서오릉로 140 (대조동),1
304,a_305,미래동물병원,37.61377644,126.9123338,서울특별시 은평구 서오릉로 192 (갈현동),1
305,a_306,도담동물병원,37.60572558,126.9111479,서울특별시 은평구 역말로 7 (역촌동),1
306,a_307,다루동물병원,37.61237853,126.932109,서울특별시 은평구 불광로 60 1층 (불광동),1
307,a_308,한얼동물병원,37.59204425,126.9179155,서울특별시 은평구 응암로 226 (응암동),1
308,a_309,불광동물병원,37.6113213,126.9297814,서울특별시 은평구 불광로 37 (불광동),1
309,a_310,김정복동물병원,37.62138008,126.9195682,서울특별시 은평구 통일로 879 (갈현동),1
310,a_311,응암동물병원,37.59526415,126.9183428,서울특별시 은평구 응암로 261 (응암동),1
311,a_312,가든펫동물병원,37.58693803,126.9085641,서울특별시 은평구 증산로9길 26-23 지하1층 (증산동),1
312,a_313,우리덕구동물병원,37.63456372,126.9275681,서울특별시 은평구 진관2로 77 205동 지하1층 B104호 (진관동 은평뉴타운우물골),1
313,a_314,한마음동물병원,37.60099343,126.9101179,서울특별시 은평구 갈현로 35 (신사동),1
314,a_315,금쪽같은내새끼 동물병원,37.61535866,126.9178274,서울특별시 은평구 연서로 185 (갈현동),1
315,a_316,은평동물병원,37.60788098,126.921793,서울특별시 은평구 서오릉로 86 (대조동),1
316,a_317,녹번동물병원,37.60809069,126.9317417,서울특별시 은평구 통일로 697 (녹번동),1
317,a_318,늘푸른동물병원,37.59826167,126.9110085,서울특별시 은평구 은평로 29 (신사동),1
318,a_319,한빛동물병원,37.64796042,126.9288472,서울특별시 은평구 진관4로 87 629동 116호 (진관동 은평뉴타운상림마을),1
319,a_320,서울햇빛동물병원,37.63458264,126.9245518,서울특별시 은평구 진관2로 67 202동 B층 01호 (진관동 은평뉴타운우물골아파트),1
320,a_321,야옹동물병원,37.59697045,126.9200565,서울특별시 은평구 응암로 286 (응암동),1
321,a_322,LOVE MY PET 동물병원,37.60104409,126.9307372,서울특별시 은평구 은평로 208 (응암동),1
322,a_323,오거리동물병원,37.59079663,126.9159714,서울특별시 은평구 가좌로 239 2층 (응암동 스타이루),1
323,a_324,연서동물종합병원,37.61319947,126.917872,서울특별시 은평구 연서로 162 1층 (대조동),1
324,a_325,잠실베스트동물메디컬센터,37.50497833,127.0973971,서울특별시 송파구 삼학사로 88 금보 1층 (석촌동),1
325,a_326,링크동물의료센터,37.55721034,126.9492688,서울특별시 서대문구 신촌로 209 12층 (북아현동),1
326,a_327,홍제동물병원,37.58963704,126.9427418,서울특별시 서대문구 통일로 463 (홍제동),1
327,a_328,북아현동물병원,37.55754688,126.9582786,서울특별시 서대문구 신촌로 289-1 (북아현동),1
328,a_329,한솔동물병원,37.58492053,126.9486392,서울특별시 서대문구 통일로 392 (홍제동),1
329,a_330,백년동물병원,37.58209579,126.9267234,서울특별시 서대문구 가좌로 104 (홍은동),1
330,a_331,가좌동물병원,37.58003191,126.9111487,서울특별시 서대문구 응암로 77 (북가좌동),1
331,a_332,에이플러스 동물병원,37.56786247,126.931925,서울특별시 서대문구 연희로 114 내풍빌딩 지층 (연희동),1
332,a_333,강앤정 동물병원,37.57225793,126.9178372,서울특별시 서대문구 가재울미래로 2 204동 1층 102-2103-1호 (남가좌동 DMC파크뷰자이),1
333,a_334,오즈동물병원,37.57225793,126.9178372,서울특별시 서대문구 증가로 150 100동 B209 B210호 (남가좌동),1
334,a_335,어울림동물병원,37.57225793,126.9178372,서울특별시 서대문구 가재울미래로 2 (남가좌동 DMC파크뷰자이),1
335,a_336,독립문동물병원,37.56909379,126.9631968,서울특별시 서대문구 통일로 171-1 (냉천동),1
336,a_337,위드 동물병원,37.57964164,126.9114361,서울특별시 서대문구 응암로 76 102호 (북가좌동),1
337,a_338,햇살동물병원,37.57225793,126.9178372,서울특별시 서대문구 가재울미래로 2 상가403 상가404동 108호 (남가좌동 DMC파크뷰자이),1
338,a_339,두리틀동물병원,37.57883712,126.9108072,서울특별시 서대문구 응암로 66 (북가좌동),1
339,a_340,가재울봉쥬르동물병원,37.57718179,126.9108987,서울특별시 서대문구 거북골로 178 (북가좌동),1
340,a_341,한스동물병원,37.57665243,126.9248461,서울특별시 서대문구 증가로 111 (남가좌동),1
341,a_342,초콜릿종합동물병원,37.58313,126.9134813,서울특별시 서대문구 응암로 117 (북가좌동),1
342,a_343,프란다스동물병원,37.5759739,126.9156591,서울특별시 서대문구 거북골로 120 (남가좌동 DMC센트레빌아파트),1
343,a_344,라파엘종합동물병원,37.56921299,126.933053,서울특별시 서대문구 연희로 132 (연희동),1
344,a_345,신영동물병원,37.59165104,126.9409301,서울특별시 서대문구 통일로 489 (홍은동),1
345,a_346,마음을 나누는 동물병원,37.59165104,126.9409301,서울특별시 서대문구 신촌로35길 10 지하1층 424호 (북아현동 e편한세상신촌 4단지),1
346,a_347,연희동물병원,37.56916126,126.9320849,서울특별시 서대문구 연희로25길 101 (연희동),1
347,a_348,빛가온동물병원,37.58352482,126.9493002,서울특별시 서대문구 통일로 375 (홍제동),1
348,a_349,마포 키다리 동물병원,37.58352482,126.9493002,서울특별시 마포구 월드컵북로 262 (성산동 제2상가동 101102호 성산시영아파트),1
349,a_350,퍼스트동물병원,37.61916657,127.0523301,서울특별시 성북구 한천로 713 515동 상가 206207호 (장위동 래미안장위퍼스트하이),1
350,a_351,24시 산들산들 동물병원,37.55097572,126.9565327,서울특별시 마포구 마포대로16길 7 영지빌딩 2층 (아현동),1
351,a_352,콩닥 동물병원,37.54623307,126.9521732,서울특별시 마포구 마포대로 127 풍림브이아이피텔 (공덕동),1
352,a_353,로얄동물메디컬센터w,37.55338101,126.9122368,서울특별시 마포구 월드컵로 46 (서교동),1
353,a_354,서교동물병원,37.55658151,126.9045483,서울특별시 마포구 포은로 107 2층 (망원동),1
354,a_355,셀레네동물병원,37.54793326,126.9227468,서울특별시 마포구 독막로 85 (상수동),1
355,a_356,이상록동물병원,37.51615957,127.0147091,서울특별시 서초구 나루터로 37 신사쇼핑센터 1층 102-2호 (잠원동),1
356,a_357,보듬동물병원,37.65736809,127.0282384,서울특별시 도봉구 해등로 255 101동 1층 121~123호 (쌍문동 에벤에셀아파트),1
357,a_358,와우 동물병원,37.56701485,126.9097945,서울특별시 마포구 월드컵북로 167 (성산동),1
358,a_359,산책 동물병원,37.54685885,126.9326555,서울특별시 마포구 창전로 50-1 (구수동),1
359,a_360,이황 동물병원,37.56077321,126.9054367,서울특별시 마포구 월드컵로 147 1층 (망원동 한익빌딩),1
360,a_361,동물사랑동물병원,37.55539149,126.9103143,서울특별시 마포구 월드컵로 73 (망원동),1
361,a_362,디엔씨동물병원,37.55635091,126.9426459,서울특별시 마포구 신촌로 154 (노고산동),1
362,a_363,뉴욕종합동물병원,37.55075089,126.9160672,서울특별시 마포구 양화로 68 (서교동),1
363,a_364,아이웰 동물의료센터,37.54616534,126.9451758,서울특별시 마포구 백범로 130 (염리동),1
364,a_365,서진동물병원,37.55423358,126.9342142,서울특별시 마포구 신촌로16길 34(노고산동),1
365,a_366,푸른숲 동물병원,37.55740153,126.9092655,서울특별시 마포구 월드컵로 98 (서교동 서현빌딩 1층),1
366,a_367,봄날동물병원,37.53726686,126.8718682,서울특별시 양천구 목동중앙로 89 1층 (목동),1
367,a_368,양천종합동물병원,37.52229068,126.8426384,서울특별시 양천구 오목로 45 (신월동),1
368,a_369,노아동물병원,37.51844862,126.8706918,서울특별시 양천구 목동동로10길 6 (신정동),1
369,a_370,민병철동물병원,37.5361921,126.8284453,서울특별시 양천구 남부순환로 347 (신월동),1
370,a_371,햇살동물병원,37.52382549,126.8423266,서울특별시 양천구 월정로 46 (신월동),1
371,a_372,남서울동물병원,37.49243969,126.9916539,서울특별시 서초구 방배로34길 12 (방배동),1
372,a_373,해성동물병원,37.52062684,126.8601364,서울특별시 양천구 은행정로 10 (신정동),1
373,a_374,목동 동물병원,37.53667356,126.8798488,서울특별시 양천구 목동서로 57 (목동),1
374,a_375,상아동물병원,37.52466217,126.8643992,서울특별시 양천구 목동로 181 (신정동),1
375,a_376,서서울호수동물병원,37.5302922,126.8324194,서울특별시 양천구 남부순환로 421 1층 (신월동),1
376,a_377,대현동물병원,37.54447515,126.8708954,서울특별시 양천구 목동중앙본로 100 101호 (목동),1
377,a_378,팜랜드동물병원,37.53283824,126.8684895,서울특별시 양천구 목동중앙서로 42 1층 (목동),1
378,a_379,오라고동물병원,37.5495046,126.8669065,서울특별시 양천구 공항대로 552 (목동 대우마이빌 102호),1
379,a_380,혜인종합 동물병원,37.54915069,126.8639061,서울특별시 양천구 등촌로 218 혜인빌딩 (목동),1
380,a_381,밀리언동물병원,37.52132449,126.8564647,서울특별시 양천구 신월로 320 (신정동),1
381,a_382,공원옆동물병원,37.51749424,126.8654976,서울특별시 양천구 목동서로 349 104호 (신정동 센트럴프라자),1
382,a_383,쿨펫이마트 목동점 동물병원,37.5259939,126.8703833,서울특별시 양천구 오목로 299 목동트라팰리스 (목동),1
383,a_384,행복한세상동물병원,37.52937346,126.8760837,서울특별시 양천구 목동동로 309 (목동),1
384,a_385,리베동물메디컬센터,37.52516052,126.8682252,서울특별시 양천구 오목로 280 1층 (목동),1
385,a_386,석동물병원,37.52516052,126.8682252,서울특별시 강동구 성안로 10 (성내동),1
386,a_387,미니주동물병원,37.54805486,126.8678385,서울특별시 양천구 목동중앙북로 37 (목동),1
387,a_388,다온동물병원,37.51718774,126.8546373,서울특별시 양천구 중앙로 230 (신정동),1
388,a_389,구름동물병원,37.51289873,126.8325509,서울특별시 양천구 신정이펜2로 22 203호 (신정동 신정프라자),1
389,a_390,파리스동물병원,37.53435924,126.872949,서울특별시 양천구 목동서로 100 상가동 105 204호 (목동 목동신시가지아파트3단지),1
390,a_391,두암동물병원,37.54687269,126.871376,서울특별시 양천구 목동중앙북로 73 덕수프라자 2층 (목동),1
391,a_392,토론토 동물병원,37.54502018,126.8626105,서울특별시 양천구 등촌로 172 등촌빌딩 A동 102호 (목동),1
392,a_393,가나종합동물병원,37.53598623,126.8780417,서울특별시 양천구 목동서로 77 현대월드타워 160호 (목동),1
393,a_394,가온동물병원,37.54016297,126.8640712,서울특별시 양천구 등촌로 114 목동한강팰리스 1층 (목동),1
394,a_395,우리들 노령동물 암센터,37.5236599,126.8647156,서울특별시 양천구 목동로 171 4층 (신정동),1
395,a_396,해맞이 동물병원,37.51742289,126.8377446,서울특별시 양천구 지양로 7 인산빌딩 1층 (신월동),1
396,a_397,닥터펫동물병원,37.53032861,126.8732768,서울특별시 양천구 목동서로 170 홈플러스목동점 (목동),1
397,a_398,페토브 동물병원,37.51619095,126.8703375,서울특별시 양천구 목동동로 130 117 118호 (신정동 목동신시가지아파트14단지),1
398,a_399,더힐동물의료센터,37.5346911,127.0096039,서울특별시 용산구 독서당로 81-1 아이리스프라자 지상3층 (한남동),1
399,a_400,캐슬동물종합병원,37.50780349,126.8645461,서울특별시 양천구 목동남로2길 21 쌍용빌딩 4층 (신정동),1
400,a_401,마루동물병원,37.4899802,127.1447607,서울특별시 송파구 양산로4길 13 우토 파크빌딩 (거여동),1
401,a_402,모모동물병원,37.55853345,126.8247201,서울특별시 강서구 마곡중앙1로 20 205호 (마곡동),1
402,a_403,서울플러스종합동물병원,37.53480875,126.8632719,서울특별시 강서구 등촌로 55 신진통상빌딩 (화곡동),1
403,a_404,염창제일동물병원,37.55307804,126.8698109,서울특별시 강서구 양천로 651 1층 (염창동),1
404,a_405,미래동물병원,37.53051495,126.8411679,서울특별시 강서구 강서로 45 (화곡동 미래동물병원),1
405,a_406,해맑은동물병원,37.56262168,126.8530146,서울특별시 강서구 양천로57길 10-20 (가양동 이스타빌Ⅰ),1
406,a_407,대한동물병원,37.54387055,126.8431181,서울특별시 강서구 화곡로 205 (화곡동 대한동물병원),1
407,a_408,강서동물병원,37.53221933,126.839542,서울특별시 강서구 곰달래로15길 46 (화곡동 강서동물병원),1
408,a_409,우장동물병원,37.52884255,126.8475574,서울특별시 강서구 화곡로 143 (화곡동 충효빌딩),1
409,a_410,고득영동물병원,37.53143497,126.8550502,서울특별시 강서구 곰달래로 199 (화곡동 고득영동물병원),1
410,a_411,스마트 정형외과 신경외과 동물병원,37.52072693,127.0299802,서울특별시 강남구 도산대로 213 2층 (신사동),1
411,a_412,스마일동물병원,37.52072693,127.0299802,서울특별시 강서구 수명로 74 (내발산동 발산시티타워),1
412,a_413,가양쿨펫동물병원,37.52072693,127.0299802,서울특별시 강서구 양천로 431 (가양동 홈플러스가양점),1
413,a_414,오즈동물병원,37.54811773,126.8345757,서울특별시 강서구 강서로45길 28 (내발산동),1
414,a_415,파스텔동물병원,37.53978676,126.8344659,서울특별시 강서구 화곡로 112 1층 (화곡동),1
415,a_416,다나동물병원,37.53978676,126.8344659,서울특별시 강서구 강서로 254 (화곡동 우장산아이파크이편한세상),1
416,a_417,굿모닝동물병원,37.53978676,126.8344659,서울특별시 강서구 방화대로47가길 7 (방화동 방화샤르망1오피스텔),1
417,a_418,황하동물병원,37.57874321,126.81355,서울특별시 강서구 금낭화로 52 (방화동 세성빌딩),1
418,a_419,고려종합동물병원,37.56262168,126.8530146,서울특별시 강서구 양천로57길 10-20 102호 (가양동 이스타빌Ⅰ),1
419,a_420,우리아이동물메디컬센터,37.5581511,126.8391132,서울특별시 강서구 공항대로 284 1층 2호 (내발산동),1
420,a_421,24시 지구촌 동물메디컬 센터,37.49879284,126.8847809,서울특별시 구로구 구로중앙로31길 30 24시 지구촌 동물 메디컬센터 (구로동),1
421,a_422,공항축산,37.49879284,126.8847809,서울특별시 강서구 개화동로29길 15 (방화동),1
422,a_423,미소동물의료센터,37.49879284,126.8847809,서울특별시 강서구 강서로 215 (화곡동 삼광빌딩),1
423,a_424,세명 동물병원,37.49879284,126.8847809,서울특별시 강서구 강서로17길 52 (화곡동 화곡면옥),1
424,a_425,한마음동물병원,37.49879284,126.8847809,서울특별시 강서구 강서로18길 17 (화곡동),1
425,a_426,화곡동물병원,37.49879284,126.8847809,서울특별시 강서구 까치산로 80 (화곡동 화곡동물병원),1
426,a_427,세인트동물병원,37.53050443,126.8434163,서울특별시 강서구 강서로 36 (화곡동),1
427,a_428,하트동물메디컬센터,37.50394606,127.0968369,서울특별시 송파구 삼학사로 75 신일빌딩 (삼전동),1
428,a_429,박동물병원,37.55547305,126.8369301,서울특별시 강서구 강서로 333 104호 105호 (내발산동),1
429,a_430,원러브동물의료센터,37.59927006,127.0125696,서울특별시 성북구 아리랑로 75 상가3동 1층 110호 (돈암동 돈암코오롱하늘채),1
430,a_431,와우동물병원,37.59927006,127.0125696,서울특별시 강서구 방화대로47가길 7 (방화동 방화샤르망1오피스텔),1
431,a_432,마곡M동물의료센터,37.56861349,126.8163467,서울특별시 강서구 방화대로33길 3 1~2층 (방화동),1
432,a_433,시온동물병원,37.5452324,126.8473083,서울특별시 강서구 까치산로 74 (화곡동),1
433,a_434,서서울동물병원,37.55133321,126.8710832,서울특별시 강서구 양천로 674 910호 (염창동),1
434,a_435,하트온동물병원,37.5319798,126.8618052,서울특별시 강서구 곰달래로 260 피앤와이빌딩 1층 3호 (화곡동),1
435,a_436,올스타동물의료센터,37.53697792,126.8379226,서울특별시 강서구 가로공원로 198 1층 (화곡동 청파빌딩),1
436,a_437,공감동물병원,37.55672765,126.8280765,서울특별시 강서구 마곡중앙로 36 상가동 103호 (마곡동 마곡엠밸리15단지),1
437,a_438,마곡나무 동물병원,37.55928882,126.8193249,서울특별시 강서구 마곡중앙1로 72 1014동 103호 (마곡동 마곡엠밸리10단지),1
438,a_439,하나동물병원,37.55928882,126.8193249,서울특별시 강서구 금낭화로 109 (방화동 하나동물병원),1
439,a_440,용봉동물병원,37.53307458,126.8446044,서울특별시 강서구 강서로17길 20 (화곡동 용봉동물병원),1
440,a_441,SKY동물병원,37.53307458,126.8446044,서울특별시 강서구 양천로 72 (방화동 해성빌딩),1
441,a_442,푸른들동물병원,37.55216402,126.8708351,서울특별시 강서구 양천로 663-1 1층 (염창동),1
442,a_443,참동물병원,37.56488121,126.8233767,서울특별시 강서구 마곡서로 133 712동 102-1호 (마곡동 마곡엠밸리7단지),1
443,a_444,개명동물병원,37.49018585,126.856302,서울특별시 구로구 개봉로 50 (개봉동),1
444,a_445,금강종합동물병원,37.49536971,126.8429292,서울특별시 구로구 경인로 196 (오류동),1
445,a_446,안정택동물병원,37.49536971,126.8429292,서울특별시 구로구 천왕로 106 골드프라자 201호 (오류동),1
446,a_447,벨라동물병원,37.50057891,126.8846067,서울특별시 구로구 구로중앙로34길 30 진명빌딩 (구로동),1
447,a_448,신도림동물병원,37.50942088,126.8877436,서울특별시 구로구 경인로 661 신도림1차푸르지오 101동 139호 (신도림동),1
448,a_449,개봉동물병원,37.50942088,126.8877436,서울특별시 구로구 고척로 157 (고척동),1
449,a_450,라라동물의료원,37.4893241,126.891673,서울특별시 구로구 도림로 72 1B1층 (구로동),1
450,a_451,굿모닝 동물병원,37.49665821,126.8561421,서울특별시 구로구 개봉로 121 (개봉동),1
451,a_452,푸른동물병원,37.48859082,126.8843095,서울특별시 구로구 구로동로 111-1 (구로동),1
452,a_453,아이러브펫동물병원(신도림점),37.50942088,126.8877436,서울특별시 구로구 경인로 661 홈플러스 신도림점 지하1층 (신도림동),1
453,a_454,캥거루 동물병원,37.48983127,126.839749,서울특별시 구로구 오류로 55 (오류동),1
454,a_455,구로종합동물병원,37.50700509,126.8864975,서울특별시 구로구 경인로 638 101동 1층 34호 (신도림동 신도림에스케이뷰),1
455,a_456,사랑동물병원,37.49083586,126.8939114,서울특별시 구로구 도림로 98 (구로동),1
456,a_457,드림동물병원,37.50294519,126.8631473,서울특별시 구로구 중앙로8길 11 109동 5호 (고척동 고척 월드메르디앙),1
457,a_458,허브동물병원,37.49588111,126.8727226,서울특별시 구로구 구일로10길 27 SK허브수 B동 2층 5호 (구로동),1
458,a_459,한샘동물병원,37.49548262,126.8597674,서울특별시 구로구 경인로40길 25 상가동 211호 (개봉동 청실아파트),1
459,a_460,오류동물병원,37.49708287,126.8469009,서울특별시 구로구 경인로 236 예성라온팰리스 103동 101호 (오류동),1
460,a_461,임재성동물의료센터,37.49097182,127.0875106,서울특별시 강남구 일원로9길 74 1층 지하1층 (일원동),1
461,a_462,고척원동물의료센터,37.49807154,126.8642179,서울특별시 구로구 경인로 403 원메디타운 2층 201호 (고척동),1
462,a_463,구로다나은동물병원,37.50617865,126.8771845,서울특별시 구로구 신도림로 7 1층 110호 (신도림동),1
463,a_464,해피동물병원,37.50356817,126.861698,서울특별시 구로구 중앙로 67 (고척동),1
464,a_465,나비셀 동물의료센터,37.47678699,126.8806074,서울특별시 금천구 가산디지털2로 98 IT캐슬 2동 210호 (가산동),1
465,a_466,파랑새동물병원,37.45830866,126.8995426,서울특별시 금천구 시흥대로 276 (독산동),1
466,a_467,24시 글로리 동물병원,37.47674614,126.8982879,서울특별시 금천구 시흥대로 483 (독산동),1
467,a_468,조아동물병원,37.453795,126.8903775,서울특별시 금천구 금하로1라길 35 1층 (독산동),1
468,a_469,금천동물병원,37.46392046,126.9034755,서울특별시 금천구 독산로 188 (독산동),1
469,a_470,그린동물병원,37.47096761,126.9032364,서울특별시 금천구 독산로 272 (독산동),1
470,a_471,조정연동물병원,37.45256212,126.9058121,서울특별시 금천구 금하로 679 (시흥동),1
471,a_472,은행나무종합동물병원,37.45164042,126.9071175,서울특별시 금천구 금하로 694 (시흥동),1
472,a_473,우리동물메디컬센터,37.47973033,126.9047273,서울특별시 금천구 남부순환로 1386 (독산동),1
473,a_474,독산온동물병원,37.46701859,126.901507,서울특별시 금천구 독산로 225 1층 (독산동),1
474,a_475,쿨펫동물병원,37.46701859,126.901507,서울특별시 금천구 두산로 71 (독산동 롯데빅마켓 3층),1
475,a_476,노아동물병원,37.4502008,126.9125703,서울특별시 금천구 금하로 745 (시흥동),1
476,a_477,금나래동물병원,37.45823982,126.8941765,서울특별시 금천구 벚꽃로 30 211호 (독산동 금천롯데캐슬골드파크2차),1
477,a_478,그림책 읽어주는 동물병원,37.52785399,126.8984323,서울특별시 영등포구 당산로36길 12 111호 (당산동4가 당산2차삼성아파트),1
478,a_479,영등포아크로 동물병원,37.52438011,126.9068712,서울특별시 영등포구 국회대로54길 10 근린생활시설 6동 2호 (영등포동7가 아크로타워 스퀘어),1
479,a_480,라이프 동물병원,37.50482859,126.9080134,서울특별시 영등포구 가마산로 442 상가동 B207 208호 (신길동 래미안프레비뉴),1
480,a_481,캣앤캣 고양이 병원,37.52065313,126.8899224,서울특별시 영등포구 선유로 76 동국메뜨리앙 206호 (문래동3가),1
481,a_482,ZOO동물병원,37.60201037,127.0195428,서울특별시 성북구 정릉로 328 1층 (정릉동),1
482,a_483,Dr.수동물병원,37.5205101,126.9333436,서울특별시 영등포구 국제금융로 79 (여의도동롯데슈퍼 2층),1
483,a_484,디오빌 동물병원,37.53323494,126.9022683,서울특별시 영등포구 당산로 222 (당산동5가당산디오빌 1층 103-3),1
484,a_485,애드펫동물병원,37.52188591,126.884664,서울특별시 영등포구 선유서로 67 104동 131호 (양평동2가신동아하이팰리스상가),1
485,a_486,서울동물병원,37.52434341,126.9042461,서울특별시 영등포구 영중로27길 10 (영등포동7가),1
486,a_487,한가람동물의료센터,37.51343244,126.9185342,서울특별시 영등포구 도신로 252 (신길동),1
487,a_488,영등포동물병원,37.52155148,126.896254,서울특별시 영등포구 영등포로 131-2 (당산동1가),1
488,a_489,도그플러스동물병원,37.51822703,126.8959241,서울특별시 영등포구 당산로 42 4층 (문래동3가 삼성홈플러스빌딩),1
489,a_490,왈츠동물병원,37.49842458,126.8955205,서울특별시 영등포구 가마산로 324 (대림동),1
490,a_491,I-pet 동물병원,37.51817234,126.9260536,서울특별시 영등포구 여의동로3길 10 (여의도동자이상가 501동 109호),1
491,a_492,미소로동물병원,37.52857529,126.904204,서울특별시 영등포구 영신로 238 미소로 1 2층 107 204호 (영등포동8가),1
492,a_493,여의도 동물병원,37.51872407,126.9335597,서울특별시 영등포구 국제금융로 108 4층 (여의도동 미라클빌딩),1
493,a_494,아람동물병원,37.51215284,126.9159637,서울특별시 영등포구 도신로 225-1 1층 (신길동 정일빌딩),1
494,a_495,아프리카동물병원,37.48989036,126.9067426,서울특별시 영등포구 시흥대로 647 1층 (대림동),1
495,a_496,사랑동물병원,37.5266202,126.8917849,서울특별시 영등포구 선유로 146 이앤씨드림타워 102호 (양평동3가),1
496,a_497,한국동물병원,37.50498193,126.9220175,서울특별시 영등포구 여의대방로 201 (신길동),1
497,a_498,참 동물병원,37.5136467,126.9198486,서울특별시 영등포구 영등포로76길 1 (신길동),1
498,a_499,대방동물병원,37.50143262,126.9204285,서울특별시 영등포구 여의대방로35길 1 (신길동),1
499,a_500,신풍동물종합병원,37.49864939,126.9085655,서울특별시 영등포구 신길로 70 (신길동),1
500,a_501,24시 수 동물메디컬센터,37.52234015,126.8911691,서울특별시 영등포구 영등포로 85-1 1 2 지층 (양평동1가),1
501,a_502,신길 온동물병원,37.52234015,126.8911691,서울특별시 영등포구 신풍로 77 상가동 C119호 (신길동 래미안에스티움),1
502,a_503,엘'S동물병원,37.49440655,126.9800458,서울특별시 동작구 동작대로39길 22 209동 116호117호 (동작동 이수힐스테이트),1
503,a_504,도그마루 동물병원,37.50776731,127.0884541,서울특별시 송파구 석촌호수로 104 1층 (잠실동),1
504,a_505,다정다감동물병원,37.50590737,126.946893,서울특별시 동작구 만양로 11 대화빌딩 1층 (상도동),1
505,a_506,보라매웰종합동물병원,37.49971589,126.9222523,서울특별시 동작구 상도로 16 1층 (대방동),1
506,a_507,흑석24시동물병원,37.50805173,126.9640095,서울특별시 동작구 현충로 92 (흑석동),1
507,a_508,우리아이동물병원,37.50385614,126.946896,서울특별시 동작구 상도로 262 1층 및 2층 (상도동),1
508,a_509,나무동물병원,37.50659832,126.9664776,서울특별시 동작구 흑석한강로 2 1층 105호 (흑석동),1
509,a_510,굿파파 24시 반려동물건강검진센터,37.48481921,126.9796284,서울특별시 동작구 사당로 289 1층 및 2층 (사당동),1
510,a_511,상도힐링동물병원,37.49728768,126.9531975,서울특별시 동작구 상도로 353 1층 (상도동),1
511,a_512,센트럴동물병원,37.55760948,127.1701031,서울특별시 강동구 고덕로 399 메가스퀘어동 2층 225호 (고덕동 고덕센트럴푸르지오),1
512,a_513,이수동물병원,37.48767599,126.9755523,서울특별시 동작구 사당로23나길 30 (사당동1층),1
513,a_514,세인트필립 동물병원,37.47712081,126.9767035,서울특별시 동작구 남부순환로267길 5 (사당동102호),1
514,a_515,더벳한남동물병원,37.53566636,126.9988258,서울특별시 용산구 이태원로 227 1층 (한남동),1
515,a_516,품 동물의료센터,37.50439081,126.9493962,서울특별시 동작구 양녕로 277-1 (상도1동),1
516,a_517,모범동물병원,37.48370594,126.9733594,서울특별시 동작구 사당로 229 (사당동),1
517,a_518,사당동물병원,37.47682869,126.9766533,서울특별시 동작구 남부순환로 2051 (사당동),1
518,a_519,나을동물병원,37.48493012,126.9698973,서울특별시 동작구 사당로 196 1층 102호 (사당동 거묵프리미엄 상가),1
519,a_520,원동물병원,37.48588699,126.9685188,서울특별시 동작구 사당로 180 (사당동),1
520,a_521,피닉스동물병원,37.50001556,126.9254645,서울특별시 동작구 상도로 43 1층 (대방동 정원빌딩),1
521,a_522,강남동물병원,37.51181228,126.9253929,서울특별시 동작구 여의대방로 284 (대방동),1
522,a_523,동물은내친구,37.48312433,126.975808,서울특별시 동작구 사당로 252 (사당동),1
523,a_524,디아크동물종합병원,37.5117055,126.9390378,서울특별시 동작구 장승배기로27길 18 (노량진동),1
524,a_525,하나사랑동물병원,37.50450467,126.937997,서울특별시 동작구 상도로 171 1층 (상도동),1
525,a_526,서울허브동물병원,37.48173549,126.9514458,서울특별시 관악구 남부순환로 1811 신원메트로빌 (봉천동),1
526,a_527,와우종합동물병원,37.47611107,126.9157565,서울특별시 관악구 난곡로 247 (신림동),1
527,a_528,DS동물병원,37.48034346,126.9040477,서울특별시 관악구 조원중앙로 3 1층 (신림동),1
528,a_529,형제동물병원,37.48237524,126.9441805,서울특별시 관악구 남부순환로 1747-1 (봉천동),1
529,a_530,더블유동물병원,37.48706344,126.944723,서울특별시 관악구 은천로 85 (봉천동),1
530,a_531,세계로동물병원,37.4825977,126.9170344,서울특별시 관악구 남부순환로 1497 (신림동),1
531,a_532,늘푸른동물병원,37.4742193,126.9168949,서울특별시 관악구 난곡로 223-1 1층 (신림동),1
532,a_533,행복한동물병원,37.48689184,126.9488129,서울특별시 관악구 은천로 121 (봉천동),1
533,a_534,신림종합동물병원,37.47306807,126.9328979,서울특별시 관악구 신림로 157-1 (신림동),1
534,a_535,다나동물병원,37.48090752,126.9814668,서울특별시 동작구 동작대로 47 (사당동),1
535,a_536,스누피동물병원,37.48090422,126.9112753,서울특별시 관악구 남부순환로 1444 101호 (신림동),1
536,a_537,봉천현대동물병원,37.47943328,126.9556901,서울특별시 관악구 봉천로 520 3층 (봉천동),1
537,a_538,서울종합동물병원,37.47723178,126.9352615,서울특별시 관악구 신림로 233 1층 (신림동),1
538,a_539,로잔동물의료센터,37.48640691,126.9564436,서울특별시 관악구 관악로29길 3 수안빌딩 1층 (봉천동),1
539,a_540,한성동물병원,37.47824116,126.9318556,서울특별시 관악구 신림로 265 (신림동),1
540,a_541,보라매동물병원,37.48956802,126.9283662,서울특별시 관악구 봉천로 239 1층 (봉천동),1
541,a_542,비타민동물병원,37.47408003,126.9663766,서울특별시 관악구 인헌6길 8 (봉천동),1
542,a_543,아이러브펫동물병원,37.47147868,126.9824129,서울특별시 관악구 과천대로 909 남현프라자 (남현동),1
543,a_544,재활한방 나눔동물병원,37.47548565,126.9668445,서울특별시 관악구 남부순환로 1964 (봉천동),1
544,a_545,예일동물병원,37.48924359,126.9272197,서울특별시 관악구 봉천로 232 (신림동),1
545,a_546,관악동물종합병원,37.48015466,126.9565039,서울특별시 관악구 남부순환로 1859 (봉천동),1
546,a_547,고려동물병원,37.4822532,126.9014868,서울특별시 관악구 시흥대로 552-1 (신림동),1
547,a_548,프렌즈동물병원,37.48484317,126.9551255,서울특별시 관악구 관악로 223 (봉천동),1
548,a_549,서진동물병원,37.48914305,126.9275422,서울특별시 관악구 봉천로 236 (신림동),1
549,a_550,꿈꾸는 동물병원,37.5029533,127.0120636,서울특별시 서초구 서초중앙로 238 106호 (반포동 반포리체상가),1
550,a_551,이리온 양재점,37.46339528,127.0370134,서울특별시 서초구 매헌로 16 지하1층 (양재동 이마트 양재점),1
551,a_552,세계로 고양이 전문의료센터,37.4825977,126.9170344,서울특별시 관악구 남부순환로 1497 (신림동),1
552,a_553,서초이음동물병원,37.4868688,127.022002,서울특별시 서초구 효령로 347 서광빌딩 1층 (서초동),1
553,a_554,방학동물병원,37.66909478,127.043201,서울특별시 도봉구 도봉로 723 (방학동),1
554,a_555,에이비씨(ABC)동물병원,37.4923676,127.0258473,서울특별시 서초구 사임당로 151 대한무지개종합상가 1층 103호 (서초동),1
555,a_556,하나동물병원,37.47019569,127.0399637,서울특별시 서초구 헌릉로8길 10-12 1층 3호 (신원동 힐스테이트서초잰트리스),1
556,a_557,다니엘동물병원,37.48312556,127.007713,서울특별시 서초구 효령로 214 삼양빌딩 2층 (서초동),1
557,a_558,교대동물병원,37.49497545,127.0170343,서울특별시 서초구 서초대로 325 (서초동지상1층),1
558,a_559,디아나동물병원,37.48465662,126.9952474,서울특별시 서초구 방배로 119 1층 (방배동),1
559,a_560,아델 동물병원,37.48452792,127.0108067,서울특별시 서초구 반포대로 45 1층 (서초동 명성빌딩),1
560,a_561,강남서초 동물병원,37.49028157,127.0203707,서울특별시 서초구 사임당로 97 1층 (서초동),1
561,a_562,리즈동물병원,37.52131839,127.0151306,서울특별시 서초구 잠원로 221 상가동 2층 (잠원동 한강아파트),1
562,a_563,방배한강동물병원,37.49170941,126.9914999,서울특별시 서초구 방배로 204 (방배동지상1층),1
563,a_564,사랑의동물병원,37.47483008,127.0421674,서울특별시 서초구 마방로6길 18 (양재동),1
564,a_565,한 동물병원,37.47187425,127.0459805,서울특별시 서초구 동산로 66 (양재동),1
565,a_566,도담도담동물병원,37.60182099,127.0404452,서울특별시 성북구 화랑로 76 (하월곡동 코업스타클래스 1층),1
566,a_567,한나동물병원,37.49663948,126.9877348,서울특별시 서초구 방배로 269 109호 (방배동),1
567,a_568,동물제중원금손이 동물병원,37.48810967,126.9960691,서울특별시 서초구 서초대로 124 101호 (방배동 선빌딩),1
568,a_569,해뜨는 동물병원 해질녘책방,37.50962052,127.0132781,서울특별시 서초구 신반포로 257 뉴타운 지하1층 (잠원동),1
569,a_570,서초동물병원,37.48546252,127.0170418,서울특별시 서초구 효령로57길 4 (서초동),1
570,a_571,심바동물병원,37.48546976,126.9852132,서울특별시 서초구 서초대로4길 4 대진빌딩 1층 (방배동),1
571,a_572,유림동물안과병원,37.51808718,127.0185021,서울특별시 서초구 강남대로 631 1층 (잠원동 크레신타워),1
572,a_573,신세계 동물병원,37.50433984,127.0008522,서울특별시 서초구 반포대로 287 래미안퍼스티지 중심상가 1층 143호 (반포동),1
573,a_574,이삭동물병원,37.48041788,126.9843926,서울특별시 서초구 방배천로8길 34 1층 (방배동),1
574,a_575,24시예스동물병원,37.50712759,127.0098414,서울특별시 서초구 잠원로 24 (반포동반포자이프라자 133호),1
575,a_576,신반포종합동물병원,37.50335365,127.0107931,서울특별시 서초구 서초중앙로 245 (반포동),1
576,a_577,프렌즈동물병원,37.48119386,126.998336,서울특별시 서초구 방배로 76 머리재빌딩 1층 105호 (방배동),1
577,a_578,에이원동물병원,37.48813669,127.0090993,서울특별시 서초구 반포대로 89 1층 (서초동 유민빌딩),1
578,a_579,서초힐스동물병원,37.48813669,127.0090993,서울특별시 서초구 태봉로2길 30 (우면동),1
579,a_580,서래동물병원,37.49835724,126.9985244,서울특별시 서초구 서래로 38 (반포동),1
580,a_581,스마트동물병원,37.57551296,127.0676782,서울특별시 동대문구 한천로 164 1층 (장안동),1
581,a_582,닥터멍동물병원,37.58749589,127.094126,서울특별시 중랑구 상봉로 17 1층 (면목동),1
582,a_583,서초M동물의료센터,37.48830918,127.0148934,서울특별시 서초구 서초중앙로 72 영빌딩 1층 105호  층 2층 205호 (서초동),1
583,a_584,반려동물 의료센터 다울,37.48076802,126.9946035,서울특별시 서초구 효령로 95 우성빌딩 1층 (방배동),1
584,a_585,수동물병원,37.49249435,126.9864532,서울특별시 서초구 방배중앙로 149 (방배동),1
585,a_586,서이동물병원,37.49176999,127.0248583,서울특별시 서초구 사임당로 139 104호 (서초동),1
586,a_587,츄츄 동물병원,37.49316602,127.03543,서울특별시 강남구 논현로67길 56 (역삼동),1
587,a_588,마이펫동물의료센터,37.51254901,127.05316,서울특별시 강남구 삼성로 573 (삼성동),1
588,a_589,위너스 동물병원,37.49758073,127.042141,서울특별시 강남구 역삼로 235 (역삼동),1
589,a_590,개포별빛동물병원,37.47644341,127.0463186,서울특별시 강남구 논현로 70 1층 (개포동 동성빌딩),1
590,a_591,굿모닝동물병원,37.51821081,127.0451826,서울특별시 강남구 학동로 413 (청담동 청담빌딩),1
591,a_592,청담리덴동물치과병원,37.52450388,127.052759,서울특별시 강남구 도산대로 540 301호 (청담동),1
592,a_593,이비치 동물치과병원,37.52226569,127.0396682,서울특별시 강남구 선릉로 756 2층 (청담동 대성빌딩),1
593,a_594,수정동물병원,37.48387012,127.0808707,서울특별시 강남구 일원로14길 25 상가동 102호 (일원동 푸른마을아파트),1
594,a_595,신사동물병원,37.51963407,127.0290226,서울특별시 강남구 도산대로 206 진성빌딩 (논현동),1
595,a_596,봄사랑 동물병원,37.53197602,127.028563,서울특별시 강남구 압구정로29길 68 2층 203호 (압구정동 현대아파트),1
596,a_597,내방동물병원,37.48746528,126.9941278,서울특별시 서초구 서초대로 108 2층 (방배동),1
597,a_598,우리집동물병원,37.48647912,127.0451556,서울특별시 강남구 남부순환로 2737 1층 (도곡동),1
598,a_599,압구정웰동물병원,37.52292045,127.020579,서울특별시 강남구 압구정로 108 (신사동 덕산빌딩 203호 ),1
599,a_600,강남다온동물병원,37.49133395,127.038477,서울특별시 강남구 도곡로 174 12층 (도곡동),1
600,a_601,힐스타동물병원,37.49133395,127.038477,서울특별시 강남구 자곡로 202 105호 (자곡동 강남힐스테이트에코),1
601,a_602,논현동물병원,37.50750338,127.0268076,서울특별시 강남구 강남대로118길 47 1층 (논현동),1
602,a_603,대치동물메디컬센터,37.49941611,127.0634447,서울특별시 강남구 도곡로 520 무진빌딩 1층 (대치동),1
603,a_604,마더스동물병원,37.46578201,127.1011912,서울특별시 강남구 헌릉로 569 202-1호 (세곡동 강남리더스프라자),1
604,a_605,예은동물병원,37.4924314,127.0400165,서울특별시 강남구 도곡로 189 12층 (역삼동 정금빌딩),1
605,a_606,골드퍼피동물병원 공릉점,37.62058335,127.0749429,서울특별시 노원구 동일로 1014 1층 (공릉동),1
606,a_607,웰케어동물병원,37.55688826,126.9191001,서울특별시 마포구 월드컵북로 27 이화빌딩 (서교동),1
607,a_608,우면동물병원,37.47085016,127.0253765,서울특별시 서초구 바우뫼로7길 8 201호 (우면동우면세신상가),1
608,a_609,서울동물심장병원,37.50669665,127.0408663,서울특별시 강남구 언주로 542 1층 (역삼동 ENP Tower),1
609,a_610,청담동물병원,37.52160229,127.0376914,서울특별시 강남구 도산대로50길 13 논현빌딩 3층 (논현동),1
610,a_611,압구정동물병원,37.52853759,127.0321596,서울특별시 강남구 압구정로 224 105호 (신사동 우미빌딩),1
611,a_612,수서동물병원,37.48407305,127.0938813,서울특별시 강남구 광평로 196 1층 109호 (수서동 제이스프라자),1
612,a_613,자연동물병원,37.47926302,127.0509251,서울특별시 강남구 개포로 260 (개포동),1
613,a_614,개포동물병원,37.48927173,127.0688175,서울특별시 강남구 개포로 512 (개포동 개포종합상가 1층),1
614,a_615,주주동물종합병원,37.50171826,127.0505771,서울특별시 강남구 선릉로 412 1층 (대치동),1
615,a_616,청담눈초롱안과동물병원,37.5251559,127.052625,서울특별시 강남구 도산대로 539 4층 (청담동 금원빌딩),1
616,a_617,와이즈24시 동물병원,37.51128355,127.0238778,서울특별시 강남구 학동로6길 7 (논현동),1
617,a_618,박창석종합동물병원,37.54150559,126.9503667,서울특별시 마포구 도화길 42 (도화동),1
618,a_619,강남동물병원,37.50777999,127.0344641,서울특별시 강남구 봉은사로 205 상하빌딩 1층 (논현동),1
619,a_620,그레이스 동물병원,37.5106043,127.0241994,서울특별시 강남구 학동로6길 18 1층 (논현동),1
620,a_621,아크리스동물의료센터,37.51373337,127.0618805,서울특별시 강남구 봉은사로104길 10 3층 (삼성동 동화빌딩),1
621,a_622,나은동물병원,37.47916665,127.0491311,서울특별시 강남구 개포로 243 101호 (개포동 흥진빌딩),1
622,a_623,24시 SNC 동물메디컬센터,37.49742506,127.0389212,서울특별시 강남구 논현로 416 1층 (역삼동 운기빌딩),1
623,a_624,압구정메이트동물병원,37.52820633,127.0378222,서울특별시 강남구 압구정로 332 (신사동 1층2층),1
624,a_625,서경석동물병원,37.4920895,127.0834198,서울특별시 강남구 일원로3길 38 1층 (일원동),1
625,a_626,상암동물병원,37.57604425,126.8946597,서울특별시 마포구 월드컵북로 336 (상암동),1
626,a_627,원동물병원,37.50287315,127.057323,서울특별시 강남구 역삼로 459 한상빌딩 1층 (대치동),1
627,a_628,래이동물의료센터,37.49271059,127.0577476,서울특별시 강남구 남부순환로 2911-1 (대치동),1
628,a_629,다정동물병원,37.51079118,127.0278619,서울특별시 강남구 학동로20길 39 1층 (논현동),1
629,a_630,이안동물의학센터(청담점),37.52386597,127.0396189,서울특별시 강남구 선릉로 806 5층 (청담동),1
630,a_631,서울동물의료센터,37.50127425,127.0536424,서울특별시 강남구 역삼로 426 12층 (대치동),1
631,a_632,한 동물병원,37.47423289,127.0498203,서울특별시 강남구 논현로10길 14 (개포동),1
632,a_633,스마트동물병원,37.50225339,127.0503184,서울특별시 강남구 선릉로 418 (대치동),1
633,a_634,고려종합동물병원,37.49534084,127.052652,서울특별시 강남구 선릉로 225 도곡렉슬아파트 상가동 109호 (도곡동),1
634,a_635,닥터그레이동물병원,37.48867264,127.0521022,서울특별시 강남구 언주로30길 21 104-1호 (도곡동 아카데미스위트),1
635,a_636,대치수동물병원,37.48867264,127.0521022,서울특별시 강남구 삼성로 212 (대치동 은마상가 1층 B120 B121),1
636,a_637,가로수동물병원,37.52436233,127.0234523,서울특별시 강남구 압구정로 134 1층 (신사동),1
637,a_638,닥터펫동물의료센터,37.51209165,127.0434999,서울특별시 강남구 선릉로 620 1층 (삼성동),1
638,a_639,자곡퍼스트동물의료센터,37.47202277,127.0960063,서울특별시 강남구 자곡로 114 서강플라자 2층 201호 (자곡동),1
639,a_640,닥터박동물병원,37.50254991,127.0357172,서울특별시 강남구 논현로 515 아승빌딩 (역삼동),1
640,a_641,드림동물병원,37.49709011,127.0422031,서울특별시 강남구 역삼로 234 101102호 (역삼동),1
641,a_642,행복한 동물병원,37.56980748,126.904413,서울특별시 마포구 월드컵북로 224 청화상가 104호 (성산동),1
642,a_643,일마레 동물 메디컬 센터,37.52113436,127.0571117,서울특별시 강남구 영동대로 708 정화빌딩 4층 (청담동),1
643,a_644,24시OK동물병원,37.49557913,127.0498104,서울특별시 강남구 도곡로51길 4 역삼프라자 1층 (역삼동),1
644,a_645,최영민 동물의료센터,37.51515269,127.0323755,서울특별시 강남구 논현로132길 24 양현빌딩 2층/5층 (논현동),1
645,a_646,튼튼동물병원,37.5262226,127.0244793,서울특별시 강남구 압구정로 151 상가 1동 201호 (압구정동 현대아파트),1
646,a_647,하나카동물병원,37.49422581,127.0347101,서울특별시 강남구 역삼로 138 동광빌딩 1층 (역삼동),1
647,a_648,충현동물병원,37.50904062,127.0327506,서울특별시 강남구 논현로 621 1~4층 (논현동),1
648,a_649,마리동물병원,37.55801015,126.9280891,서울특별시 마포구 신촌로 16 (동교동),1
649,a_650,24시 청담우리 동물병원,37.51448919,127.0528555,서울특별시 강남구 삼성로 614 (삼성동),1
650,a_651,치료멍멍동물병원,37.52238091,127.0351739,서울특별시 강남구 도산대로 309 23층 (신사동),1
651,a_652,도곡종합동물병원,37.49595515,127.0466571,서울특별시 강남구 언주로 314 105호 (역삼동),1
652,a_653,아이힐 동물병원,37.49023142,127.0329898,서울특별시 강남구 도곡로 115 거암빌딩 2층 (역삼동),1
653,a_654,준동물병원,37.51021878,127.1306807,서울특별시 송파구 위례성대로 178 (오금동),1
654,a_655,펫가든동물병원,37.49173942,127.1177515,서울특별시 송파구 중대로 80 문정프라자 (문정동),1
655,a_656,잠실종합동물병원,37.50238874,127.1102213,서울특별시 송파구 송파대로 388 창영빌딩 (송파동),1
656,a_657,25시동물의료센터,37.50554787,127.0894033,서울특별시 송파구 삼전로 80 남관빌딩 (삼전동),1
657,a_658,늘푸른동물병원,37.5095196,127.1272174,서울특별시 송파구 마천로5길 16 우일빌딩 (오금동),1
658,a_659,동물의왕국동물병원,37.49834972,127.1463171,서울특별시 송파구 마천로 263 (마천동),1
659,a_660,가락종합동물병원,37.50633483,127.1210389,서울특별시 송파구 오금로 247 건양빌딩 (방이동),1
660,a_661,온마음 동물메디컬센터,37.4945858,127.1419258,서울특별시 송파구 오금로 473 정림빌딩 1층 (거여동),1
661,a_662,꿈이크는 동물병원,37.50687819,127.0799935,서울특별시 송파구 백제고분로 115 그린빌딩 1층 (잠실동),1
662,a_663,연 동물병원,37.5121057,127.0841879,서울특별시 송파구 올림픽로 119 잠실파인애플상가 A동 2층 910호 (잠실동),1
663,a_664,갤러리아동물병원,37.51110383,127.0939187,서울특별시 송파구 올림픽로 212 상가동 124호 (잠실동 갤러리아팰리스),1
664,a_665,스킨앤이어동물병원,37.50854409,127.1046223,서울특별시 송파구 송파대로 474 성정빌딩 1층 (송파동),1
665,a_666,한양종합동물병원,37.50325805,127.1134373,서울특별시 송파구 가락로 162 1층 (송파동),1
666,a_667,리오동물병원,37.52053662,127.1061509,서울특별시 송파구 올림픽로 435 상가동 1층 36호 (신천동 파크리오),1
667,a_668,두리동물병원,37.49952237,127.1531452,서울특별시 송파구 성내천로 229 1층 (마천동),1
668,a_669,쿨독동물병원,37.49709142,127.1191701,서울특별시 송파구 중대로9길 48 MOXENHOUSE (가락동),1
669,a_670,잠실준25시동물병원,37.50710764,127.0922699,서울특별시 송파구 석촌호수로 138 유시에셋 (삼전동),1
670,a_671,KYH웰빙동물병원,37.50624914,127.0892511,서울특별시 송파구 삼전로 85 태영빌딩 1층 (잠실동),1
671,a_672,더 샵 동물메디컬센터,37.51743873,127.1035776,서울특별시 송파구 올림픽로35가길 9 상가동 2층 207호 (신천동 잠실 푸르지오 월드마크),1
672,a_673,호수동물병원,37.51136074,127.1087956,서울특별시 송파구 오금로 126 105호 (송파동 레이크 해모로),1
673,a_674,씨밀레동물병원,37.52860746,127.1167226,서울특별시 송파구 올림픽로47길 20 웅산빌딩 (풍납동),1
674,a_675,송파동물의료센터,37.50156838,127.110986,서울특별시 송파구 송파대로 378 (송파동),1
675,a_676,천호동물병원,37.5364086,127.1223206,서울특별시 송파구 올림픽로 611 (풍납동),1
676,a_677,위드펫종합동물병원,37.50549428,127.0848535,서울특별시 송파구 백제고분로 161 성선빌딩 (잠실동),1
677,a_678,김민재동물병원,37.50369152,127.1386894,서울특별시 송파구 동남로 318 (오금동),1
678,a_679,펫토피아동물병원,37.50814043,127.116661,서울특별시 송파구 오금로 203 남양빌딩 (방이동),1
679,a_680,오주동물병원,37.49800944,127.1462168,서울특별시 송파구 마천로 264 흥일빌딩 (거여동),1
680,a_681,노아동물병원,37.49299323,127.1439002,서울특별시 송파구 오금로 498 (거여동),1
681,a_682,희망종합동물병원,37.51142755,127.0805127,서울특별시 송파구 올림픽로 88 올림픽타워 101호 (잠실동),1
682,a_683,행복한 우리아이 동물병원,37.50689025,127.0931687,서울특별시 송파구 석촌호수로 146 1층 (삼전동),1
683,a_684,문정탑동물병원,37.49086162,127.1266752,서울특별시 송파구 송이로 186 상가동 1호 (문정동 성해아파트),1
684,a_685,석촌동물병원,37.50580239,127.1061735,서울특별시 송파구 송파대로 441 청호빌딩 1층 2호 (석촌동),1
685,a_686,킴리동물병원,37.5200314,127.1026165,서울특별시 송파구 올림픽로35길 94 신천동동 내제2층층 203호 (신천동 장미3차맨션),1
686,a_687,24시잠실ON동물의료센터,37.51156668,127.0790212,서울특별시 송파구 올림픽로 76 J타워 202호 (잠실동),1
687,a_688,리센츠 스타 동물병원,37.51199363,127.0870259,서울특별시 송파구 올림픽로 145 리센츠 상가동 1층 C13C14호 (잠실동),1
688,a_689,이룸동물병원,37.50112975,127.097101,서울특별시 송파구 삼학사로 44 보라빌딩 (석촌동),1
689,a_690,유앤동물의료원,37.50969951,127.1273203,서울특별시 송파구 양재대로 1148 왕천빌딩 1층 (오금동),1
690,a_691,봄빛 동물병원,37.49207309,127.1261057,서울특별시 송파구 송이로 171 상아빌딩 1층 (가락동),1
691,a_692,위례S동물의료센터,37.48121468,127.1428971,서울특별시 송파구 위례광장로 200 에스비트램스퀘어 203204호 (장지동),1
692,a_693,송파데일리동물병원,37.47986829,127.1217482,서울특별시 송파구 법원로 55 송파아이파크 1층 E204호 (문정동),1
693,a_694,신천동물병원,37.50765609,127.0888516,서울특별시 송파구 석촌호수로 108 리치빌딩 1층 (잠실동),1
694,a_695,송파원동물병원,37.50925519,127.1118722,서울특별시 송파구 백제고분로 432 2층 (송파동),1
695,a_696,더오동물병원,37.51436846,127.0929821,서울특별시 송파구 송파대로 567 상가동 1층 106호 (잠실동 잠실주공아파트),1
696,a_697,닥터캣 고양이병원,37.50287451,127.0989868,서울특별시 송파구 백제고분로 293 제우빌딩 2층 202호 (석촌동),1
697,a_698,송파스마일동물병원,37.48415821,127.123962,서울특별시 송파구 새말로5길 17 (문정동),1
698,a_699,송파바로동물병원,37.48316779,127.1280503,서울특별시 송파구 새말로 125 어은회관 (문정동),1
699,a_700,월드펫동물병원,37.55702659,126.9533287,서울특별시 마포구 신촌로 248 (아현동),1
700,a_701,에버펫 동물병원,37.49673439,127.1367677,서울특별시 송파구 오금로 422 연암빌딩 1층 (가락동),1
701,a_702,이재풍동물병원,37.50646864,127.1292741,서울특별시 송파구 오금로35길 44 (오금동),1
702,a_703,키다리동물병원,37.4807635,127.1212482,서울특별시 송파구 새말로 62 송파 푸르지오시티 상가동 101호 (문정동),1
703,a_704,청담동물병원,37.5302227,127.1136528,서울특별시 송파구 토성로 30-1 (풍납동),1
704,a_705,샤인동물메디컬센터,37.50685018,127.106163,서울특별시 송파구 송파대로 450 (송파동),1
705,a_706,문정힐스 동물병원,37.48261579,127.1228264,서울특별시 송파구 법원로4길 10 힐스테이트에코문정 상가동 1층 120121호 (문정동),1
706,a_707,온마음 동물메디컬센터,37.4945858,127.1419258,서울특별시 송파구 오금로 473 정림빌딩 (거여동),1
707,a_708,웰니스동물병원(롯데월드점),37.51128662,127.097939,서울특별시 송파구 올림픽로 240 롯데월드 1층 S-911호 (잠실동),1
708,a_709,헬릭스동물메디컬센터 송파분원,37.50376295,127.0878802,서울특별시 송파구 삼전로 56 청목빌딩 (삼전동),1
709,a_710,24시예담동물의료센터,37.60959072,126.9168126,서울특별시 은평구 연서로 122 대광빌딩 12층 (역촌동),1
710,a_711,헬리오동물병원,37.60959072,126.9168126,서울특별시 송파구 송파대로 345 3B동 2829호 (가락동 헬리오시티),1
711,a_712,라임동물병원,37.51093147,127.1189212,서울특별시 송파구 가락로 258 세림빌딩 1층 (방이동),1
712,a_713,잠실베스트동물병원 수술재활센터,37.50497833,127.0973971,서울특별시 송파구 삼학사로 88 금보 2층 (석촌동),1
713,a_714,커비동물병원,37.50897268,127.0266847,서울특별시 강남구 강남대로122길 47 보령빌딩 1층 104호 (논현동),1
714,a_715,펫트리동물의료센터,37.53570165,127.1388826,서울특별시 강동구 양재대로 1453 베스트올 1층 (길동),1
715,a_716,다온동물병원,37.56066518,127.1704372,서울특별시 강동구 상일로 153 1층 (고덕동),1
716,a_717,동물병원 베를린,37.56066518,127.1704372,서울특별시 강동구 고덕로 353 고덕그라시움아파트(상가1동) 3층 307호 (고덕동),1
717,a_718,사랑동물병원,37.54118584,127.1430479,서울특별시 강동구 천중로49길 4 (길동),1
718,a_719,정동물병원,37.54118584,127.1430479,서울특별시 강동구 상암로 64 (천호동),1
719,a_720,Dr.베토벤동물병원,37.55077255,127.1717723,서울특별시 강동구 구천면로 664 (상일동),1
720,a_721,늘사랑동물병원,37.55077255,127.1717723,서울특별시 강동구 고덕로 162 101호 (명일동),1
721,a_722,시온동물병원,37.55077255,127.1717723,서울특별시 강동구 천호대로 1057 (천호동),1
722,a_723,스마트동물병원 강동암사점,37.55077255,127.1717723,서울특별시 강동구 고덕로 110 (암사동),1
723,a_724,고덕24시 동물병원,37.55077255,127.1717723,서울특별시 강동구 동남로 877 1층 106호 (명일동 한화오벨리스크스위트),1
724,a_725,가람동물병원,37.52903366,127.1242014,서울특별시 강동구 성내로 36 예원빌딩 (성내동),1
725,a_726,내품에동물병원,37.52903366,127.1242014,서울특별시 강동구 천호대로 1120 (길동),1
726,a_727,Dr.주 동물병원,37.52883494,127.1371946,서울특별시 강동구 양재대로 1376 (둔촌동 광안빌딩),1
727,a_728,미드미동물의료센터,37.54727727,127.1436726,서울특별시 강동구 양재대로 1588 (명일동 연우빌딩),1
728,a_729,비타민동물병원,37.54727727,127.1436726,서울특별시 강동구 동남로81길 82 (고덕동),1
729,a_730,성내동물병원,37.54727727,127.1436726,서울특별시 강동구 풍성로 145 (성내동),1
730,a_731,올바른동물병원,37.55147957,127.1277195,서울특별시 강동구 올림픽로 787 1층 (암사동 태성프라자),1
731,a_732,마리스동물의료센터,37.55406415,127.1292332,서울특별시 강동구 올림픽로 820 1층 (암사동 서연빌딩),1
732,a_733,방주동물의료센터,37.52245405,127.133651,서울특별시 강동구 양재대로 1299 1층 (성내동),1
733,a_734,사랑이있는동물병원,37.54633593,127.1513713,서울특별시 강동구 구천면로 446 (명일동),1
734,a_735,암사동물병원,37.55201122,127.1279098,서울특별시 강동구 올림픽로 793 내호빌딩 1층 (암사동),1
735,a_736,가나동물병원,37.55492013,127.1367207,서울특별시 강동구 고덕로 101 (암사동),1
736,a_737,세종동물병원,37.54174675,127.1304094,서울특별시 강동구 구천면로 237 (천호동),1
737,a_738,길종합동물병원,37.53512529,127.144142,서울특별시 강동구 천호대로 1199 1층 104호 (길동),1
738,a_739,피카소동물병원,37.55025654,127.1467269,서울특별시 강동구 구천면로 431 (명일동),1
739,a_740,GD동물병원,37.54825664,127.173104,서울특별시 강동구 상일로 13 12층 (상일동),1
740,a_741,다래동물병원,37.54825664,127.173104,서울특별시 강동구 구천면로 289 (천호동),1
741,a_742,동물병원 공감,37.54927255,127.1434358,서울특별시 강동구 양재대로 1609 조희빌딩 1층 (천호동),1
742,a_743,강동동물병원,37.54237885,127.1419331,서울특별시 강동구 양재대로 1532 (길동),1
743,a_744,두루동물병원,37.54237885,127.1419331,서울특별시 강동구 구천면로 498-1 (명일동),1
744,a_745,닥터표동물병원,37.53209667,127.1214665,서울특별시 강동구 올림픽로 566 1층 (성내동),1
745,a_746,돌봄동물병원,37.55531092,127.1403855,서울특별시 강동구 고덕로 133 2층 (암사동 강동롯데캐슬퍼스트아파트),1
746,a_747,강동24시 SKY 동물의료센터,37.53437055,127.1359843,서울특별시 강동구 천호대로 1122 (성내동),1
747,a_748,고덕 고래힐동물병원,37.55894946,127.1470825,서울특별시 강동구 아리수로50길 50 (고덕동 래미안힐스테이트고덕 상가 2층 212213호),1
748,a_749,둔촌동물병원,37.52990602,127.136593,서울특별시 강동구 양재대로 1385 (성내동),1
749,a_750,안단테 동물병원,37.54856352,127.1433148,서울특별시 강동구 양재대로 1601 (천호동 장수빌딩),1
750,a_751,CH동물병원,37.54805966,127.1356336,서울특별시 강동구 구천면로 322 (천호동),1
751,a_752,현대종합동물병원,37.54805966,127.1356336,서울특별시 강동구 구천면로 238 (천호동),1
752,a_753,해태동물병원,37.54805966,127.1356336,서울특별시 강동구 동남로73길 26 (명일동),1
753,a_754,김태화동물병원,37.53396123,127.1432285,서울특별시 강동구 천호대로 1186 원경빌딩 102호 (둔촌동),1
754,a_755,박형우동물병원,37.53220249,127.1215099,서울특별시 강동구 올림픽로 568 EMK빌딩 2층 (성내동),1
755,a_756,열린24시동물병원,37.53220249,127.1215099,서울특별시 강동구 양재대로 1508 (길동),1
756,a_757,쥬라기동물병원,37.53220249,127.1215099,서울특별시 강동구 올림픽로 703 (천호동),1
757,a_758,아프리카동물병원,37.56463306,127.1740898,서울특별시 강동구 아리수로 421 MIDC빌딩 101호 (강일동),1
758,a_759,양지동물병원,37.48588345,126.9344412,서울특별시 관악구 남부순환로191길 10 1층 (봉천동),1
759,a_760,에이블 동물병원,37.48091829,127.0416679,서울특별시 서초구 바우뫼로 211 (양재동),1
760,a_761,에코동물병원,37.492809,127.1281481,서울특별시 송파구 동남로 161 12층 (가락동 현대빌리지),1
761,a_762,24시 안박동물병원,37.56008841,126.8563608,서울특별시 강서구 양천로 510 1층 101-1호 (등촌동 현대프린스텔빌딩),1
762,a_763,비바동물병원,37.47978433,126.9429205,서울특별시 관악구 쑥고개로 57-1 1층 (봉천동),1
763,a_764,영국동물병원,37.49423345,127.1330718,서울특별시 송파구 동남로18길 23 무영빌딩 (가락동),1
764,a_765,서울대학교 수의과대학 동물병원,37.46819876,126.9517639,서울특별시 관악구 관악로 1 (신림동 서울대학교),1
765,a_766,한수24시동물병원,37.58180119,126.9070441,서울특별시 은평구 증산로 267 103호 (증산동),1
766,a_767,혜민동물병원,37.51460221,127.0437304,서울특별시 강남구 봉은사로57길 59 대호빌딩 1층 (삼성동),1
767,a_768,온누리 종합동물병원,37.5108356,126.9120419,서울특별시 영등포구 도신로 186 (신길동2층),1
768,a_769,이든동물의료센터,37.53209257,126.9050405,서울특별시 영등포구 양평로 5 12층 (당산동5가 성원빌딩),1
769,a_770,골드퍼피&실버캣,37.60178055,127.0787671,서울특별시 중랑구 봉화산로 39-1 유정빌딩 2층 201호 (중화동),1
770,a_771,메이플 동물의료센터,37.57239035,127.1751251,서울특별시 강동구 아리수로93나길 60 골드프라자 202-203호 (강일동),1
771,a_772,차지우동물병원,37.56289879,126.8404289,서울특별시 강서구 강서로62길 10 한울빌딩 1층 (등촌동),1
772,a_773,이을반려동물케어센터,37.49914876,126.9972124,서울특별시 서초구 사평대로20길 3 신화빌딩 1층 (반포동),1
773,a_774,러브펫종합동물병원,37.48118377,126.909568,서울특별시 관악구 남부순환로 1429 (신림동),1
774,a_775,바우라움동물병원,37.55715433,127.040105,서울특별시 성동구 왕십리로 241 4층 (행당동 서울숲 더샵),1
775,a_776,아이엠 동물병원,37.55079466,126.9167999,서울특별시 마포구 양화로 72 효성해링턴타워 101동 제1층 121122호 (서교동),1
776,a_777,웰튼동물의료센터,37.56911588,127.0232678,서울특별시 중구 난계로 197 124층 (황학동),1
777,a_778,VIP동물의료센터 서초동작점,37.47967414,126.9821562,서울특별시 서초구 동작대로 36 12층 (방배동 대광빌딩),1
778,a_779,닥터 호오 동물병원,37.54303445,126.9378805,서울특별시 마포구 대흥로 24 (용강동 서강빌딩(1~2층)),1
779,a_780,골드퍼피동물병원 중계점,37.63991866,127.0686083,서울특별시 노원구 동일로204가길 12 홈플러스 지하 2층 (중계동),1
780,a_781,양지가축동물병원,37.5354095,127.1444825,서울특별시 강동구 천호대로191길 6 102호 (길동),1
781,a_782,블루핀동물병원,37.66037207,127.0499414,서울특별시 도봉구 마들로 548 102 103호 (창동),1
782,a_783,정겨운동물병원,37.50002889,126.9507406,서울특별시 동작구 상도로 315 (상도1동),1
783,a_784,유현동물병원,37.66126538,127.0317658,서울특별시 도봉구 방학로 187 105호 (방학동 한화아파트 상가),1
784,a_785,선릉동물병원,37.50686998,127.0467573,서울특별시 강남구 선릉로 533 연안이씨빌딩 1층 (역삼동),1
785,a_786,산책동물병원,37.51542562,126.8596031,서울특별시 양천구 목동서로 401 1층 102호 (신정동 대림아크로빌),1
786,a_787,이다종합동물병원,37.53580898,127.0660759,서울특별시 광진구 뚝섬로 504 (자양동),1
787,a_788,파란종합 동물병원,37.51756762,126.8402787,서울특별시 양천구 신월로 149 (신월동),1
788,a_789,광화문동물병원,37.57904344,126.9711637,서울특별시 종로구 자하문로 35-3 씨에스코즈빌 101호 (통인동),1
789,a_790,이리온동물의료원(청담점),37.52455975,127.0446435,서울특별시 강남구 도산대로 445 M빌딩 2층 (청담동),1
790,a_791,용강동물병원,37.5448445,126.9395127,서울특별시 마포구 대흥로 48 (대흥동),1
791,a_792,백산동물병원,37.50012588,127.0393054,서울특별시 강남구 논현로86길 22 2층 (역삼동),1
792,a_793,24시 스마트동물병원(신사본원),37.52072693,127.0299802,서울특별시 강남구 도산대로 213 (신사동 1층 지하1층),1
793,a_794,서울종합동물병원방배,37.48495345,126.9940392,서울특별시 서초구 방배로19길 19 1층 (방배동),1
794,a_795,유석동물병원,37.49346937,126.9098069,서울특별시 영등포구 여의대방로 11 (신길동),1
795,a_796,어울동물의료센터,37.60586875,126.9336168,서울특별시 은평구 통일로 665 (녹번동),1
796,a_797,삼양동물병원,37.62082836,127.021,서울특별시 강북구 삼양로 190 백운M빌딩 1층 (미아동),1
797,a_798,서울어린이대공원동물병원,37.54956072,127.0810294,서울특별시 광진구 능동로 216 (능동),1
798,a_799,항동푸른숲동물병원,37.48093189,126.82462,서울특별시 구로구 항동로3길 4 와이제이프라자 104 204호 (항동),1
799,a_800,동물병원알루,37.48231776,127.12211,서울특별시 송파구 법원로4길 6 문정아이파크 128-9호 (문정동),1
800,a_801,아이원 동물병원,37.57194875,127.0575927,서울특별시 동대문구 전농로 80 1층 (답십리동),1
801,a_802,24시 서울 탑 동물병원,37.51772871,126.853626,서울특별시 양천구 중앙로 237 1층 (신정동),1
802,a_803,24시 강서 젠틀리동물의료센터,37.55928882,126.8193249,서울특별시 강서구 마곡중앙1로 72 101호 (마곡동 마곡엠밸리10단지),1
803,a_804,러브펫 동물병원,37.51707545,126.9033409,서울특별시 영등포구 영중로 15 타임스퀘어 지하층 B104호 (영등포동4가),1
804,a_805,V+care 동물병원,37.50479679,127.022358,서울특별시 서초구 강남대로79길 32 제이디 빌딩 1층 (반포동),1
805,a_806,대성동물약품병원,37.48425446,127.0448667,서울특별시 강남구 논현로28길 37 보석빌딩 202호 (도곡동),1
806,a_807,우리동생 동물병원,37.51973794,127.0504917,서울특별시 강남구 학동로81길 9 103호 (청담동),1
807,a_808,채움동물의료센터,37.50054023,127.1370832,서울특별시 송파구 동남로 282 재상빌딩 1층 (오금동),1
808,a_809,반포자이동물병원,37.50667866,127.0139389,서울특별시 서초구 사평대로45길 10-25 (반포동),1
809,a_810,강남25동물병원,37.51559685,127.035016,서울특별시 강남구 학동로 235 로이빌딩 (논현동),1
810,a_811,파파동물병원,37.50878778,127.0035736,서울특별시 서초구 신반포로23길 30 반원상가 1층 109호 (잠원동),1
811,a_812,리더스 동물병원,37.52166147,126.8742486,서울특별시 양천구 신목로 78 (신정동),1
812,a_813,아이윌24시동물병원,37.51965046,127.0491926,서울특별시 강남구 삼성로133길 3 노블레스타워 지하1층 (청담동),1
813,a_814,라온펫동물병원,37.50220913,127.1115166,서울특별시 송파구 가락로 140 아이앤비빌딩 2층 201호 (송파동),1
814,a_815,이n김동물병원,37.66941896,127.0464994,서울특별시 도봉구 마들로 664 킴스타워 2층 (도봉동),1
815,a_816,하니동물병원,37.53512802,126.8637764,서울특별시 양천구 등촌로 58 (목동),1
816,a_817,경인동물의료센터,37.51568607,126.9054137,서울특별시 영등포구 경인로 832 1층 (영등포동 대성빌딩),1
817,a_818,하나동물병원,37.58949256,127.0609603,서울특별시 동대문구 망우로 66 (휘경동),1
818,a_819,메인동물메디컬센터,37.62170977,127.0739231,서울특별시 노원구 동일로 1025-1 (공릉동),1
819,a_820,HELP 유기동물 의료센터,37.48716385,126.9906811,서울특별시 서초구 서초대로15길 8-10 동오빌딩 1층 (방배동),1
820,a_821,(주)이상윤동물병원,37.5193301,126.9750265,서울특별시 용산구 이촌로 248 105호 (이촌동 한강맨션),1
821,a_822,VIP동물한방재활의학센터,37.51944086,127.0490301,서울특별시 강남구 삼성로133길 7 베디베로스퀘어 2층 (청담동),1
822,a_823,엘케이동물병원,37.65096971,127.0717398,서울특별시 노원구 덕릉로 589 두림빌딩 102호 (중계동),1
823,a_824,서울동물복지지원센터 동물병원(구로),37.49793139,126.8710136,서울특별시 구로구 경인로 472 서울반려동물교육센터 (구로동),1
824,a_825,서울동물메디컬센터,37.53179019,127.1381484,서울특별시 강동구 양재대로 1410 준영빌딩 (둔촌동),1
825,a_826,우신동물병원,37.52256847,126.851408,서울특별시 양천구 중앙로 295 (신월동),1
826,a_827,대치성심동물병원,37.52256847,126.851408,서울특별시 강남구 남부순환로 2921 1층 69-1호 (대치동),1
827,a_828,한국동물암센터,37.65317737,127.0681255,서울특별시 노원구 노원로 408 (주)노원24시동물의료센터 2 4층 (상계동),1
828,a_829,앤(N)고양이병원,37.65317737,127.0681255,서울특별시 노원구 노원로 408 (주)노원24시동물의료센터 3층 (상계동),1
829,a_830,중앙동물메디컬센터,37.50999074,127.041348,서울특별시 강남구 봉은사로 315 미래빌딩 1~3층 (논현동),1
830,a_831,365 마음동물병원,37.49628015,126.8300233,서울특별시 구로구 오리로 1286 2층 (궁동),1
831,a_832,24시센트럴동물메디컬센터,37.55867947,127.0336911,서울특별시 성동구 고산자로 207 (행당동),1
832,a_833,우리들동물메디컬센터,37.52291548,126.8649416,서울특별시 양천구 목동로 161 (신정동),1
833,a_834,제일종합동물병원,37.45256687,126.906239,서울특별시 금천구 독산로 58 (시흥동),1
834,a_835,24시 시유동물메디컬센터,37.52000754,126.9699074,서울특별시 용산구 이촌로64길 24 지상1층 101호 (이촌동),1
835,a_836,24시스마트동물메디컬센터,37.59978121,126.918127,서울특별시 은평구 은평로 93 (응암동),1
836,a_837,우주동물병원,37.53568518,127.0819,서울특별시 광진구 자양로15길 30 1층 (자양동),1
837,a_838,주식회사 노원24시동물의료센터,37.65317737,127.0681255,서울특별시 노원구 노원로 408 (주)노원24시동물의료센터 1층 (상계동),1
838,a_839,우장산동물의료센터,37.55090831,126.8365896,서울특별시 강서구 강서로 282 1층 (내발산동),1
839,a_840,도림하나동물병원,37.5090083,126.8966184,서울특별시 영등포구 도영로 31 1층 (도림동),1
840,a_841,양지동물병원,37.52814401,127.1460956,서울특별시 강동구 진황도로61길 56 2B호 (둔촌동),1
841,a_842,로얄동물메디컬센터 강동,37.53415815,127.1413866,서울특별시 강동구 천호대로 1171 지하1층2층3층 (길동),1
842,a_843,웨스턴 동물의료센터,37.55516274,126.9381434,서울특별시 마포구 신촌로 110 지상128층 및 지하12층 웨스턴5빌딩 (노고산동),1
843,a_844,땅콩 동물병원,37.55904918,126.8285893,서울특별시 강서구 공항대로 190 푸리마타워 219호 (마곡동),1
844,a_845,헤이븐동물병원,37.49105286,126.9845608,서울특별시 서초구 동광로 15 1층 (방배동),1
845,a_846,24시아프리카동물메디컬센터,37.49105286,126.9845608,서울특별시 강서구 공항대로 335 (등촌동 경왕빌딩),1
846,a_847,지엔동물병원,37.50442648,126.9463082,서울특별시 동작구 상도로 252 2층 2호 (상도동),1
847,a_848,건국대학교 부속 동물병원,37.54254123,127.0737252,서울특별시 광진구 능동로 120 (화양동),1
848,a_849,서울준동물병원,37.55427378,126.946954,서울특별시 마포구 대흥로24길 24 마포프레스티지자이상가 B동 107호 (염리동),1
849,a_850,참사랑동물병원,37.50822264,126.8650995,서울특별시 양천구 목동남로4길 6-11 (신정동),1
850,a_851,올리브동물병원,37.50380418,126.8628065,서울특별시 구로구 중앙로 64 고척프라자 (고척동),1
851,a_852,24시 굿케어동물의료센터,37.48000398,126.9569224,서울특별시 관악구 남부순환로 1861 1층 103호 (봉천동),1
852,a_853,얼바인동물병원,37.47442641,127.1071077,서울특별시 강남구 밤고개로 223 강남센터뷰 103104호 (자곡동),1
853,a_854,닥터 아이펫 동물병원,37.59722892,127.0874728,서울특별시 중랑구 망우로 315 2층 (상봉동),1
854,a_855,한국동물메디컬센터(KAMC),37.58819466,127.0858995,서울특별시 중랑구 겸재로 165 12층 (면목동),1
855,a_856,퍼피즌동물병원,37.51319997,127.0430262,서울특별시 강남구 선릉로 636 키스톤빌딩 1층 (삼성동),1
856,a_857,해맑은동물병원,37.53159699,127.0839379,서울특별시 광진구 뚝섬로 670 (자양동),1
857,a_858,두리종합동물병원,37.50433984,127.0008522,서울특별시 서초구 반포대로 287 래미안퍼스티지 중심상가 1층 147148호 (반포동),1
858,a_859,유케어종합동물병원,37.50503353,126.9423829,서울특별시 동작구 상도로 214 성은빌딩 1층 (상도동),1
859,a_860,애니컴 메디컬센터,37.55207492,127.0080363,서울특별시 중구 다산로 83-1 3층 (신당동),1
860,a_861,다움동물병원,37.50578125,126.9063201,서울특별시 영등포구 가마산로 449-1 영민빌딩 1층 (신길동),1
861,a_862,24시 신도림S동물의료센터,37.50684537,126.8841188,서울특별시 구로구 경인로 619-3 201호 (신도림동 신도림3차푸르지오아파트),1
862,a_863,헬로우 동물병원,37.57277216,126.9357594,서울특별시 서대문구 연희로 178 1층 (연희동),1
863,a_864,케이나인종합동물병원,37.48908891,126.8564096,서울특별시 구로구 개봉로 38-1 광훈빌딩 2층 (개봉동),1
864,a_865,땅콩동물병원,37.57258293,127.0652662,서울특별시 동대문구 답십리로 224-1 (답십리동),1
865,a_866,신월동물병원,37.51627745,126.837752,서울특별시 양천구 신월로 124 1층 (신월동),1
866,a_867,로운동물의료센터,37.54962473,126.863384,서울특별시 강서구 등촌로 223 렙쇼메이빌딩 2층 (등촌동),1
867,a_868,망원동물종합병원,37.55483938,126.9108223,서울특별시 마포구 월드컵로 65 망원 양경회관 (망원동),1
868,a_869,우리동생 동물병원,37.56203774,126.9157629,서울특별시 마포구 월드컵북로12길 22 (성산동),1
869,a_870,레스펫동물병원,37.48492954,127.0412696,서울특별시 서초구 논현로 173 동리빌딩 1층 (양재동),1
870,a_871,동물영상진단센터/나음고양이병원,37.53415815,127.1413866,서울특별시 강동구 천호대로 1171 4층 5층 (길동),1
871,a_872,송이종합동물병원,37.50700577,127.1164994,서울특별시 송파구 가락로 210 1층 101호 (송파동),1
872,a_873,C.T.종합동물병원,37.54644203,126.9578974,서울특별시 마포구 만리재로 74 2상가 117호 (신공덕동 신공덕2차삼성래미안),1
873,a_874,소망동물병원,37.55709283,126.954299,서울특별시 마포구 신촌로 258 12층 (아현동),1
874,a_875,스머프동물병원,37.59820225,126.9250898,서울특별시 은평구 백련산로 145 (응암동),1
875,a_876,금강동물병원,37.51789115,126.9800349,서울특별시 용산구 이촌로 300 렉스상가 8-18-2호 (이촌동),1
876,a_877,날으는 동물병원,37.54892831,126.9521665,서울특별시 마포구 마포대로11길 35 공덕 메디힐스 지하1층 (공덕동),1
877,a_878,라온동물병원,37.56599886,126.9108241,서울특별시 마포구 월드컵북로 151 성미빌딩 1층 (성산동),1
878,a_879,굿모닝 동물병원,37.54470053,126.9460445,서울특별시 마포구 독막로 295 (염리동 삼부골든타워106호),1
879,a_880,아프지말게 동물병원,37.57768642,126.8886888,서울특별시 마포구 상암산로1길 24 (상암동 월드컵파크 4단지 상가 113-2),1
880,a_881,워너비 동물병원,37.55770856,126.9225062,서울특별시 마포구 동교로 193 (동교동),1
881,a_882,공덕 건강한 동물병원,37.54455967,126.952675,서울특별시 마포구 만리재로 15 제일빌딩 108호 (공덕동),1
882,a_883,도화동물병원,37.53780924,126.9472416,서울특별시 마포구 삼개로 28 (도화동),1
883,a_884,힐링 24시 동물병원,37.5521778,126.9587005,서울특별시 마포구 백범로31길 7 101동 104105호 (공덕동 공덕SK리더스뷰),1
884,a_885,캣&덴탈 하이디 동물병원,37.55105318,126.9118655,서울특별시 마포구 월드컵로3길 14 123호 (합정동 마포 한강 2차 푸르지오),1
885,a_886,박효리군 동물병원,37.55289731,126.9065451,서울특별시 마포구 포은로 64 (망원동),1
886,a_887,24시 치유동물의료센터,37.60141503,126.9313495,서울특별시 은평구 은평로 213 (녹번동),1
887,a_888,우신종합동물병원,37.50720799,126.9112294,서울특별시 영등포구 신길로 168 (신길동),1
888,a_889,강서YD동물의료센터,37.55696598,126.8521757,서울특별시 강서구 화곡로 371 (등촌동),1
889,a_890,우리동물병원,37.57092544,126.9612891,서울특별시 서대문구 통일로 197 (영천동),1
890,a_891,에이드 동물병원,37.52120212,127.0277458,서울특별시 강남구 논현로 813 영석빌딩 지하1층1층 (신사동),1
891,a_892,아프리카동물병원,37.5487115,126.9779394,서울특별시 용산구 후암로 32 (후암동),1
892,a_893,송정동물메디컬센터,37.56156399,126.8116969,서울특별시 강서구 공항대로 39 (공항동),1
893,a_894,VIP동물의료센터,37.57196475,127.073555,서울특별시 동대문구 답십리로 298 (장안동),1
894,a_895,동물병원 닥터K,37.57633453,126.8931359,서울특별시 마포구 월드컵북로 347 1층 (상암동),1
895,a_896,24시 동물응급의료센터,37.59543565,127.0800198,서울특별시 중랑구 망우로 247 지하1층 (중화동 로얄스포츠센터),1
896,a_897,다솜동물병원,37.58564178,126.9157068,서울특별시 은평구 응암로 152 101호 (응암동),1
897,a_898,마음사랑 동물병원,37.55345449,126.8264627,서울특별시 강서구 수명로 82 발산로얄타워 2층 202호 (내발산동),1
898,a_899,정말로동물병원,37.51530473,126.840864,서울특별시 양천구 신월로10길 22 2층층 (신월동),1
899,a_900,이층애 고양이동물병원,37.55338101,126.9122368,서울특별시 마포구 월드컵로 46 2층 (서교동),1
900,a_901,위례 별 동물의료센터,37.47956709,127.1437146,서울특별시 송파구 위례광장로 230 119120호 (장지동 위례2차아이파크),1
901,a_902,신월라온동물의료센터,37.51918507,126.8430139,서울특별시 양천구 신월로 179 1층 (신월동),1
902,a_903,담은동물병원,37.61652911,126.926683,서울특별시 은평구 통일로 796 상가동 지하2층 128호 지하1층 228호 (불광동 북한산 힐스테이트7차),1
903,a_904,감초약국,37.5312518,126.8472929,서울특별시 강서구 화곡동 342-58,2
904,a_905,다온약국,37.6104323,127.0094342,서울특별시 성북구 정릉동 285-12,2
905,a_906,수유시장약국,37.6304236,127.0241631,서울특별시 강북구 미아동 202-12 102호,2
906,a_907,서울이약국,37.5794673,127.001298,서울특별시 종로구 연건동 44-5,2
907,a_908,명약국,37.5423046,127.1004789,서울특별시 광진구 광장동 463-3 101호,2
908,a_909,마곡스타약국,37.5764888,126.8307466,서울특별시 강서구 마곡동 798-3 106-1호,2
909,a_910,셀약국,37.5534897,126.9177304,서울특별시 마포구 서교동 494,2
910,a_911,황약국,37.5987325,127.0969451,서울특별시 중랑구 망우동 490-9,2
911,a_912,다올약국,37.4923626,127.1443453,서울특별시 송파구 거여동 566,2
912,a_913,세계로 약국,37.5996433,127.0794341,서울특별시 중랑구 중화동 303-14 그린빌딩,2
913,a_914,새봄약국,37.5360271,127.0661386,서울특별시 광진구 자양동 553-15,2
914,a_915,스토리약국,37.4864724,127.0358875,서울특별시 강남구 도곡동 950-8 1층,2
915,a_916,에스온누리약국,37.5255159,127.0260302,서울특별시 강남구 신사동 575 극동타워 116 117호,2
916,a_917,가양온누리약국,37.5612833,126.8602034,서울특별시 강서구 가양동 1488 가양프라자,2
917,a_918,천우약국,37.519621,126.9072575,서울특별시 영등포구 영등포동5가 6-3,2
918,a_919,스마트약국,37.5408808,127.0024461,서울특별시 양천구 신정동 329-10 목동 블루스퀘어,2
919,a_920,솔약국,37.53803,127.140249,서울특별시 강동구 길동 415-13 강동 큐브 2차,2
920,a_921,태이린한약국,37.5535991,126.9038598,서울특별시 마포구 망원동 395-24,2
921,a_922,사랑온누리약국,37.5083432,127.0585185,서울특별시 강남구 삼성동 158-14,2
922,a_923,서초행복약국,37.4856842,127.0114408,서울특별시 서초구 서초동 1583-10 서초아트자이,2
923,a_924,가까운약국,37.517425,126.8964798,서울특별시 영등포구 문래동3가 55-5 로데오 ? 쇼핑몰,2
924,a_925,신두산약국,37.5735393,127.0154532,서울특별시 종로구 창신동 264,2
925,a_926,상봉태평양약국,37.5946937,127.0856632,서울특별시 중랑구 상봉동 113-4 오렌지타워,2
926,a_927,숭인약국,37.5754579,127.0223156,서울특별시 종로구 숭인동 1266,2
927,a_928,신세원약국,37.602842,127.0201982,서울특별시 성북구 길음동 1286-10 길음뉴타운9단지래미안 상가,2
928,a_929,올리브 약국,37.5552808,126.9353155,서울특별시 마포구 노고산동 57-12,2
929,a_930,안생약국,37.5462898,126.9231413,서울특별시 마포구 상수동 331-11,2
930,a_931,미동약국,37.5490357,126.9384146,서울특별시 마포구 신수동 85-5,2
931,a_932,홍대365약국,37.5546568,126.9261061,서울특별시 마포구 서교동 340-1,2
932,a_933,스타온누리약국,37.5010448,127.0863219,서울특별시 송파구 잠실동 242-17번지 대성빌딩 ,2
933,a_934,가장빠른천사약국,37.5255442,127.1143162,서울특별시 송파구 풍납동 388-7번지 ,2
934,a_935,강남샘약국,37.4950554,127.0457221,서울특별시 강남구 역삼동 784-6 기성빌딩 1층,2
935,a_936,에이원약국,37.4996935,127.0255707,서울특별시 서초구 서초동 1307-21 BLOCK77,2
936,a_937,수프라자약국,37.498419,127.146399,서울특별시 송파구 마천동 35-1,2
937,a_938,송파새길약국,37.485978,127.122489,서울특별시 송파구 문정동 652-2번지 문정 오벨리스크 ,2
938,a_939,행복한약국,37.4976866,127.1066825,서울특별시 송파구 가락동 479번지 헬리오시티 ,2
939,a_940,송파샘약국,37.4976866,127.1066825,서울특별시 송파구 가락동 479번지 헬리오시티 ,2
940,a_941,가든파이브약국,37.4775761,127.125043,서울특별시 송파구 문정동 634번지 가든파이브라이프 ,2
941,a_942,녹십자약국,37.511016,127.0737121,,2
942,a_943,우리들약국,37.5119129,127.1135622,서울특별시 송파구 방이동 149번지 세나빌딩 ,2
943,a_944,샤인약국,37.4976866,127.1066825,서울특별시 송파구 가락동 479번지 헬리오시티 ,2
944,a_945,힐링약국,37.503426,127.1248257,서울특별시 송파구 가락동 3-3번지 ,2
945,a_946,풍납라파약국,37.5375899,127.1193132,서울특별시 송파구 풍납동 141-7번지 ,2
946,a_947,누가신약국,37.501543,127.1100227,서울특별시 송파구 석촌동 296-9번지 ,2
947,a_948,방이수약국,37.5125119,127.1131853,서울특별시 송파구 방이동 107-6번지 ,2
948,a_949,제일약국,37.5114778,127.1126195,,2
949,a_950,반가운약국,37.4919649,127.1254739,서울특별시 송파구 가락동 120-4번지 ,2
950,a_951,유창온누리약국,37.4950035,127.1170293,서울특별시 송파구 가락동 96번지 신정빌딩 1층 ,2
951,a_952,오메디약국,37.520094,127.112974,서울특별시 송파구 신천동 17-4번지 파크리오상가 A동 316호,2
952,a_953,명문동물약국,37.4969021,127.1495874,,2
953,a_954,북부약국,37.622225,127.0281875,서울특별시 강북구 미아동 131-4번지 창림빌딩,2
954,a_955,스타온누리약국,37.491949,127.008718,서울특별시 서초구 서초동 1553-3 스타갤러리브릿지,2
955,a_956,팜프라자약국,37.6375688,126.9181915,서울특별시 은평구 진관동 63 롯데몰 은평점 4층,2
956,a_957,새조은약국,37.5006069,127.1108662,서울특별시 송파구 석촌동 296-15,2
957,a_958,숨온누리약국,37.4711862,127.0248843,서울특별시 서초구 방배동 897-2 J.H 빌딩,2
958,a_959,키즈플러스약국,37.5111158,127.098167,,2
959,a_960,시장온누리약국,37.5380409,127.1220396,서울특별시 송파구 풍납동 152-2번지 1층 ,2
960,a_961,옵티마100세약국,37.4971862,127.148754,서울특별시 송파구 마천동 126-5번지 ,2
961,a_962,참한약국,37.4774185,127.1231749,,2
962,a_963,일번약국,37.5307648,127.112985,서울특별시 송파구 풍납동 269-30번지 ,2
963,a_964,트램온누리약국,37.4797341,127.1440951,,2
964,a_965,팜코리아약국,37.5012824,127.1070016,서울특별시 송파구 석촌동 277-1번지 ,2
965,a_966,모범약국,37.5045167,127.0969041,,2
966,a_967,햇살약국,37.508659,127.1272145,,2
967,a_968,윤정온누리약국,37.4991015,127.138428,,2
968,a_969,잠실프라자약국,37.5051414,127.0858879,서울특별시 송파구 잠실동 234-9번지 ,2
969,a_970,새독일약국,37.5010901,127.1113762,서울특별시 송파구 송파동 97-35번지 ,2
970,a_971,진메디칼약국,37.4945745,127.1519824,서울특별시 송파구 마천동 307-13번지 1층 ,2
971,a_972,메디팜대신M약국,37.4982843,127.1207781,서울특별시 송파구 가락동 48번지 ,2
972,a_973,삼성수약국,37.5188607,127.0992536,서울특별시 송파구 신천동 7-29번지 ,2
973,a_974,송파정약국,37.4772734,127.1273388,서울특별시 송파구 장지동 841-4번지 대진프라자 105호,2
974,a_975,파란문약국,37.5714356,126.9615273,서울특별시 종로구 교북동 126 경희궁자이 4단지,2
975,a_976,지앤미약국,37.4965618,127.1315385,서울특별시 송파구 가락동 164-23번지 ,2
976,a_977,송파사거리약국,37.5018989,127.1095299,서울특별시 송파구 석촌동 295-6번지 ,2
977,a_978,윤약국,37.5052217,127.1062715,서울특별시 송파구 석촌동 174-2번지 ,2
978,a_979,문정약국,37.4879027,127.1249649,서울특별시 송파구 문정동 31번지 ,2
979,a_980,마천푸른솔약국,37.4981295,127.1469272,서울특별시 송파구 마천동 118-12번지 1층 ,2
980,a_981,뉴프라임약국,37.494231,127.1177169,서울특별시 송파구 가락동 96-16번지 ,2
981,a_982,예사랑약국,37.509456,127.1120394,서울특별시 송파구 송파동 135-3번지 ,2
982,a_983,잠실미소약국,37.5162275,127.1029989,서울특별시 송파구 신천동 7-12번지 홈플러스잠실점 지하1층 ,2
983,a_984,그린약국,37.5120464,127.0841726,서울특별시 송파구 잠실동 19-9번지 잠실파인애플상가 2층 60~61호 ,2
984,a_985,피나팜맑은약국,37.4848376,127.1254914,서울특별시 송파구 문정동 642번지 송파 테라타워2 B동 144호,2
985,a_986,키즈플러스약국,37.5111787,127.0979853,서울특별시 송파구 잠실동 40-1번지 롯데월드 웰빙센터동 A-104호,2
986,a_987,가까운현대약국,37.6399379,127.029329,서울특별시 강북구 번동 462-22 1층,2
987,a_988,왕약국,37.5026889,127.0955177,서울특별시 송파구 삼전동 133-9번지 ,2
988,a_989,큰사랑동물약국,37.4963108,127.1312282,서울특별시 송파구 가락동 164-20번지 ,2
989,a_990,메디팜양의약국,37.5113733,127.0929575,서울특별시 송파구 잠실동 40번지 갤러리아팰리스 1층 23호,2
990,a_991,남매약국,37.4925182,127.1472973,서울특별시 송파구 거여동 31번지 ,2
991,a_992,태평양약국,37.5078652,127.0879833,,2
992,a_993,진약국,37.4893289,127.1227512,,2
993,a_994,소나무약국,37.4916854,127.117708,,2
994,a_995,참약국,37.6449603,127.0201906,서울특별시 강북구 수유동 256-3 JK빌딩 104호,2
995,a_996,비온뒤 숲속약국,37.5580624,126.90781,서울특별시 마포구 망원동 482-9번지 풍성빌딩 1041호,2
996,a_997,녹원약국,37.5133985,127.1173917,,2
997,a_998,박순영온누리약국,37.508128,127.1284843,서울특별시 송파구 오금동 19번지 대림아파트상가 117~1호,2
998,a_999,늘봄약국,37.5279994,127.1183907,,2
999,a_1000,참행복한약국,37.4990563,127.1194199,,2
1000,a_1001,참약국,37.5175312,127.103575,서울특별시 송파구 신천동 11-4번지 잠실 푸르지오 월드마크 219호,2
1001,a_1002,문정이화약국,37.4859826,127.1197497,서울특별시 송파구 문정동 643-1번지 엠스테이트 C동 214호,2
1002,a_1003,송파온누리약국,37.5039061,127.1192075,서울특별시 송파구 송파동 163-20번지 1층 ,2
1003,a_1004,방이종로약국,37.5094929,127.12423,서울특별시 송파구 방이동 208-3번지 ,2
1004,a_1005,베스트약국,37.5033831,127.0902874,서울특별시 송파구 삼전동 48-10번지 ,2
1005,a_1006,밝은약국,37.5120464,127.0841726,서울특별시 송파구 잠실동 19-9번지 ,2
1006,a_1007,한가족약국,37.5044846,127.107339,서울특별시 송파구 석촌동 286-1번지 ,2
1007,a_1008,수약국,37.5016284,127.1086253,,2
1008,a_1009,월드중앙약국,37.5193571,127.0993659,,2
1009,a_1010,숲약국,37.5101888,127.0856227,,2
1010,a_1011,프라자약국,37.515932,127.1320277,,2
1011,a_1012,신화약국,37.5085653,127.0833193,,2
1012,a_1013,메디팜하나약국,37.5003751,127.1110805,서울특별시 송파구 석촌동 296-17번지 ,2
1013,a_1014,단비온누리약국,37.5119601,127.0869604,,2
1014,a_1015,온누리건강약국,37.5157622,127.1320826,,2
1015,a_1016,송파태양약국,37.5106245,127.1161033,서울특별시 송파구 방이동 119번지 1층 ,2
1016,a_1017,굿모닝약국,37.5687597,126.9661671,서울특별시 종로구 평동 233번지 경희궁자이 3단지 ,2
1017,a_1018,유한약국,37.570743,127.003384,서울특별시 종로구 종로5가 193-1번지 ,2
1018,a_1019,열린약국,37.5706604,127.0003266,서울특별시 종로구 종로4가 185번지 ,2
1019,a_1020,위드팜바로드림약국,37.5687597,126.9661671,서울특별시 종로구 평동 233번지 경희궁자이 3단지 3150호,2
1020,a_1021,유약국,37.5687597,126.9661671,서울특별시 종로구 평동 233번지 경희궁자이 3단지 상가동 3146호,2
1021,a_1022,일등약국,37.5687597,126.9661671,서울특별시 종로구 평동 233번지 경희궁자이 3단지 ,2
1022,a_1023,경희궁햇살약국,37.5705113,126.9639734,서울특별시 종로구 홍파동 199번지 경희궁자이 2단지 ,2
1023,a_1024,예은약국,37.6068278,126.9584295,서울특별시 종로구 구기동 94번지 ,2
1024,a_1025,솔약국,37.646607,126.927195,서울특별시 은평구 진관동 6 은평뉴타운상림마을 702동 113호,2
1025,a_1026,사랑약국,37.6080571,126.9564982,서울특별시 종로구 구기동 110-1번지 요진오피스텔 3호,2
1026,a_1027,종로프라자약국,37.581555,126.9705744,서울특별시 종로구 옥인동 19-33번지 ,2
1027,a_1028,종로온누리약국,37.4996619,127.0320322,서울특별시 종로구 창신동 562번지 하나저축은행 ,2
1028,a_1029,경희궁햇살약국,37.5713246,126.9635654,서울특별시 종로구 홍파동 42-13번지 ,2
1029,a_1030,동남약국,37.5700878,126.9912669,서울특별시 종로구 종로3가 123-2번지 ,2
1030,a_1031,수도약국,37.5740791,126.9851395,,2
1031,a_1032,사랑온누리약국,37.5768766,127.0152236,,2
1032,a_1033,푸른온누리약국,37.567388,126.9678863,서울특별시 종로구 평동 180번지 ,2
1033,a_1034,신동화약국,37.571853,127.0078329,서울특별시 종로구 종로6가 ,2
1034,a_1035,종로백제약국,37.5712211,127.0039744,서울특별시 종로구 종로5가 36-1번지 ,2
1035,a_1036,삼오약국,37.5704416,126.9761633,서울특별시 종로구 신문로1가 1-1번지 ,2
1036,a_1037,신세계약국,37.5700629,126.9915219,,2
1037,a_1038,다정약국,37.5698561,126.9851538,,2
1038,a_1039,삼원약국,37.5704416,126.9761633,서울특별시 종로구 신문로1가 1-1번지 ,2
1039,a_1040,서울위드팜약국,37.5818924,127.0016664,서울특별시 종로구 명륜4가 94-2번지 12층 ,2
1040,a_1041,엄마약국,37.5710353,126.9991612,서울특별시 종로구 종로4가 9-6번지 ,2
1041,a_1042,종로백제약국,37.571278,127.0039991,서울특별시 종로구 종로5가 36-1번지 백제약국 ,2
1042,a_1043,파랑새약국,37.5819971,127.001588,서울특별시 종로구 명륜4가 93번지 ,2
1043,a_1044,창신종로약국,37.5737181,127.0104369,서울특별시 종로구 창신동 647-16번지 ,2
1044,a_1045,세검정약국,37.60159,126.9617878,서울특별시 종로구 신영동 105-30번지 ,2
1045,a_1046,광화문123약국,37.5723533,126.9796646,서울특별시 종로구 청진동 215-1번지 ,2
1046,a_1047,종오약국,37.5710873,126.9994469,서울특별시 종로구 종로4가 7번지 ,2
1047,a_1048,종로수약국,37.5707374,127.0028239,서울특별시 종로구 종로5가 193-5번지 ,2
1048,a_1049,약수하나약국,37.5539916,127.0096702,,2
1049,a_1050,충정로 조은약국,37.558819,126.9635417,서울특별시 중구 중림동 398-9번지 ,2
1050,a_1051,웰니스약국,37.5615611,126.9859618,서울특별시 중구 충무로2가 63-2번지 삼윤빌딩 ,2
1051,a_1052,알파약국,37.5645831,127.0281283,서울특별시 중구 황학동 1781번지 대중약국 ,2
1052,a_1053,판도라 숭례문 약국,37.5583299,126.9730558,서울특별시 중구 남대문로5가 6-8번지 ,2
1053,a_1054,서울하이약국,37.5581881,126.97312,서울특별시 중구 남대문로5가 6-9번지 ,2
1054,a_1055,인앤아웃약국,37.5709593,126.9798759,서울특별시 종로구 종로1가 24 르메이에르종로타운1,2
1055,a_1056,케이온누리약국,37.5645947,126.9843988,서울특별시 중구 명동1가 42-1번지 ,2
1056,a_1057,허브약국,37.5516055,127.0083697,서울특별시 중구 신당동 366-106번지 ,2
1057,a_1058,서현온누리약국,37.5593241,126.9789051,서울특별시 중구 남창동 9-15번지 ,2
1058,a_1059,봄약국,37.5682052,126.9840007,서울특별시 중구 삼각동 ,2
1059,a_1060,샘물온누리약국,37.5615738,127.0194523,서울특별시 중구 신당동 ,2
1060,a_1061,우리네약국,37.5547032,127.0146066,서울특별시 중구 신당동 842번지 ,2
1061,a_1062,동화약국,37.5617223,127.0170847,서울특별시 중구 신당동 282-107번지 1층 ,2
1062,a_1063,맑은약국,37.5556465,126.9378626,서울특별시 서대문구 창천동 29-92 세인빌딩,2
1063,a_1064,황학동동물약국,37.5702876,127.0231642,서울특별시 중구 황학동 2153번지 ,2
1064,a_1065,신중앙약국,37.5647457,127.0190915,서울특별시 중구 신당동 140-1번지 ,2
1065,a_1066,다산온누리약국,37.5615738,127.0194523,서울특별시 중구 신당동 ,2
1066,a_1067,명동하이약국,37.5658904,126.9850802,서울특별시 중구 을지로2가 ,2
1067,a_1068,명동명약국,37.5636186,126.9812193,서울특별시 중구 소공동 28번지 태양빌딩 ,2
1068,a_1069,가장큰태평양약국,37.5332791,127.0038569,서울특별시 용산구 한남동 653-1번지 ,2
1069,a_1070,남선약국,37.5350006,126.9614535,서울특별시 용산구 원효로2가 94-2번지 103호,2
1070,a_1071,이층성장약국,37.5201398,126.9718634,서울특별시 용산구 이촌동 300-27번지 2층 ,2
1071,a_1072,메디팜 미래로 약국,37.5447824,126.9682535,서울특별시 용산구 청파동2가 71-14번지 ,2
1072,a_1073,힐링약국,37.5432524,126.9875039,서울특별시 용산구 용산동2가 27-4번지 기업은행 ,2
1073,a_1074,신세계약국,37.5259291,126.9998852,서울특별시 용산구 보광동 216-100번지 연소아과의원 신세계약국 ,2
1074,a_1075,우리선약국,37.5272032,127.144105,서울특별시 강동구 둔촌동 ,2
1075,a_1076,누리약국,37.5205037,127.1066833,서울특별시 송파구 신천동 17번지 파크리오 ,2
1076,a_1077,숙명온누리약국,37.5450432,126.966755,서울특별시 용산구 청파동2가 63-5번지 중하빌딩 ,2
1077,a_1078,인원약국,37.5459866,126.9849365,서울특별시 용산구 용산동2가 1-560번지 ,2
1078,a_1079,한라약국,37.5337862,126.9942656,서울특별시 용산구 이태원동 131-3번지 ,2
1079,a_1080,정화약국,37.5454262,126.9734983,,2
1080,a_1081,보현약국,37.5458724,126.9850682,서울특별시 용산구 용산동2가 1-530번지 ,2
1081,a_1082,메디팜나은약국,37.537118,126.9728863,서울특별시 용산구 한강로1가 64번지 1층 110호,2
1082,a_1083,센트럴파란문약국,37.5292323,126.9669747,서울특별시 용산구 한강로2가 422번지 래미안용산 더 센트럴 A동 208-1호,2
1083,a_1084,3층파란문약국,37.5271632,126.9651663,서울특별시 용산구 한강로2가 420번지 용산푸르지오써밋 305-1호,2
1084,a_1085,분홍약국,37.5326969,126.9907875,서울특별시 용산구 이태원동 44-17번지 1층 ,2
1085,a_1086,이촌사랑약국,37.5180409,126.9779431,서울특별시 용산구 이촌동 301-263번지 렉스상가 1호,2
1086,a_1087,혜민약국,37.5478162,127.0522128,서울특별시 성동구 행당동 12-5번지 미진빌딩 ,2
1087,a_1088,참사랑약국,37.5658317,127.043053,서울특별시 성동구 마장동 791-2번지 ,2
1088,a_1089,태화약국,37.5453477,127.0542691,서울특별시 성동구 성수동2가 300-79번지 ,2
1089,a_1090,어울림온누리약국,37.5425339,127.0164563,서울특별시 성동구 옥수동 363번지 ,2
1090,a_1091,한양약국,37.5594683,127.0404632,서울특별시 성동구 행당동 19-54번지 1층 ,2
1091,a_1092,백두산약국,37.5462755,127.0440499,서울특별시 성동구 성수동1가 668-39번지 ,2
1092,a_1093,화생약국,37.5547663,127.020345,서울특별시 성동구 금호동1가 125-1번지 로타리빌딩 103호,2
1093,a_1094,비트플렉스약국,37.5621482,127.0379421,서울특별시 성동구 행당동 168-1번지 2층 ,2
1094,a_1095,텐즈힐약국,37.5679524,127.0249238,서울특별시 성동구 상왕십리동 811번지 텐즈힐 2층 221동 110호,2
1095,a_1096,방초한약국,37.5618973,127.0254373,,2
1096,a_1097,금호동물약국,37.5553878,127.0248889,,2
1097,a_1098,메디팜푸른약국,37.5688023,127.0279267,서울특별시 성동구 하왕십리동 339-67번지 텐즈힐@상가 151동 104호,2
1098,a_1099,자연온누리약국,37.5384827,127.0549567,서울특별시 성동구 성수동2가 339-5번지 ,2
1099,a_1100,스마일온누리약국,37.5397379,127.0531007,서울특별시 성동구 성수동2가 333-16번지 이마트성수점 3층 ,2
1100,a_1101,옵티마뚝도시장약국,37.5374541,127.0540995,서울특별시 성동구 성수동2가 532-19번지 ,2
1101,a_1102,유림약국,37.5607155,127.0293549,서울특별시 성동구 하왕십리동 982-10번지 ,2
1102,a_1103,신금호중앙약국,37.5550277,127.0202477,서울특별시 성동구 금호동1가 121-3번지 ,2
1103,a_1104,천우약국,37.5675528,127.025988,서울특별시 성동구 하왕십리동 512-2   번지 ,2
1104,a_1105,대학약국,37.5598989,127.0415624,서울특별시 성동구 행당동 14-1   번지 ,2
1105,a_1106,우리들 약국,37.5379841,127.0524631,서울특별시 성동구 성수동2가 344-5번지 정화빌딩 ,2
1106,a_1107,153온누리약국,37.5695572,127.031966,서울특별시 성동구 하왕십리동 1070번지 센트라스 ,2
1107,a_1108,정성온누리약국,37.5675592,127.0287352,,2
1108,a_1109,메디팜일진약국,37.5626807,127.0541707,서울특별시 성동구 용답동 44-6번지 일진약국 ,2
1109,a_1110,용한약국,37.5702068,127.0373607,서울특별시 성동구 마장동 474-5   번지 ,2
1110,a_1111,다나약국,37.5495103,127.0469355,서울특별시 성동구 성수동1가 706번지 쌍용아파트 상가 B동 101호,2
1111,a_1112,새서독약국,37.5584629,127.0333014,서울특별시 성동구 행당동 317-52번지 ,2
1112,a_1113,샘터온누리약국,37.5545206,127.0204818,서울특별시 성동구 금호동1가 506-1   번지 ,2
1113,a_1114,대중약국,37.5644806,127.0281017,서울특별시 성동구 하왕십리동 890-80번지 ,2
1114,a_1115,실로암약국,37.5645052,127.0535335,서울특별시 성동구 용답동 58-3번지 ,2
1115,a_1116,유연약국,37.5695572,127.031966,서울특별시 성동구 하왕십리동 1070번지 센트라스상가 L동 318호,2
1116,a_1117,지안약국,37.5620533,127.0381196,서울특별시 성동구 행당동 168-151번지 왕십리민자역사4층 ,2
1117,a_1118,미소어울림약국,37.5421774,127.0181052,서울특별시 성동구 옥수동 560번지 옥수 어울림상가 1층 211호,2
1118,a_1119,성동동물약국,37.5550277,127.0202477,서울특별시 성동구 금호동1가 121-3번지 ,2
1119,a_1120,성수햇살약국,37.5438853,127.0572038,서울특별시 성동구 성수동2가 317-3번지 베델 플레이스 ,2
1120,a_1121,더밝은약국,37.5611276,127.0397537,서울특별시 성동구 행당동 1-33번지 ,2
1121,a_1122,자이팜약국,37.5559161,127.0389455,서울특별시 성동구 행당동 380번지 서울숲리버뷰자이(상가1동) 1203호,2
1122,a_1123,늘푸른약국,37.5695572,127.031966,서울특별시 성동구 하왕십리동 1070번지 센트라스 D동 비103호,2
1123,a_1124,멍냥동약,37.5459554,127.0541571,서울특별시 성동구 성수동2가 289-273번지 선약국 ,2
1124,a_1125,더나은약국,37.5560906,127.081051,서울특별시 광진구 능동 222-2번지 ,2
1125,a_1126,광진약국,37.542102,127.0981299,서울특별시 광진구 광장동 425-2번지 ,2
1126,a_1127,화양종로약국,37.5496508,127.0705803,서울특별시 광진구 군자동 346-22번지 ,2
1127,a_1128,예일약국,37.54004,127.0893896,서울특별시 광진구 구의동 221-1번지 ,2
1128,a_1129,옵티마자양미소약국,37.5326243,127.076846,서울특별시 광진구 자양동 608-7번지 ,2
1129,a_1130,세계로약국,37.5410879,127.0679154,서울특별시 광진구 화양동 48-14번지 ,2
1130,a_1131,메디팜백악관약국,37.5540067,127.0887534,서울특별시 광진구 중곡동 93-4번지 ,2
1131,a_1132,그랜드약국,37.5432911,127.069075,서울특별시 광진구 화양동 34-4번지 ,2
1132,a_1133,신성모약국,37.536277,127.0637797,서울특별시 광진구 자양동 52-6번지 ,2
1133,a_1134,명성약국,37.5440939,127.0892894,서울특별시 광진구 구의동 230-23번지 ,2
1134,a_1135,건대 가온약국,37.5465376,127.0750404,서울특별시 광진구 화양동 527번지 105호,2
1135,a_1136,메디팜백악관약국,37.5564128,127.0893692,,2
1136,a_1137,건강한약국,37.5525373,127.0897231,서울특별시 광진구 중곡동 115-9번지 ,2
1137,a_1138,새서울약국,37.5513382,127.092086,서울특별시 광진구 구의동 47-19번지 ,2
1138,a_1139,진주약국,37.5357006,127.0830019,서울특별시 광진구 자양동 626번지 ,2
1139,a_1140,힘찬동물약국,37.5320125,127.0799707,서울특별시 광진구 자양동 635-28번지 ,2
1140,a_1141,착한약국,37.5316997,127.0855186,서울특별시 광진구 자양동 677-7번지 ,2
1141,a_1142,아차산하이약국,37.5514522,127.0917927,서울특별시 광진구 구의동 50-13번지 ,2
1142,a_1143,온누리현대약국,37.5349372,127.0957088,서울특별시 광진구 구의동 546-4번지 ,2
1143,a_1144,햇살온누리약국,37.5434818,127.0699485,서울특별시 광진구 화양동 10-1번지 한아름건물 ,2
1144,a_1145,태평양약국,37.5323375,127.0857348,서울특별시 광진구 자양동 681번지 ,2
1145,a_1146,건대역약국,37.5407618,127.067406,서울특별시 광진구 자양동 8-24번지 성원빌딩 ,2
1146,a_1147,느티나무동물약국,37.5356144,127.0836095,서울특별시 광진구 자양동 627-2번지 ,2
1147,a_1148,더?스타시티약국,37.5385884,127.0726347,서울특별시 광진구 자양동 227-7번지 스타시티쇼핑몰 1층 ,2
1148,a_1149,쉐르빌대학약국,37.5400124,127.0946811,서울특별시 광진구 구의동 199-18번지 삼성쉐르빌 105호,2
1149,a_1150,금성당약국,37.5593302,127.0879574,서울특별시 광진구 중곡동 58-27번지 ,2
1150,a_1151,우리들약국,37.5586554,127.0774157,서울특별시 광진구 중곡동 89-1번지 ,2
1151,a_1152,자양하나약국,37.53173,127.0811803,서울특별시 광진구 자양동 653-47번지 ,2
1152,a_1153,신승보약국,37.5359363,127.063655,서울특별시 광진구 자양동 52-193번지 ,2
1153,a_1154,봄약국,37.5326803,127.0758338,서울특별시 광진구 자양동 608-21번지 103호,2
1154,a_1155,스타시티약국,37.5383305,127.0751022,서울특별시 광진구 자양동 227-6번지 ,2
1155,a_1156,금성약국,37.5375422,127.083673,서울특별시 광진구 구의동 252-90번지 ,2
1156,a_1157,온누리메디칼약국,37.5406229,127.067656,서울특별시 광진구 자양동 8-1번지 송천빌딩 ,2
1157,a_1158,중곡종로약국,37.5575847,127.0881598,서울특별시 광진구 중곡동 79-9번지 ,2
1158,a_1159,서울온누리약국,37.5394892,127.0938116,서울특별시 광진구 구의동 213-3번지 ,2
1159,a_1160,튼튼온누리약국,37.538409,127.0918321,서울특별시 광진구 구의동 218-37번지 ,2
1160,a_1161,온누리 강변 프라자 약국,37.5376898,127.097524,서울특별시 광진구 구의동 631-1번지 현대프라임아파트 107~9호,2
1161,a_1162,늘푸른약국,37.5781311,127.0576348,서울특별시 동대문구 전농동 295-102번지 ,2
1162,a_1163,영림약국,37.5904818,127.0622926,서울특별시 동대문구 휘경동 254번지 ,2
1163,a_1164,서초늘봄약국,37.4903683,127.0059966,서울특별시 서초구 서초동 1498-5 마제스타시티 힐스테이트 서리풀,2
1164,a_1165,장안미소약국,37.5723095,127.0743753,서울특별시 동대문구 장안동 331-3번지 ,2
1165,a_1166,코아약국,37.5900607,127.056608,서울특별시 동대문구 휘경동 320-4번지 ,2
1166,a_1167,다온약국,37.5726236,127.070784,서울특별시 동대문구 장안동 307-6번지 한양빌딩 ,2
1167,a_1168,경애약국,37.5795419,127.0705689,서울특별시 동대문구 장안동 93-10번지 ,2
1168,a_1169,새이화약국,37.5728009,127.0721334,서울특별시 동대문구 장안동 308-1번지 ,2
1169,a_1170,이웃사랑약국,37.5815693,127.0713759,서울특별시 동대문구 장안동 93-86번지 ,2
1170,a_1171,청솔약국,37.5745808,127.0599849,서울특별시 동대문구 답십리동 80번지 청솔우성아파트 A상가 108호 ,2
1171,a_1172,국제약국,37.5722258,127.0680969,,2
1172,a_1173,이문태평양약국,37.5980735,127.0614466,서울특별시 동대문구 이문동 292-32번지 ,2
1173,a_1174,삼화약국,37.5808208,127.0457652,서울특별시 동대문구 청량리동 264번지 ,2
1174,a_1175,외대조은약국,37.5959219,127.0610025,서울특별시 동대문구 이문동 288-39번지 ,2
1175,a_1176,장안제일약국,37.571834,127.0710802,서울특별시 동대문구 장안동 369-3번지 ,2
1176,a_1177,신유약국,37.570627,127.0706515,서울특별시 동대문구 장안동 ,2
1177,a_1178,우진당 약국,37.5780803,127.0579298,서울특별시 동대문구 전농동 295-16번지 ,2
1178,a_1179,한사랑온누리약국,37.6031017,127.0667232,서울특별시 동대문구 이문동 220-202번지 ,2
1179,a_1180,연세약국,37.5784918,127.0581296,서울특별시 동대문구 전농동 60-167번지 ,2
1180,a_1181,종로약국,37.5682348,127.057275,,2
1181,a_1182,자연약국,37.5951579,127.0633958,서울특별시 동대문구 이문동 82-25번지 ,2
1182,a_1183,경희 다정한 약국,37.5759638,127.0696432,서울특별시 동대문구 장안동 122-2번지 ,2
1183,a_1184,세광약국,37.5794752,127.042044,서울특별시 동대문구 제기동 652-2번지 ,2
1184,a_1185,본약국,37.583083,127.0540037,서울특별시 동대문구 전농동 135-44번지 ,2
1185,a_1186,명문온누리약국,37.5789005,127.070124,서울특별시 동대문구 장안동 99-13번지 ,2
1186,a_1187,아이약국,37.5755482,127.0732824,서울특별시 동대문구 장안동 321-10번지 삼성리치캐슬 ,2
1187,a_1188,아이약국,37.5755482,127.0732824,서울특별시 동대문구 장안동 321-10번지 삼성리치캐슬 ,2
1188,a_1189,조약국,37.5745068,127.0387406,,2
1189,a_1190,조은온누리약국,37.5656711,127.0671202,,2
1190,a_1191,청수약국,37.5777737,127.0339394,서울특별시 동대문구 용두동 100-1번지 ,2
1191,a_1192,행복한약국,37.5685662,127.0662102,서울특별시 동대문구 장안동 394-11번지 ,2
1192,a_1193,경희고황약국,37.5931286,127.0524226,,2
1193,a_1194,햇살약국,37.5631754,127.0661145,서울특별시 동대문구 장안동 433-4번지 ,2
1194,a_1195,나나약국,37.5676018,127.0722308,서울특별시 동대문구 장안동 349-17번지 ,2
1195,a_1196,그린약국,37.5719615,127.0709178,서울특별시 동대문구 장안동 369-2번지 ,2
1196,a_1197,협성가축약품,37.5830189,127.0484335,서울특별시 동대문구 청량리동 235-4번지 미주상가 ,2
1197,a_1198,하늘후문약국,37.5652271,127.0563098,서울특별시 동대문구 답십리동 530-17번지 한성아펠시티 ,2
1198,a_1199,초원옵티마약국,37.5865089,127.0425098,서울특별시 동대문구 청량리동 496번지 ,2
1199,a_1200,태평양약국,37.5995978,127.0981633,서울특별시 중랑구 망우동 488-3번지 ,2
1200,a_1201,면목백화점약국,37.5810218,127.0935553,서울특별시 중랑구 면목동 507-26번지 ,2
1201,a_1202,국제약국,37.6064082,127.0946811,서울특별시 중랑구 신내동 666번지 1층 104호,2
1202,a_1203,하늘약국,37.593212,127.0748661,서울특별시 중랑구 상봉동 130-99번지 ,2
1203,a_1204,면목약국,37.5884749,127.0890626,서울특별시 중랑구 면목동 105-7번지 ,2
1204,a_1205,바른굿모닝약국,37.5106974,126.889291,서울특별시 구로구 신도림동 338 신도림2차푸르지오 302호,2
1205,a_1206,팜코리아약국,37.5831897,127.0886458,서울특별시 중랑구 면목동 458-1번지 ,2
1206,a_1207,성경온누리약국,37.6003266,127.1052461,서울특별시 중랑구 망우동 149-16번지 ,2
1207,a_1208,우리종로약국,37.5957651,127.0998618,서울특별시 중랑구 망우동 465-14번지 ,2
1208,a_1209,참약국,37.5995979,127.0873868,서울특별시 중랑구 상봉동 202-1번지 1층 ,2
1209,a_1210,튼튼약국,37.5838499,127.0884928,서울특별시 중랑구 면목동 428-8번지 1층 ,2
1210,a_1211,건명약국,37.589608,127.0870355,서울특별시 중랑구 면목동 126-6번지 ,2
1211,a_1212,백세약국,37.6066393,127.0955549,서울특별시 중랑구 신내동 667번지 1층 109호,2
1212,a_1213,사가정 약국,37.5809912,127.0877125,서울특별시 중랑구 면목동 604-4번지 ,2
1213,a_1214,태릉프라자약국,37.5982954,127.076905,서울특별시 중랑구 중화동 315-10번지 ,2
1214,a_1215,다정옵티마약국,37.6050157,127.0768321,서울특별시 중랑구 중화동 308-1번지 ,2
1215,a_1216,정다운 온누리약국,37.5803038,127.0891191,서울특별시 중랑구 면목동 612-63,2
1216,a_1217,365프라자약국,37.6162355,127.0792636,서울특별시 중랑구 묵동 162-2번지 ,2
1217,a_1218,늘푸른솔약국,37.5881175,127.0872083,서울특별시 중랑구 면목동 115-1번지 ,2
1218,a_1219,이안온누리약국,37.579669,127.087432,서울특별시 중랑구 면목동 634-8번지 성일빌딩 1층 ,2
1219,a_1220,방약국,37.5758888,127.0859883,서울특별시 중랑구 면목동 367-6번지 ,2
1220,a_1221,봉화신세계약국,37.6118464,127.0949754,서울특별시 중랑구 신내동 646번지 금강리빙스텔 1301호,2
1221,a_1222,하나로약국,37.5931567,127.0741342,서울특별시 중랑구 상봉동 136-1번지 ,2
1222,a_1223,에이스약국,37.5945608,127.0721262,서울특별시 중랑구 중화동 324-148번지 양우빌딩 ,2
1223,a_1224,수정온누리약국,37.6136975,127.0765419,서울특별시 중랑구 묵동 238-1번지 묵동제일정형외과 ,2
1224,a_1225,초록약국,37.5626758,127.0660999,서울특별시 동대문구 장안동 432-4 형인타워 103호,2
1225,a_1226,제일한사랑약국,37.6006341,127.1086115,서울특별시 중랑구 망우동 128-32번지 미래학원 ,2
1226,a_1227,수약국,37.6066393,127.0955549,서울특별시 중랑구 신내동 667번지 금강프라자 ,2
1227,a_1228,대일약국,37.5986192,127.0876071,서울특별시 중랑구 상봉동 190-68번지 ,2
1228,a_1229,이화바이오약국,37.5560805,126.9234453,서울특별시 마포구 동교동 165-8 LG팰리스빌딩,2
1229,a_1230,편안한약국,37.5914817,127.0168621,서울특별시 성북구 동선동1가 4-13번지 ,2
1230,a_1231,공원내 아이사랑약국,37.6064198,127.0300189,서울특별시 성북구 하월곡동 88-957번지 성북힐스테이트 ,2
1231,a_1232,프라임온누리약국,37.6228267,127.048397,서울특별시 성북구 장위동 316-3번지 센트럴타운 ,2
1232,a_1233,부민약국,37.6037955,127.0424366,서울특별시 성북구 하월곡동 18-8번지 ,2
1233,a_1234,더사랑약국,37.5942459,127.0166253,서울특별시 성북구 동선동4가 53번지 ,2
1234,a_1235,조아약국,37.6026385,127.0417572,서울특별시 성북구 하월곡동 37-6번지 ,2
1235,a_1236,이화약국,37.6046976,127.0230474,서울특별시 성북구 길음동 1283-4번지 길음뉴타운래미안길음3차아파트 상가 ,2
1236,a_1237,수보온누리약국,37.6087671,127.0080315,서울특별시 성북구 정릉동 393-8번지 ,2
1237,a_1238,미소담약국,37.6087512,127.0096762,서울특별시 성북구 정릉동 400-2번지 ,2
1238,a_1239,소망약국,37.6021387,127.0189722,서울특별시 성북구 정릉동 16-174번지 ,2
1239,a_1240,한미약국,37.5989002,127.0342472,서울특별시 성북구 종암동 88-3번지 ,2
1240,a_1241,스타온누리약국,37.5889475,127.0078733,서울특별시 성북구 동소문동2가 20번지 로석빌딩 ,2
1241,a_1242,이화프라자약국,37.6088141,127.0100922,서울특별시 성북구 정릉동 401-46번지 청수프라자 B-105 ,2
1242,a_1243,정릉열린약국,37.6083759,127.0101614,서울특별시 성북구 정릉동 403-9번지 ,2
1243,a_1244,지민약국,37.5899371,127.0149983,서울특별시 성북구 삼선동4가 333-2번지 ,2
1244,a_1245,보림약국,37.5893454,127.0077186,서울특별시 성북구 동소문동1가 32-2번지 ,2
1245,a_1246,세원약국,37.5937325,127.0188153,서울특별시 성북구 동선동1가 119-9번지 ,2
1246,a_1247,정릉약국,37.6084987,127.0097622,서울특별시 성북구 정릉동 400-25번지 ,2
1247,a_1248,성북녹십자약국,37.5897133,127.0096862,서울특별시 성북구 동소문동3가 11번지 ,2
1248,a_1249,참약사약국,37.6011247,127.0338991,서울특별시 성북구 종암동 3-686번지 1층 ,2
1249,a_1250,종암동물약국,37.5986032,127.0340755,서울특별시 성북구 종암동 70-1번지 용진빌딩 1층 ,2
1250,a_1251,봄동물약국,37.5901379,127.0147703,서울특별시 성북구 삼선동4가 336번지 논현빌딩 2층 ,2
1251,a_1252,미소드림약국,37.5886993,127.0073271,서울특별시 성북구 동소문동2가 11번지 카프리빌딩 1층 ,2
1252,a_1253,목동메디약국,37.5321365,126.8631724,서울특별시 강서구 화곡동 781-13,2
1253,a_1254,서울성북 동물약국,37.5983468,127.0214341,서울특별시 성북구 돈암동 48-4번지 ,2
1254,a_1255,정릉 서현 동물약국,37.6026847,127.0173501,서울특별시 성북구 정릉동 14-24,2
1255,a_1256,그약국,37.6084565,127.0100969,서울특별시 성북구 정릉동 403-8번지 ,2
1256,a_1257,청솔약국,37.6224066,127.0510463,서울특별시 성북구 장위동 307-47번지 ,2
1257,a_1258,해피동물약국(청십자약국),37.5839502,127.0198223,서울특별시 성북구 보문동5가 3-1번지 ,2
1258,a_1259,명소약국,37.6070225,127.0610963,서울특별시 성북구 석관동 332-604번지 ,2
1259,a_1260,행복한약국,37.5910742,127.0185682,서울특별시 성북구 동선동1가 79번지 ,2
1260,a_1261,온누리진호약국,37.6075616,127.0605583,서울특별시 성북구 석관동 306-7번지 ,2
1261,a_1262,멜론약국,37.609229,127.0094988,서울특별시 성북구 정릉동 397-13번지 ,2
1262,a_1263,백세약국,37.6023989,127.0131228,서울특별시 성북구 정릉동 107-1번지 ,2
1263,a_1264,보문약국,37.5859548,127.0187159,서울특별시 성북구 보문동2가 104번지 ,2
1264,a_1265,길음시장약국,37.6035622,127.0198289,서울특별시 성북구 길음동 1286번지 길음뉴타운 ,2
1265,a_1266,송약국,37.5046936,126.9457328,서울특별시 동작구 상도동 32-10 더라함,2
1266,a_1267,백화점약국,37.6091318,127.0584897,서울특별시 성북구 석관동 252-5번지 ,2
1267,a_1268,삼층약국,37.602671,127.0236243,서울특별시 성북구 길음동 1276번지 삼부아파트 ,2
1268,a_1269,365약국,37.6085892,127.0294443,서울특별시 성북구 길음동 21-79번지 ,2
1269,a_1270,장위동물약국,37.617679,127.0511766,서울특별시 성북구 장위동 203-4번지 ,2
1270,a_1271,새민우약국,37.5995925,127.0183793,서울특별시 성북구 정릉동 1017번지 정릉쌍용아파트 203동 301호 ,2
1271,a_1272,-,37.667609,127.0419653,,2
1272,a_1273,정해약국,37.64905,127.0141274,서울특별시 강북구 수유동 279-37번지 ,2
1273,a_1274,숭인약국,37.6346285,127.0239971,서울특별시 강북구 미아동 61-85번지 1층 ,2
1274,a_1275,라라온누리약국,37.6349103,127.0229092,서울특별시 강북구 수유동 47-2번지 1층 ,2
1275,a_1276,새암온누리약국,37.6356724,127.0238758,서울특별시 강북구 번동 449-1번지 1층 101호,2
1276,a_1277,서울수유동물약국,37.633718,127.0227718,서울특별시 강북구 수유동 95-7번지 ,2
1277,a_1278,뉴타운동물약국,37.618672,127.019107,서울특별시 강북구 미아동 811-9번지 위브테라스파크상가 201호,2
1278,a_1279,옵티마네오프라자약국,37.6388324,127.0268794,서울특별시 강북구 번동 418-3번지 효성인텔리안네오프라자 1층 102호,2
1279,a_1280,수유대학약국,37.6419871,127.0164201,서울특별시 강북구 수유동 343-10번지 ,2
1280,a_1281,시원약국,37.637423,127.0261484,서울특별시 강북구 번동 446-1번지 ,2
1281,a_1282,건강비타민약국,37.6249579,127.0187199,서울특별시 강북구 미아동 775-3번지 ,2
1282,a_1283,종로태평양약국,37.6135023,127.0342405,서울특별시 강북구 미아동 53-1번지 ,2
1283,a_1284,한사랑온누리약국,37.6322927,127.013805,서울특별시 강북구 수유동 468-78번지 ,2
1284,a_1285,요나약국,37.6193356,127.0206844,서울특별시 강북구 미아동 688-5번지 ,2
1285,a_1286,메디팜미소약국,37.6120024,127.0307131,서울특별시 강북구 미아동 35-4번지 트레지오표핑몰 1층 ,2
1286,a_1287,새빛약국,37.554732,127.154625,서울특별시 강동구 명일동 46-2 고덕역 효성해링턴 타워 더퍼스트 121호,2
1287,a_1288,청구약국,37.6261161,127.0180103,서울특별시 강북구 미아동 791-940번지 ,2
1288,a_1289,다나을약국,37.6378325,127.0249907,서울특별시 강북구 수유동 229-5번지 정우빌딩 6층 ,2
1289,a_1290,세화약국,37.6337218,127.0228244,서울특별시 강북구 수유동 95-7번지 이테크밸리 101호,2
1290,a_1291,가족사랑약국,37.6246572,127.0320574,서울특별시 강북구 미아동 258-134번지 ,2
1291,a_1292,대창동물약국,37.6119461,127.0354377,서울특별시 강북구 미아동 1318번지 ,2
1292,a_1293,번동종로약국,37.6279004,127.0399432,서울특별시 강북구 번동 305-6번지 ,2
1293,a_1294,에버그린약국,37.6378951,127.0303005,서울특별시 강북구 번동 460-17번지 ,2
1294,a_1295,지영약국,37.6412127,127.016581,서울특별시 강북구 수유동 360-20번지 ,2
1295,a_1296,미아팜약국,37.6346285,127.0239971,서울특별시 강북구 미아동 62-30번지 1층 ,2
1296,a_1297,수유프라자약국,37.6340352,127.0182154,서울특별시 강북구 수유동 472-8번지 1층 ,2
1297,a_1298,미양온누리약국,37.6201043,127.0182139,서울특별시 강북구 미아동 838-19번지 ,2
1298,a_1299,재원약국,37.6151723,127.0356169,서울특별시 강북구 미아동 1356번지 상가동 120호,2
1299,a_1300,화원약국,37.6450138,127.0154612,서울특별시 강북구 수유동 319-5번지 1층 ,2
1300,a_1301,엔젤팜약국,37.6156962,127.0193252,서울특별시 강북구 미아동 1267-56번지 대선빌딩 1층 ,2
1301,a_1302,푸른온누리약국,37.524716,127.049166,서울특별시 강남구 청담동 124-4 102호,2
1302,a_1303,강북동물약국,37.6343554,127.0335325,서울특별시 강북구 번동 229-8번지 대명빌딩 1층 ,2
1303,a_1304,삼화온누리약국,37.6346285,127.0239971,서울특별시 강북구 미아동 121-19번지 1층 ,2
1304,a_1305,수유대한약국,37.6351934,127.0223831,서울특별시 강북구 수유동 45-21번지 ,2
1305,a_1306,은행나무약국,37.6183622,127.0210925,서울특별시 강북구 미아동 670-28번지 ,2
1306,a_1307,안국약국,37.6413468,127.0252553,서울특별시 강북구 수유동 178-25번지 ,2
1307,a_1308,메디팜한마음약국,37.628666,127.0396808,서울특별시 강북구 번동 308-1번지 ,2
1308,a_1309,솔샘우리약국,37.6346285,127.0239971,서울특별시 강북구 미아동 839-224번지 1층 ,2
1309,a_1310,수종로약국,37.6346285,127.0239971,서울특별시 강북구 미아동 62-9번지 1층 ,2
1310,a_1311,매일약국,37.6418002,127.0290963,서울특별시 강북구 수유동 168-5번지 1층 ,2
1311,a_1312,조아약국,37.6147974,127.0293444,서울특별시 강북구 미아동 61-51번지 ,2
1312,a_1313,혜민약국,37.5432267,127.1449175,서울특별시 강동구 길동 331-2번지 ,2
1313,a_1314,고려약국,37.6335818,127.0173297,서울특별시 강북구 수유동 472-30번지 ,2
1314,a_1315,늘푸른약국,37.6125471,127.033347,서울특별시 강북구 미아동 52-56번지 ,2
1315,a_1316,수유온누리약국,37.6367563,127.0248519,서울특별시 강북구 번동 446-12번지 ,2
1316,a_1317,엄마약국,37.6156615,127.0305429,서울특별시 강북구 미아동 70-13번지 ,2
1317,a_1318,대한수유약국,37.6351934,127.0223831,서울특별시 강북구 수유동 45-21번지 ,2
1318,a_1319,7번약국,37.6382148,127.0254741,서울특별시 강북구 수유동 191-17번지 ,2
1319,a_1320,이화약국,37.6343554,127.0335325,서울특별시 강북구 번동 229-8번지 대명빌딩 ,2
1320,a_1321,솔밭약국,37.6546551,127.0126979,서울특별시 강북구 우이동 100-5번지 화성빌딩 ,2
1321,a_1322,필약국,37.6376936,127.0226576,서울특별시 강북구 번동 310-18번지 한성빌딩 ,2
1322,a_1323,튼튼약국,37.6621194,127.0333937,서울특별시 도봉구 방학동 670-2번지 ,2
1323,a_1324,뉴메디슨약국,37.643632,127.0307472,서울특별시 도봉구 쌍문동 256번지 에벤에셀 101동 207호,2
1324,a_1325,대영약국,37.6554878,127.0369135,서울특별시 도봉구 쌍문동 668-5번지 ,2
1325,a_1326,후문한일약국,37.6457729,127.030316,서울특별시 도봉구 쌍문동 388-33번지 ,2
1326,a_1327,이화태평양약국,37.6391474,127.0382089,서울특별시 도봉구 창동 581-76번지 ,2
1327,a_1328,-,37.6686287,127.0470496,서울특별시 도봉구 방학동 720번지 ,2
1328,a_1329,팜코리아약국,37.6698686,127.0432761,서울특별시 도봉구 도봉동 620-19번지 ,2
1329,a_1330,창동남대문약국,37.6380868,127.0373172,서울특별시 도봉구 창동 578-5번지 ,2
1330,a_1331,진성온누리약국,37.6652699,127.0425179,서울특별시 도봉구 방학동 703-61번지 ,2
1331,a_1332,청솔동아약국,37.6574138,127.0485434,서울특별시 도봉구 창동 808번지 동아청솔아파트 상가동 107호,2
1332,a_1333,광장온누리약국,37.6526367,127.0512933,서울특별시 도봉구 창동 16번지 제일빌딩 101호~ 104호,2
1333,a_1334,웰빙약국,37.6582748,127.0410177,서울특별시 도봉구 창동 731-1번지 ,2
1334,a_1335,레몬약국,37.6600376,127.0278648,서울특별시 도봉구 방학동 484-15번지 ,2
1335,a_1336,방학태평양약국,37.6648122,127.0363238,서울특별시 도봉구 방학동 696번지 ,2
1336,a_1337,대한약국,37.655378,127.0133819,서울특별시 도봉구 쌍문동 503-1번지 ,2
1337,a_1338,참좋은약국,37.6495911,127.0357658,서울특별시 도봉구 창동 661-38번지 ,2
1338,a_1339,착한약국,37.6402463,127.0393776,서울특별시 도봉구 창동 601-32번지 ,2
1339,a_1340,메디팜건강약국,37.6491007,127.0346356,서울특별시 도봉구 쌍문동 88-105번지 ,2
1340,a_1341,하나로약국,37.6548847,127.0514389,서울특별시 도봉구 창동 1-15번지 ,2
1341,a_1342,희망약국,37.6555565,127.0414833,서울특별시 도봉구 창동 296-1번지 104호,2
1342,a_1343,가야온누리약국,37.6519148,127.0457356,서울특별시 도봉구 창동 331-1번지 ,2
1343,a_1344,태양약국,37.6486098,127.0343291,서울특별시 도봉구 쌍문동 88-144번지 ,2
1344,a_1345,금빛약국,37.6389175,127.0386367,서울특별시 도봉구 창동 569-85번지 ,2
1345,a_1346,나진약국,37.6613533,127.0273354,서울특별시 도봉구 방학동 271-2번지 ,2
1346,a_1347,건강제일녹십자약국,37.6573579,127.0281843,서울특별시 도봉구 쌍문동 723번지 신원2차 103104호 ,2
1347,a_1348,메디팜큰사랑약국,37.648748,127.0351005,서울특별시 도봉구 창동 659-3번지 대명빌딩 1층 ,2
1348,a_1349,종로세명약국,37.6625218,127.032467,서울특별시 도봉구 방학동 668-5번지 ,2
1349,a_1350,아주약국,37.5408236,127.1461614,서울특별시 강동구 길동 343-5번지 ,2
1350,a_1351,정다운약국,37.5068349,126.947475,서울특별시 동작구 노량진동 325 상도신동아리버파크아파트,2
1351,a_1352,태양당약국,37.6686519,127.0320859,서울특별시 도봉구 방학동 605-29번지 ,2
1352,a_1353,뉴지명약국,37.638711,127.0384977,서울특별시 도봉구 창동 557-9번지 ,2
1353,a_1354,라파온누리약국,37.634,127.0416651,서울특별시 도봉구 창동 484-33번지 ,2
1354,a_1355,백세약국,37.6660674,127.0367746,서울특별시 도봉구 방학동 660번지 ,2
1355,a_1356,신프라자,37.6401154,127.0391323,서울특별시 도봉구 창동 581-71번지 ,2
1356,a_1357,종로프라자약국,37.6520293,127.0467461,서울특별시 도봉구 창동 75-1번지 ,2
1357,a_1358,종로프라자약국,37.6520293,127.0467461,서울특별시 도봉구 창동 75-1번지 ,2
