,name,lat,lng,address,type
0,올리브 동물병원,37.5036017,126.8627094,서울특별시 구로구 고척동 50-48,동물판매업
1,레츠개릿,37.5639006,126.8395631,서울특별시 강서구 마곡동 784-9 마곡오드카운티2차,동물판매업
2,이펫,37.5639006,126.8395631,서울특별시 강서구 마곡동 784-9 마곡오드카운티2차,동물판매업
3,우리집고양이,37.6254802,126.9133993,서울특별시 은평구 갈현동 288-52,동물판매업
4,윤명원 펫택시,37.4698462,127.1107226,서울특별시 강남구 율현동 217 강남 한신휴플러스 8단지,동물판매업
5,고양이다락방,37.4985508,127.0261996,서울특별시 서초구 서초동 1317-11 강남 누드죤빌딩,동물판매업
6,에이컷,37.5096131,127.0529274,서울특별시 강남구 삼성동 125-6,동물판매업
7,HeyBokdi,37.6446384,127.0272304,서울특별시 강북구 수유동 166-30 백산빌딩,동물판매업
8,타요펫 모빌리티,37.6271116,127.0283796,서울특별시 강북구 미아동 198-27 보람빌라트,동물판매업
9,미니주동물병원,37.5479987,126.8678169,서울특별시 양천구 목동 601-6,동물판매업
10,피에스타,37.4820575,126.9474495,서울특별시 관악구 봉천동 893-5,동물판매업
11,두리디엠 (미스미스터펫),37.4850668,126.9166326,서울특별시 관악구 신림동 504-5,동물판매업
12,캣통령 잠실점,37.509809,127.0830088,서울특별시 송파구 잠실동 188-12,동물판매업
13,오류동물병원,37.4972632,126.8472065,서울특별시 구로구 오류동 33-1 예성라온팰리스 103동 101호,동물판매업
14,미독스,37.4651959,127.0164423,서울특별시 서초구 우면동 755 서초디벨리움,동물판매업
15,STAR DOG,37.6166079,127.0812718,서울특별시 중랑구 묵동 77-33 봉화빌딩,동물판매업
16,댕댕살롱,37.5829794,127.0790766,서울특별시 중랑구 면목동 172-112,동물판매업
17,댕댕살롱,37.5829794,127.0790766,서울특별시 중랑구 면목동 172-112,동물판매업
18,내안에너있DOG,37.6130186,127.099681,서울특별시 중랑구 신내동 317-6,동물판매업
19,내안에너있DOG,37.6130186,127.099681,서울특별시 중랑구 신내동 317-6,동물판매업
20,멍타펫택시,37.6325561,127.0608762,서울특별시 노원구 월계동 320-11 월계사슴3단지아파트,동물판매업
21,뽀도독,37.5455797,126.8610965,서울특별시 강서구 등촌동 514-9,동물판매업
22,LAONHAJE(라온하제),37.4977192,126.9908954,서울특별시 서초구 방배동 727-3,동물판매업
23,파란동물병원,37.51751350000001,126.8402669,서울특별시 양천구 신월동 546-25,동물판매업
24,수정동물병원,37.4837968,127.0807952,서울특별시 강남구 일원동 719 푸른마을아파트 상가동 102호,동물판매업
25,수정동물병원,37.4837968,127.0807952,서울특별시 강남구 일원동 719 푸른마을아파트 상가동 102호,동물판매업
26,낭만고양이 성북점,37.6103982,127.0275509,서울특별시 성북구 길음동 498-1 래미안길음센터피스,동물판매업
27,내안에너있DOG,37.6130186,127.099681,서울특별시 중랑구 신내동 317-6,동물판매업
28,제이온 펫트리밍,37.4807463,127.1211638,서울특별시 송파구 문정동 620 송파 푸르지오시티,동물판매업
29,몰리스펫샵 코리아퍼피 가든점,37.4782249,127.1193622,서울특별시 송파구 문정동 *** 가든파이브툴 지하*층,동물판매업
30,양지동물병원,37.4858549,126.9344245,서울특별시 관악구 봉천동 961-15번지 1층,동물판매업
31,양지동물병원,37.4858549,126.9344245,서울특별시 관악구 봉천동 961-15번지 1층,동물판매업
32,조이피아,37.4995623,127.0438089,서울특별시 강남구 역삼동 687-8 제이플러스,동물판매업
33,루피퍼피 강아지 강남점,37.5054808,127.0252206,서울특별시 강남구 논현동 198-20,동물판매업
34,화이트 퍼피 강아지 송파점,37.5005555,127.1121799,서울특별시 송파구 송파동 *** 한국원예기술정보셴타,동물판매업
35,형제종합동물병원,37.482348,126.9441563,서울특별시 관악구 봉천동 923-23번지,동물판매업
36,꽃보다 개,37.643823,127.0209171,서울특별시 강북구 수유동 248-35번지,동물판매업
37,꽃보다 개,37.643823,127.0209171,서울특별시 강북구 수유동 248-35번지,동물판매업
38,너희가 푸들이라서 좋아,37.6644937,127.0405874,서울특별시 도봉구 방학동 687-35,동물판매업
39,퍼플캣,37.5762587,127.0036526,서울특별시 종로구 이화동 122-1번지 3층 ,동물판매업
40,대학로동물병원,37.5846244,127.0001931,서울특별시 종로구 명륜2가 14-1번지 ,동물판매업
41,홍주스컵,37.5805309,127.0054048,서울특별시 종로구 동숭동 129-134번지 ,동물판매업
42,아지나라,37.5750312,127.0155298,서울특별시 종로구 창신동 79-4번지 ,동물판매업
43,경희궁바른동물병원,37.5713246,126.9635654,서울특별시 종로구 홍파동 42-13번지 경희궁자이 2단지 ,동물판매업
44,월드펫동물병원,37.6059928,126.9608104,서울특별시 종로구 신영동 1-11번지 ,동물판매업
45,Dog star,37.575044,127.0158794,서울특별시 종로구 숭인동 65-17번지 ,동물판매업
46,광화문동물병원,37.5819853,126.9709376,서울특별시 종로구 효자동 31번지 ,동물판매업
47,누리봄동물병원,37.5757539,126.9710573,서울특별시 종로구 내자동 125-3번지 ,동물판매업
48,집사의 하루 북촌점,37.5802914,126.9820595,서울특별시 종로구 화동 98번지 ,동물판매업
49,뉴골드,37.5783182,127.0160786,서울특별시 종로구 숭인동 56-47번지 ,동물판매업
50,레인독,37.5854975,126.9993852,서울특별시 종로구 명륜2가 237번지 명륜동주상복합아남아파트 ,동물판매업
51,강아지백과사전@고양이백과사전,37.575661,127.016503,서울특별시 종로구 숭인동 61-3번지 ,동물판매업
52,한국반려동물아카데미뷰티샵,37.5744513,127.0212151,서울특별시 종로구 숭인동 200-6번지 태정빌딩 ,동물판매업
53,GECOS(개코스),37.6137379,126.9725174,서울특별시 종로구 평창동 475-14번지 ,동물판매업
54,서촌도그살롱,37.5752881,126.9696147,서울특별시 종로구 필운동 290번지 ,동물판매업
55,서촌도그살롱,37.5752881,126.9696147,서울특별시 종로구 필운동 290번지 ,동물판매업
56,이쁜아이,37.5751681,127.0104664,서울특별시 종로구 창신동 643-2번지 ,동물판매업
57,북악동물병원,37.5988401,126.960261,서울특별시 종로구 홍지동 127-7번지 ,동물판매업
58,나나애견미용,37.57644459999999,127.0157047,서울특별시 종로구 숭인동 61-106번지 ,동물판매업
59,미어켓파크,37.5815649,127.0027916,서울특별시 종로구 동숭동 1-113번지 ,동물판매업
60,피카소 동물병원 미용,37.5472582,127.0732808,서울특별시 광진구 화양동 216,동물판매업
61,알펫드라이버,37.4774295,126.9659964,서울특별시 관악구 봉천동 1688-145,동물판매업
62,스타독,37.5621003,126.9970195,서울특별시 중구 충무로4가 93-1번지 ,동물판매업
63,별이네,37.5328956,126.8349249,서울특별시 양천구 신월동 112-5,동물판매업
64,노크노크 강아지미용실,37.4972768,127.1199169,서울특별시 송파구 가락동 71-5,동물판매업
65,우리집막내둥이,37.5620406,126.9965537,서울특별시 중구 충무로4가 108-21번지 ,동물판매업
66,뉴욕애견,37.5622705,126.996153,서울특별시 중구 충무로4가 ,동물판매업
67,삼성애견,37.5578884,127.0134193,서울특별시 중구 신당동 333-199번지 ,동물판매업
68,바우미우동물병원,37.5592388,127.012848,서울특별시 중구 신당동 336-3번지 명덕빌딩 ,동물판매업
69,(주)이마트청계천점,37.5708733,127.0213284,서울특별시 중구 황학동 2545번지 롯데캐슬베네치아 지하1층 ,동물판매업
70,퍼피대디,37.5679458,126.8118984,서울특별시 강서구 방화동 597-18,동물판매업
71,큐어 클리닉,37.5489685,126.9211551,서울특별시 마포구 서교동 408-25,동물판매업
72,대한동물병원,37.5621003,126.9970195,서울특별시 중구 충무로4가 93-1번지 ,동물판매업
73,강아지,37.55176429999999,127.0108665,서울특별시 중구 신당동 372-434번지 ,동물판매업
74,(주)밀레펫 청계천점,37.5708733,127.0213284,서울특별시 중구 황학동 2545번지 ,동물판매업
75,스타독,37.5621003,126.9970195,서울특별시 중구 충무로4가 94-1번지 1층 ,동물판매업
76,굿독,37.5622705,126.996153,서울특별시 중구 충무로4가 ,동물판매업
77,롯데마트 서울역점 2층 수족관,37.5574069,126.9694999,서울특별시 중구 봉래동2가 122번지 ,동물판매업
78,좋아요동물병원,37.5604784,127.0190886,서울특별시 중구 신당동 44-17번지 ,동물판매업
79,남산동물병원,37.5491389,127.0093824,서울특별시 중구 신당동 844번지 남산타운 ,동물판매업
80,백슬동물병원,37.5557031,126.9664155,서울특별시 중구 만리동2가 10-1번지 ,동물판매업
81,바른동물병원,37.565869,127.0215764,서울특별시 중구 황학동 2523번지 황학 아크로타워 ,동물판매업
82,COZY,37.55960100000001,127.0148998,서울특별시 중구 신당동 294-67번지 ,동물판매업
83,미래지동물의료센터,37.55362520000001,127.0096026,서울특별시 중구 신당동 368-19번지 ,동물판매업
84,애뚜애뚜,37.560998,127.0183992,서울특별시 중구 신당동 47-11번지 ,동물판매업
85,엔젤,37.5491389,127.0093824,서울특별시 중구 신당동 844번지 남산타운 ,동물판매업
86,메종동물병원,37.5634635,127.015948,서울특별시 중구 신당동 102-6번지 ,동물판매업
87,엔젤펫택시,37.5521247,127.0087114,서울특별시 중구 신당동 366-38번지 ,동물판매업
88,애뚜애뚜,37.560998,127.0183992,서울특별시 중구 신당동 47-11번지 ,동물판매업
89,강아지,37.55176429999999,127.0108665,서울특별시 중구 신당동 372-434번지 ,동물판매업
90,애니컴 메디컬센터,37.5520315,127.0080279,서울특별시 중구 신당동 353-130번지 ,동물판매업
91,웰펫동물병원,37.5542127,127.0114373,서울특별시 중구 신당동 373-64번지 ,동물판매업
92,강아지 마법사 골드맘,37.5618404,127.0174216,서울특별시 중구 신당동 282-33,동물판매업
93,24시스마트동물병원(신사본점),37.5206602,127.0299781,서울특별시 강남구 신사동 587-13 1층,동물판매업
94,쿨독앤핫독,37.530881,126.9698887,서울특별시 용산구 한강로2가 116-4번지 ,동물판매업
95,펫토이동물병원,37.533485,127.0016784,서울특별시 용산구 한남동 653-26번지 ,동물판매업
96,원효동물병원,37.5363716,126.9631107,서울특별시 용산구 원효로2가 30-4번지 송원빌딩 ,동물판매업
97,차오름동물병원,37.5342324,126.9510943,서울특별시 용산구 산천동 93-1번지 ,동물판매업
98,21세기동물병원,37.5303169,126.9713045,서울특별시 용산구 보광동 259-1번지 용호빌딩 2층 ,동물판매업
99,달래동물의료센터,37.5354864,127.0065643,서울특별시 용산구 한남동 707-36번지 한남프라자 2층 ,동물판매업
100,달래동물의료센터,37.5354864,127.0065643,서울특별시 용산구 한남동 707-36번지 한남프라자 2층 ,동물판매업
101,민트동물병원,37.5339827,126.9503898,서울특별시 용산구 산천동 202번지 삼성테마트 119호,동물판매업
102,민트동물병원,37.5339827,126.9503898,서울특별시 용산구 산천동 202번지 삼성테마트 119호,동물판매업
103,라온동물병원,37.5396116,126.9895367,서울특별시 용산구 이태원동 225-93번지 ,동물판매업
104,라온동물병원,37.5396116,126.9895367,서울특별시 용산구 이태원동 225-93번지 ,동물판매업
105,남산동물병원,37.5503877,126.9770488,서울특별시 용산구 후암동 63-1번지 ,동물판매업
106,남산동물병원,37.5503877,126.9770488,서울특별시 용산구 후암동 63-1번지 ,동물판매업
107,메이펫케어,37.5335857,127.0035688,서울특별시 용산구 한남동 657-121번지 1층 ,동물판매업
108,메이펫케어,37.5335857,127.0035688,서울특별시 용산구 한남동 657-121번지 1층 ,동물판매업
109,반려동물 이동서비스,37.6546227,127.0177732,서울특별시 도봉구 쌍문동 480-8 비젼팰리스,동물판매업
110,별개,37.5225727,126.8325717,서울특별시 양천구 신월동 933-3번지,동물판매업
111,멍멍?,37.529217,127.0004313,서울특별시 용산구 보광동 265-126번지 1층 ,동물판매업
112,아프리카동물병원,37.5486759,126.9779145,서울특별시 용산구 후암동 244-11번지 현석빌딩 1층 ,동물판매업
113,우쭈쭈,37.5330625,126.9939313,서울특별시 용산구 이태원동 130-27번지 2층 ,동물판매업
114,우쭈쭈,37.5330625,126.9939313,서울특별시 용산구 이태원동 130-27번지 2층 ,동물판매업
115,바다동물병원,37.5239187,126.9718594,서울특별시 용산구 용산동5가 24번지 파크타워 103동 B21호,동물판매업
116,바다동물병원,37.5239187,126.9718594,서울특별시 용산구 용산동5가 24번지 파크타워 103동 B21호,동물판매업
117,효창동물병원,37.53928320000001,126.9618569,서울특별시 용산구 효창동 70-11번지 ,동물판매업
118,(주)아이싸이랩,37.47623979999999,126.9530023,서울특별시 관악구 봉천동 1596-6 평창빌딩 101호,동물판매업
119,청화동물병원,37.5310395,126.9958021,서울특별시 용산구 이태원동 21-1번지 태광빌딩 ,동물판매업
120,프랑소와펫,37.5186517,126.9738602,서울특별시 용산구 이촌동 300-23번지 한강맨션 21동 104호,동물판매업
121,타다펫,37.5267607,127.0011593,서울특별시 용산구 보광동 78-4번지 ,동물판매업
122,소월집,37.5410809,126.9927701,서울특별시 용산구 이태원동 258-228번지 지상1층 ,동물판매업
123,펫그라운드_해방촌,37.5433963,126.987477,서울특별시 용산구 용산동2가 27-3번지 지하1층 ,동물판매업
124,펫그라운드_해방촌,37.5433963,126.987477,서울특별시 용산구 용산동2가 27-3번지 지하1층 ,동물판매업
125,원스동물병원,37.5449499,126.9694824,서울특별시 용산구 청파동2가 90-20번지 지상1층 ,동물판매업
126,박대희 펫택시,37.6110011,127.0642222,서울특별시 성북구 석관동 124-25,동물판매업
127,워너비동물병원 용산점,37.5249286,126.9688327,서울특별시 용산구 한강로3가 63-389 용산시티파크1단지 101동 101호,동물판매업
128,원스동물병원,37.5449499,126.9694824,서울특별시 용산구 청파동2가 90-20번지 ,동물판매업
129,해피펫드라이버,37.5201486,126.9783688,서울특별시 용산구 이촌동 412번지 이촌아파트 104동 703호,동물판매업
130,꼬리살랑,37.5342733,126.9596974,서울특별시 용산구 원효로3가 49-7번지 2층 ,동물판매업
131,도기캠프,37.5391624,126.963598,서울특별시 용산구 효창동 13-2번지 용산 롯데캐슬 센터포레 B203B204호 ,동물판매업
132,도기캠프,37.5391624,126.963598,서울특별시 용산구 효창동 13-2번지 용산 롯데캐슬 센터포레 B203 B204호 ,동물판매업
133,꼬리살랑,37.5342733,126.9596974,서울특별시 용산구 원효로3가 49-7번지 2층 ,동물판매업
134,이예슬펫택시,37.5333998,126.9673882,서울특별시 용산구 한강로2가 2-185번지 용산아이피아대주피오레 1202호,동물판매업
135,유임정펫택시,37.5185268,126.9806796,서울특별시 용산구 이촌동 301-160번지 현대아파트 22동 1204호,동물판매업
136,트리밍807,37.5408899,127.0060675,서울특별시 용산구 한남동 829번지 나인원 한남 지하1층 ,동물판매업
137,엉클장동물병원,37.5382047,126.9672214,서울특별시 용산구 원효로1가 133-3번지 리첸시아 용산 A동 106호,동물판매업
138,좋아서하는동물병원,37.5382047,126.9672214,서울특별시 용산구 원효로1가 133-3번지 리첸시아 용산 B동 113114호 ,동물판매업
139,펫토이동물병원,37.533485,127.0016784,서울특별시 용산구 한남동 653-26번지 ,동물판매업
140,펫토이동믈병원,37.533485,127.0016784,서울특별시 용산구 한남동 653-26번지 ,동물판매업
141,24시 시유동물메디컬센터,37.5199656,126.9698589,서울특별시 용산구 이촌동 302-88번지 ,동물판매업
142,24시 시유동물메디컬센터,37.5199656,126.9698589,서울특별시 용산구 이촌동 302-88번지 ,동물판매업
143,베이동물병원,37.5186517,126.9738602,서울특별시 용산구 이촌동 300-23번지 한강맨션 11동 102호,동물판매업
144,베이동물병원,37.5186517,126.9738602,서울특별시 용산구 이촌동 300-23번지 한강맨션 11동 102호,동물판매업
145,(주)이상윤동물병원,37.5193472,126.9750134,서울특별시 용산구 이촌동 300-23번지 한강맨션 31동 105호,동물판매업
146,(주)이상윤동물병원,37.5193472,126.9750134,서울특별시 용산구 이촌동 300-23번지 한강맨션 31동 105호,동물판매업
147,이태원동물병원,37.5340548,126.9950167,서울특별시 용산구 이태원동 531번지 지하1층 ,동물판매업
148,이태원동물병원,37.534542,126.994596,서울특별시 용산구 이태원동 531번지 2층 ,동물판매업
149,펫동물병원,37.5395573,126.9610667,서울특별시 용산구 효창동 79-1번지 ,동물판매업
150,라온동물병원,37.5396116,126.9895367,서울특별시 용산구 이태원동 225-93번지 1층 ,동물판매업
151,목욕하는 고양이,37.5260591,126.9974715,서울특별시 용산구 보광동 386-1번지 ,동물판매업
152,요키랑말티랑,37.5504106,126.9716955,서울특별시 용산구 동자동 43-28번지 ,동물판매업
153,목욕하는 고양이,37.5260591,126.9974715,서울특별시 용산구 보광동 386-1번지 지상1층 ,동물판매업
154,해방촌타이거,37.5445815,126.98342,서울특별시 용산구 용산동2가 5-1161번지 지상1층 ,동물판매업
155,펫츠 컴패니언,37.5371932,126.9606752,서울특별시 용산구 용문동 8-126번지 ,동물판매업
156,그린프레밀리,37.5288539,126.9640447,서울특별시 용산구 한강로3가 40-999번지 지하1층 ,동물판매업
157,오렌지애견,37.5240397,126.9593059,서울특별시 용산구 한강로3가 40-93번지 한진빌딩 ,동물판매업
158,보광동물병원,37.5265123,127.000774,서울특별시 용산구 보광동 80-11번지 1층 ,동물판매업
159,목욕하는고양이,37.5310969,127.0001364,서울특별시 용산구 보광동 265-651번지 ,동물판매업
160,더힐동물의료센터,37.5346226,127.0095785,서울특별시 용산구 한남동 29-6번지 아이리스프라자 3층 ,동물판매업
161,더힐동물의료센터,37.5346226,127.0095785,서울특별시 용산구 한남동 29-6번지 아이리스프라자 3층 ,동물판매업
162,애교펫,37.5433908,127.0565492,서울특별시 성동구 성수동2가 315-107번지 ,동물판매업
163,마스카라 퍼피(mascara puppy),37.5332377,126.990598,서울특별시 용산구 이태원동 44-70 1층,동물판매업
164,달루나캣츠 고양이 전문,37.5640293,127.0305366,서울특별시 성동구 도선동 357번지 ,동물판매업
165,모동모동,37.5386876,127.0449142,서울특별시 성동구 성수동1가 718번지 트리마제 ,동물판매업
166,모동모동,37.5386876,127.0449142,서울특별시 성동구 성수동1가 718번지 트리마제 ,동물판매업
167,24시센트럴동물메디컬센터,37.5586628,127.0337962,서울특별시 성동구 행당동 318-36번지 무학산부인과 ,동물판매업
168,오렌지 동물병원,37.55600099999999,127.0339353,서울특별시 성동구 행당동 322-100번지 ,동물판매업
169,오렌지동물병원,37.55600099999999,127.0339353,서울특별시 성동구 행당동 322-100번지 ,동물판매업
170,24시LC동물의료센터,37.5664017,127.0527262,서울특별시 성동구 용답동 74-2번지 동부한의원약국 ,동물판매업
171,미주 애견,37.5583114,127.0373712,서울특별시 성동구 행당동 134-24번지 ,동물판매업
172,24시LC동물의료센터,37.5664017,127.0527262,서울특별시 성동구 용답동 74-2번지 동부한의원약국 ,동물판매업
173,강아지,37.5385326,127.0574749,서울특별시 성동구 성수동2가 264-1번지 ,동물판매업
174,안녕강아지,37.5475988,127.0259342,서울특별시 성동구 금호동4가 103-3번지 ,동물판매업
175,도그마 펫살롱,37.55295390000001,127.02241,서울특별시 성동구 금호동2가 1215번지 금호자이1차 ,동물판매업
176,베이글 버트 그루밍,37.5452462,127.0457956,서울특별시 성동구 성수동1가 656-1053번지 ,동물판매업
177,나인페츠,37.545702,127.042425,서울특별시 성동구 성수동1가 685-696번지 갤러리아 포레 101동 106호,동물판매업
178,나인페츠,37.545702,127.042425,서울특별시 성동구 성수동1가 685-696번지 갤러리아 포레 101동 106호,동물판매업
179,커츄츄,37.5460658,127.0199938,서울특별시 성동구 금호동4가 800번지 금호동 대우아파트 413호,동물판매업
180,개깎쟁이,37.5622558,127.035631,서울특별시 성동구 행당동 290-30번지 하나가정의원 ,동물판매업
181,서울숲 dogs,37.5451731,127.0452239,서울특별시 성동구 성수동1가 658-1번지 1층 3호 ,동물판매업
182,서울숲 dogs,37.5451717,127.0427175,서울특별시 성동구 성수동1가 658-1번지 프렌치모터스(주) ,동물판매업
183,개깎쟁이,37.5612309,127.0329088,서울특별시 성동구 행당동 290-30번지 정우빌딩 ,동물판매업
184,오늘동물병원,37.5402894,127.0557127,서울특별시 성동구 성수동1가 656-968번지 영화빌딩 ,동물판매업
185,나비캣,37.55522680000001,127.0201353,서울특별시 성동구 금호동1가 116번지 1층 ,동물판매업
186,마이뷰티독,37.5703963,127.0246593,서울특별시 성동구 상왕십리동 811번지 텐즈힐 ,동물판매업
187,마이뷰티독,37.5703963,127.0246593,서울특별시 성동구 상왕십리동 811번지 텐즈힐 ,동물판매업
188,앙꼬네 미용실,37.55993369999999,127.0366565,서울특별시 성동구 행당동 232-1번지 ,동물판매업
189,강아지song,37.5492052,127.066267,서울특별시 성동구 송정동 66-41번지 송정약국 ,동물판매업
190,강아지song,37.5492052,127.066267,서울특별시 성동구 송정동 66-41번지 송정약국 ,동물판매업
191,함께하는 동물병원,37.54298259999999,127.0131122,서울특별시 성동구 옥수동 263-1번지 ,동물판매업
192,베이글 버트 그루밍,37.5452462,127.0457956,서울특별시 성동구 성수동1가 656-1053번지 ,동물판매업
193,강아지,37.5385326,127.0574749,서울특별시 성동구 성수동2가 264-1번지 ,동물판매업
194,멍멍살롱,37.5654256,127.0403076,서울특별시 성동구 마장동 775-2번지 트레저힐스 ,동물판매업
195,선녀와 강아지,37.566061,127.0324957,서울특별시 성동구 홍익동 318번지 ,동물판매업
196,댕댕이 하우스,37.5474202,127.044763,서울특별시 성동구 성수동1가 656-1047번지 ,동물판매업
197,댕댕이 하우스,37.5474202,127.044763,서울특별시 성동구 성수동1가 656-1047번지 ,동물판매업
198,노원24시N동물병원,37.6530517,127.0681315,서울특별시 노원구 상계동 318-2 (주)노원24시동물의료센터 1층,동물판매업
199,화이트파크,37.518125,127.0451693,서울특별시 강남구 청담동 123-17 청맥빌딩 1~2층,동물판매업
200,베이지동물병원,37.5695572,127.031966,서울특별시 성동구 하왕십리동 1070번지 센트라스 D동 106호,동물판매업
201,멍이요 펫택시,37.6577229,127.0297243,서울특별시 도봉구 쌍문동 59 한양2차아파트,동물판매업
202,펫츠온더포인트,37.5472402,127.0426751,서울특별시 성동구 성수동1가 668-76번지 ,동물판매업
203,이재원,37.55295390000001,127.02241,서울특별시 성동구 금호동2가 1215번지 금호자이1차 103동 303호,동물판매업
204,함께하는 동물병원,37.54298259999999,127.0131122,서울특별시 성동구 옥수동 263-1번지 ,동물판매업
205,포레 동물병원,37.5435938,127.0491606,서울특별시 성동구 성수동1가 22-28번지 정인숙보습학원 ,동물판매업
206,웨그앤코(WAG&co),37.53762469999999,127.0541438,서울특별시 성동구 성수동2가 335-146번지 ,동물판매업
207,한양동물메디컬센터,37.5596166,127.0369899,서울특별시 성동구 행당동 226-3번지 중국한의원 ,동물판매업
208,한양동물메디컬센터,37.5596166,127.0369899,서울특별시 성동구 행당동 226-3번지 중국한의원 ,동물판매업
209,미주애견샵,37.5583114,127.0373712,서울특별시 성동구 행당동 134-24번지 ,동물판매업
210,평화와생명 동물병원,37.5559126,127.0290958,서울특별시 성동구 행당동 346번지 한진노변상가 ,동물판매업
211,왕십리조은동물병원,37.5645427,127.0278756,서울특별시 성동구 하왕십리동 892-4번지 ,동물판매업
212,왕십리조은동물병원,37.5645427,127.0278756,서울특별시 성동구 하왕십리동 892-4번지 ,동물판매업
213,이윤세동물병원,37.5559126,127.0290958,서울특별시 성동구 행당동 346번지 한진노변상가 ,동물판매업
214,댕댕이네,37.58551120000001,126.9489831,서울특별시 서대문구 홍제동 ***-***,동물판매업
215,고고펫,37.5309703,127.1300739,서울특별시 강동구 성내동 516,동물판매업
216,고양아 안녕?,37.562953,127.0407691,서울특별시 성동구 마장동 821 금호어울림아파트,동물판매업
217,이윤세 동물병원,37.5559126,127.0290958,서울특별시 성동구 행당동 346번지 한진노변상가 ,동물판매업
218,Show Dog,37.5599851,127.032803,서울특별시 성동구 행당동 298-13번지 ,동물판매업
219,Show Dog,37.5599851,127.032803,서울특별시 성동구 행당동 298-13번지 ,동물판매업
220,스테이 동물병원,37.5476171,127.0131001,서울특별시 성동구 옥수동 528번지 이편한세상옥수파크힐스 ,동물판매업
221,스테이 동물병원,37.5476171,127.0131001,서울특별시 성동구 옥수동 528번지 이편한세상옥수파크힐스 ,동물판매업
222,서울숲동물병원,37.544566,127.055978,서울특별시 성동구 성수동2가 333-3번지 승민카센타 ,동물판매업
223,버블퍼피,37.5607978,127.0297149,서울특별시 성동구 하왕십리동 982-8번지 ,동물판매업
224,버블퍼피,37.5607978,127.0297149,서울특별시 성동구 하왕십리동 982-8번지 ,동물판매업
225,옥수수동물병원,37.5421774,127.0181052,서울특별시 성동구 옥수동 560번지 옥수 어울림 ,동물판매업
226,아지동물병원,37.5479925,127.0210255,서울특별시 성동구 금호동4가 1108번지 ,동물판매업
227,바라봄동물병원,37.5695572,127.031966,서울특별시 성동구 하왕십리동 1070번지 센트라스 ,동물판매업
228,다온동물병원,37.5695572,127.031966,서울특별시 성동구 하왕십리동 1070번지 센트라스 ,동물판매업
229,바둑이 애견미용,37.5463204,127.0242025,서울특별시 성동구 금호동4가 235번지 서울숲2차푸르지오 ,동물판매업
230,라임동물병원,37.5654682,127.0303086,서울특별시 성동구 홍익동 398-2번지 ,동물판매업
231,금호동물병원,37.551444,127.025306,서울특별시 성동구 금호동2가 1217번지 래미안하이리버 상가동 ,동물판매업
232,금호동물병원,37.551444,127.025306,서울특별시 성동구 금호동2가 1217번지 래미안하이리버 상가동 ,동물판매업
233,위대한캣츠빌,37.5367732,127.0569618,서울특별시 성동구 성수동2가 572-8번지 사랑어린이집 ,동물판매업
234,제인동물병원,37.5389889,127.0547093,서울특별시 성동구 성수동2가 339-23번지 ,동물판매업
235,서울숲 동물병원,37.544566,127.055978,서울특별시 성동구 성수동2가 333-3번지 승민카센타 ,동물판매업
236,꿈꾸는강아지,37.5484882,127.0485971,서울특별시 성동구 성수동1가 13-132번지 ,동물판매업
237,펫365동물병원,37.5478435,127.025271,서울특별시 성동구 금호동4가 131번지 김진산부인과 ,동물판매업
238,펫365동물병원,37.5478435,127.025271,서울특별시 성동구 금호동4가 131번지 김진산부인과 ,동물판매업
239,텐즈힐 애견미용,37.5703963,127.0246593,서울특별시 성동구 상왕십리동 811번지 텐즈힐 ,동물판매업
240,(주)이마트 성수점 몰리스,37.5397379,127.0531007,서울특별시 성동구 성수동2가 333-16번지 이마트 성수점 ,동물판매업
241,(주)이마트 성수점 몰리스,37.5397379,127.0531007,서울특별시 성동구 성수동2가 333-16번지 이마트 성수점 ,동물판매업
242,도그마루(왕십리점),37.570505,127.023535,서울특별시 성동구 상왕십리동 811번지 텐즈힐몰(221동) 1149호,동물판매업
243,달링동물병원,37.5386876,127.0449142,서울특별시 성동구 성수동1가 718번지 트리마제상가 104호,동물판매업
244,버블퍼피,37.5607978,127.0297149,서울특별시 성동구 하왕십리동 982-8번지 ,동물판매업
245,애견마을,37.670274,127.0820675,서울특별시 노원구 상계동 72-34 병창빌딩 2층,동물판매업
246,왕십리조은동물병원,37.5645427,127.0278756,서울특별시 성동구 하왕십리동 892-4번지 ,동물판매업
247,반값애견,37.5481762,127.019819,서울특별시 성동구 금호동4가 1132번지 2층 ,동물판매업
248,코코애견,37.5650181,127.0527822,서울특별시 성동구 용답동 60-9번지 (1층) ,동물판매업
249,(주) 밀레펫 왕십리점,37.5592833,127.0384407,서울특별시 성동구 행당동 168-151번지 ,동물판매업
250,(주) 밀레펫 성수점,37.5399389,127.0528455,서울특별시 성동구 성수동2가 333-16번지 이마트 본사 3층 ,동물판매업
251,프랑소와펫,37.4961825,126.9970896,서울특별시 서초구 반포동 102-6,동물판매업
252,도그컴퍼니,37.5487468,127.0558966,서울특별시 성동구 성수동2가 289-204번지 ,동물판매업
253,로엘동물병원,37.5320448,127.078797,서울특별시 광진구 자양동 606-14번지 ,동물판매업
254,한빛동물병원,37.5543643,127.0244491,서울특별시 성동구 금호동*가 ***-*,동물판매업
255,로얄에이알씨(주),37.5358089,127.0684009,서울특별시 광진구 자양동 550-1번지 영지빌딩 ,동물판매업
256,로얄에이알씨(주),37.5358089,127.0684009,서울특별시 광진구 자양동 550-1번지 영지빌딩 ,동물판매업
257,로얄에이알씨(주),37.5358089,127.0684009,서울특별시 광진구 자양동 550-1번지 영지빌딩 ,동물판매업
258,광진 pet,37.5452135,127.0857451,서울특별시 광진구 구의동 68-35번지 ,동물판매업
259,빈브레드,37.5462329,127.1039941,서울특별시 광진구 광장동 249-2번지 ,동물판매업
260,카페히릿,37.5469318,127.074404,서울특별시 광진구 화양동 111-72번지 ,동물판매업
261,광진24시 필동물병원,37.5387348,127.0961255,서울특별시 광진구 구의동 611번지 구의현대2단지아파트 ,동물판매업
262,광진24시 필동물병원,37.5387348,127.0961255,서울특별시 광진구 구의동 611번지 구의현대2단지아파트 ,동물판매업
263,댕댕이집합소,37.5382416,127.0892961,서울특별시 광진구 구의동 244-50번지 ,동물판매업
264,이쁘개멋있개,37.5514315,127.0712859,서울특별시 광진구 군자동 364-4번지 ,동물판매업
265,이쁘개멋있개,37.5514315,127.0712859,서울특별시 광진구 군자동 364-4번지 ,동물판매업
266,동서울동물병원,37.541743,127.096198,서울특별시 광진구 광장동 517-5번지 ,동물판매업
267,동서울동물병원,37.541743,127.096198,서울특별시 광진구 광장동 517-5번지 ,동물판매업
268,도기파크,37.5340126,127.0801736,서울특별시 광진구 자양동 622-4번지 ,동물판매업
269,쥬라기동물병원,37.5420368,127.0952643,서울특별시 광진구 광장동 530-39번지 ,동물판매업
270,쥬라기동물병원,37.5420368,127.0952643,서울특별시 광진구 광장동 530-39번지 ,동물판매업
271,bijou pet(비쥬펫),37.5469318,127.074404,서울특별시 광진구 화양동 111-72번지 ,동물판매업
272,bijou pet(비쥬펫),37.5469318,127.074404,서울특별시 광진구 화양동 111-72번지 ,동물판매업
273,와사비네집,37.5595296,127.0878678,서울특별시 광진구 중곡동 58-18번지 ,동물판매업
274,윤패션,37.5668805,127.0824353,서울특별시 광진구 중곡동 172-48번지 ,동물판매업
275,카나비스 펫(cannabis pet),37.5605315,127.0751311,서울특별시 광진구 중곡동 613-20번지 ,동물판매업
276,버블링,37.5306703,127.0873324,서울특별시 광진구 자양동 690-32번지 ,동물판매업
277,버블링,37.5306703,127.0873324,서울특별시 광진구 자양동 690-32번지 ,동물판매업
278,bijou pet(비쥬펫),37.5469318,127.074404,서울특별시 광진구 화양동 111-72번지 ,동물판매업
279,스마트동물병원 군자점,37.560789,127.0812197,서울특별시 광진구 중곡동 162-8번지 ,동물판매업
280,스마트동물병원 군자점,37.560789,127.0812197,서울특별시 광진구 중곡동 162-8번지 ,동물판매업
281,하리네 쉼터 잠실점,37.5010121,127.1098696,서울특별시 송파구 석촌동 297-27,동물판매업
282,우연이미용실,37.54348480000001,127.1317607,서울특별시 강동구 천호동 280-3 예원빌딩 102호,동물판매업
283,홈펫(Home Pet),37.5037671,127.1140136,서울특별시 송파구 송파동 103-2 부성빌딩,동물판매업
284,주식회사 컴투펫,37.5327963,127.0854067,서울특별시 광진구 자양동 680-26번지 ,동물판매업
285,특별한 강아지,37.5441447,127.0700286,서울특별시 광진구 화양동 12-42번지 ,동물판매업
286,이다애견미용실,37.5357555,127.0661025,서울특별시 광진구 자양동 553-280번지 이다종합동물병원 ,동물판매업
287,롯데쇼핑(주) 롯데마트 강변점,37.5349372,127.0957088,서울특별시 광진구 구의동 546-4번지 테크노-마트21 ,동물판매업
288,방주종합동물병원,37.5713693,127.0733768,서울특별시 광진구 중곡동 161-27번지 경남빌딩 ,동물판매업
289,방주종합동물병원,37.5713693,127.0733768,서울특별시 광진구 중곡동 161-27번지 경남빌딩 ,동물판매업
290,보람동물병원,37.5504897,127.071146,서울특별시 광진구 군자동 363-4번지 ,동물판매업
291,용마동물병원,37.5595296,127.0878678,서울특별시 광진구 중곡동 58-18번지 ,동물판매업
292,연두동물병원,37.544695,127.087674,서울특별시 광진구 구의동 233-23번지 ,동물판매업
293,우리집 강아지,37.602951,127.018105,서울특별시 성북구 정릉동 1034 길음뉴타운10단지 상가동 B111호,동물판매업
294,버블링,37.5306703,127.0873324,서울특별시 광진구 자양동 690-32번지 ,동물판매업
295,펫몬스터,37.5319993,127.0862752,서울특별시 광진구 자양동 681-38번지 ,동물판매업
296,김고은그루밍#,37.5621658,127.0793601,서울특별시 광진구 중곡동 244-9번지 ,동물판매업
297,준동물병원,37.5348747,127.0703598,서울특별시 광진구 자양동 553-588번지 ,동물판매업
298,준동물병원,37.5348747,127.0703598,서울특별시 광진구 자양동 553-588번지 ,동물판매업
299,로얄도그앤캣메디컬센터,37.5358089,127.0684009,서울특별시 광진구 자양동 550-1번지 ,동물판매업
300,독핏케어센터,37.5454603,126.9140323,서울특별시 마포구 합정동 400-10 동해빌딩,동물판매업
301,프라임동물병원,37.5388458,127.0908482,서울특별시 광진구 구의동 659번지 세림리오빌아파트 ,동물판매업
302,도그숑,37.5639261,127.0841943,서울특별시 광진구 중곡동 30-25번지 ,동물판매업
303,서울동물병원,37.5544972,127.0870554,서울특별시 광진구 중곡동 119-7번지 ,동물판매업
304,강아지놀이터,37.5392943,127.0931849,서울특별시 광진구 구의동 218-1번지 ,동물판매업
305,코코애견,37.56618880000001,127.0815473,서울특별시 광진구 중곡동 193-27번지 ,동물판매업
306,(주)이마트 자양점,37.53858839999999,127.0726347,서울특별시 광진구 자양동 227-7 더샵스타시티,동물판매업
307,다온동물병원,37.5659239,127.0814283,서울특별시 광진구 중곡동 193-29번지 ,동물판매업
308,중곡동물병원,37.5627064,127.0815561,서울특별시 광진구 중곡동 241-34번지 ,동물판매업
309,러브펫,37.5374829,127.0767522,서울특별시 광진구 자양동 227-40번지 2층 ,동물판매업
310,카페 펫크루,37.5528437,126.9237068,서울특별시 마포구 서교동 358-74,동물판매업
311,준동물병원,37.5348747,127.0703598,서울특별시 광진구 자양동 553-588번지 ,동물판매업
312,몽타운,37.4851331,127.1238462,서울특별시 송파구 문정동 **,동물판매업
313,멍미,37.5415964,127.0897792,서울특별시 광진구 구의동 225-25번지 ,동물판매업
314,강아지발바닥,37.5415964,127.0897792,서울특별시 광진구 구의동 225-25번지 ,동물판매업
315,드림펫,37.5653961,127.0837734,서울특별시 광진구 중곡동 166-6번지 ,동물판매업
316,서울동물병원,37.5544972,127.0870554,서울특별시 광진구 중곡동 119-7번지 ,동물판매업
317,컴투펫,37.5327963,127.0854067,서울특별시 광진구 자양동 680-26번지 ,동물판매업
318,컴투펫,37.5327963,127.0854067,서울특별시 광진구 자양동 680-26번지 ,동물판매업
319,신나개,37.5707582,127.0738212,서울특별시 동대문구 장안동 326-13 이제이빌딩 301호,동물판매업
320,글로벌,37.5569358,127.0887291,서울특별시 광진구 중곡동 80-26번지 1층 ,동물판매업
321,몽타운,37.4851331,127.1238462,서울특별시 송파구 문정동 **,동물판매업
322,올리스 애견셀프목욕 & 펫살롱,37.5456781,127.0862758,서울특별시 광진구 구의동 68-30번지 1층 우측1호,동물판매업
323,엄마 잘 다녀와,37.5619165,127.0833395,서울특별시 광진구 중곡동 39-51번지 2층 ,동물판매업
324,Canine Bath House,37.53384399999999,127.0675258,서울특별시 광진구 자양동 59-2번지 1호,동물판매업
325,특별한 강아지,37.5441447,127.0700286,서울특별시 광진구 화양동 12-42 1층 ,동물판매업
326,Onene(오네네),37.5628728,127.0867438,서울특별시 광진구 중곡동 24-4번지 바우하우스 ,동물판매업
327,야옹아놀자,37.555621,126.9048284,서울특별시 마포구 망원동 410-27,동물판매업
328,(주)밀레펫 자양점,37.5324005,127.0715809,서울특별시 광진구 자양동,동물판매업
329,김언니 펫살롱,37.5306718,127.074441,서울특별시 광진구 자양동 584-15번지 ,동물판매업
330,김언니 펫살롱,37.5306718,127.074441,서울특별시 광진구 자양동 584-15번지 ,동물판매업
331,미션코리아,37.5738196,127.0027668,서울특별시 종로구 효제동 ***-*,동물판매업
332,아낌,37.5541391,127.0930842,서울특별시 광진구 구의동 28-46번지 ,동물판매업
333,아낌,37.5541391,127.0930842,서울특별시 광진구 구의동 28-46번지 ,동물판매업
334,신나개,37.5707582,127.0738212,서울특별시 동대문구 장안동 326-13 이제이빌딩 301호,동물판매업
335,해피애견타운,37.5583166,127.0775263,서울특별시 광진구 중곡동 639-3번지 ,동물판매업
336,베이비독,37.5333386,127.0687835,서울특별시 광진구 자양동 553-376번지 원우상가 ,동물판매업
337,베이비독,37.5333386,127.0687835,서울특별시 광진구 자양동 553-376번지 원우상가 ,동물판매업
338,애플동물병원,37.5530699,127.0884389,서울특별시 광진구 능동 256-2번지 ,동물판매업
339,노룬산동물병원,37.5369488,127.061707,서울특별시 광진구 자양동 236-127번지 정천빌딩 ,동물판매업
340,디어독,37.53384399999999,127.0675258,서울특별시 광진구 자양동 59-2,동물판매업
341,개판오분전,37.5592162,127.076535,서울특별시 광진구 중곡동 631-6번지 ,동물판매업
342,아차산동물병원,37.55177,127.0902383,서울특별시 광진구 구의동 53-9번지 ,동물판매업
343,희망애견샵,37.5519059,127.0913843,서울특별시 광진구 구의동 50-16번지 ,동물판매업
344,나루동물병원,37.5433454,127.0997083,서울특별시 광진구 광장동 582번지 광장힐스테이트 ,동물판매업
345,나루동물병원,37.5433454,127.0997083,서울특별시 광진구 광장동 582번지 광장힐스테이트 ,동물판매업
346,중앙애견,37.5355819,127.0677214,서울특별시 광진구 자양동 553-437번지 ,동물판매업
347,중앙애견,37.5355819,127.0677214,서울특별시 광진구 자양동 553-437번지 ,동물판매업
348,하나 동물병원,37.5894645,127.0609308,서울특별시 동대문구 휘경동 267-84번지 ,동물판매업
349,주주 동물병원,37.5778143,127.0584687,서울특별시 동대문구 전농동 38-24번지 ,동물판매업
350,주주 동물병원,37.5778143,127.0584687,서울특별시 동대문구 전농동 38-24번지 ,동물판매업
351,그랜드 동물병원,37.57262679999999,127.057651,서울특별시 동대문구 답십리동 53-6번지 ,동물판매업
352,심재웅 동물병원,37.5910801,127.0664997,서울특별시 동대문구 휘경동 34-48번지 ,동물판매업
353,박철환 동물병원,37.57888080000001,127.0696884,서울특별시 동대문구 장안동 100-8번지 ,동물판매업
354,둥글개 둥글개,37.5752855,127.0738488,서울특별시 동대문구 장안동 326-10번지 삼성그린아파트 ,동물판매업
355,둥글개 둥글개,37.5752855,127.0738488,서울특별시 동대문구 장안동 326-10번지 삼성그린아파트 ,동물판매업
356,퍼피테일,37.57351120000001,127.0572595,서울특별시 동대문구 답십리동 243-3번지 ,동물판매업
357,퍼피테일,37.57351120000001,127.0572595,서울특별시 동대문구 답십리동 243-3번지 ,동물판매업
358,미니 앤 바니 애견샵,37.5684054,127.0687784,서울특별시 동대문구 장안동 374-1번지 장안현대벤처빌 ,동물판매업
359,미니 앤 바니 애견샵,37.5684054,127.0687784,서울특별시 동대문구 장안동 374-1번지 장안현대벤처빌 ,동물판매업
360,#멍멍,37.5900012,127.0628173,서울특별시 동대문구 휘경동 275-5번지 ,동물판매업
361,페트로(Petro 동물병원),37.5677753,127.0685248,서울특별시 동대문구 장안동 374-3번지 ,동물판매업
362,페트로(Petro 동물병원),37.5677753,127.0685248,서울특별시 동대문구 장안동 374-3번지 ,동물판매업
363,한스 강아지방,37.5890482,127.0609326,서울특별시 동대문구 휘경동 286-336번지 ,동물판매업
364,펫아트만,37.58009089999999,127.0680861,서울특별시 동대문구 전농동 2-42번지 ,동물판매업
365,버블독,37.5666118,127.0683763,서울특별시 동대문구 장안동 362-9번지 ,동물판매업
366,버블독,37.5666118,127.0683763,서울특별시 동대문구 장안동 362-9번지 ,동물판매업
367,까네지노,37.5687601,127.0567092,서울특별시 동대문구 답십리동 267-2번지 ,동물판매업
368,이모네 강아지,37.6113617,127.0787546,서울특별시 중랑구 묵동 ***-**,동물판매업
369,애니케어 동물병원,37.5940109,127.0588603,서울특별시 동대문구 이문동 324-3번지 ,동물판매업
370,패션그루머,37.5782072,127.0502648,서울특별시 동대문구 전농동 530-11번지 ,동물판매업
371,아띠 동물의료센터,37.5749802,127.0524579,서울특별시 동대문구 전농동 322-31번지 ,동물판매업
372,아띠 동물의료센터,37.5749802,127.0524579,서울특별시 동대문구 전농동 322-31번지 ,동물판매업
373,미니 & 바니 애견샵,37.5684054,127.0687784,서울특별시 동대문구 장안동 374-1번지 장안현대벤처빌 ,동물판매업
374,원두볶는 고양이,37.5625776,127.0645803,서울특별시 동대문구 장안동 432-11번지 ,동물판매업
375,엘 동물병원,37.5775016,127.0397847,서울특별시 동대문구 용두동 38-20번지 ,동물판매업
376,엘 동물병원,37.5775016,127.0397847,서울특별시 동대문구 용두동 38-20번지 ,동물판매업
377,마이티 그루밍(동대문점),37.5900176,127.0636187,서울특별시 동대문구 휘경동 **-***,동물판매업
378,마이티 그루밍(동대문점),37.5900176,127.0636187,서울특별시 동대문구 휘경동 **-***,동물판매업
379,찰스,37.5971286,127.0654525,서울특별시 동대문구 이문동 114-30번지 ,동물판매업
380,멍이요,37.6152957,127.0911221,서울특별시 중랑구 신내동 650 신내6단지신내아파트,동물판매업
381,그루밍 플래너,37.5717457,127.0562018,서울특별시 동대문구 답십리동 250-37번지 ,동물판매업
382,PET me up(최윤희),37.570627,127.0706515,서울특별시 동대문구 장안동 582번지 오크팰리스3차 ,동물판매업
383,도그 하우스,37.5910124,127.0393133,서울특별시 동대문구 제기동 1144-1번지 ,동물판매업
384,도그 하우스,37.5910124,127.0393133,서울특별시 동대문구 제기동 1144-1번지 ,동물판매업
385,시현펫살롱,37.598473,127.0675194,서울특별시 동대문구 이문동 108-20번지 ,동물판매업
386,시현펫살롱,37.598473,127.0675194,서울특별시 동대문구 이문동 108-20번지 ,동물판매업
387,시현펫살롱,37.598473,127.0675194,서울특별시 동대문구 이문동 108-20번지 ,동물판매업
388,동그라미,37.5783289,127.050724,서울특별시 동대문구 전농동 558-150번지 ,동물판매업
389,바르다펫,37.58078,127.0705739,서울특별시 동대문구 장안동 94-30번지 ,동물판매업
390,TEDDY DOG,37.5657396,127.0631315,서울특별시 동대문구 장안동 216-19번지 ,동물판매업
391,펫119,37.5714999,127.0562332,서울특별시 동대문구 답십리동 250-19번지 ,동물판매업
392,펫119,37.5714999,127.0562332,서울특별시 동대문구 답십리동 250-19번지 ,동물판매업
393,살롱드폼,37.5695476,127.0711425,서울특별시 동대문구 장안동 331-1번지 장안동 근린생활시설 ,동물판매업
394,주식회사 한국화물연합,37.5628889,127.0640637,서울특별시 동대문구 장안동 417-8번지 ,동물판매업
395,배불도기,37.5897505,127.0520748,서울특별시 동대문구 회기동 65번지 청량리신현대아파트 ,동물판매업
396,호두네,37.5783366,127.0590021,서울특별시 동대문구 전농동 46-17번지 ,동물판매업
397,드로잉독,37.5939763,127.0105212,서울특별시 성북구 삼선동*가 **,동물판매업
398,무브멍트,37.5696589,127.0576058,서울특별시 동대문구 답십리동 **** 답십리 뉴타운 카운티 에비뉴,동물판매업
399,견우,37.5715037,127.071588,서울특별시 동대문구 장안동 367-1번지 ,동물판매업
400,견우,37.5715037,127.071588,서울특별시 동대문구 장안동 367-1번지 ,동물판매업
401,꽃길만 걷개,37.5677262,127.073617,서울특별시 동대문구 장안동 355-1번지 ,동물판매업
402,꽃길만 걷개,37.5677262,127.073617,서울특별시 동대문구 장안동 355-1번지 ,동물판매업
403,펫샵몽,37.5819479,127.0740305,서울특별시 동대문구 휘경동 52번지 휘경베스트빌현대아파트 ,동물판매업
404,산책길(반려동물 미용실),37.5677811,127.0577754,서울특별시 동대문구 답십리동 21-70번지 ,동물판매업
405,제연동물병원,37.5750329,127.0496055,서울특별시 동대문구 전농동 652-1번지 ,동물판매업
406,제연동물병원,37.5750329,127.0496055,서울특별시 동대문구 전농동 652-1번지 ,동물판매업
407,어디개,37.5761548,127.0739949,서울특별시 동대문구 장안동 326-13번지 이제이빌딩 ,동물판매업
408,힐링캣,37.5836287,127.0377982,서울특별시 동대문구 제기동 822-11번지 ,동물판매업
409,굿피트,37.5726506,127.0602986,서울특별시 동대문구 답십리동 62-19번지 ,동물판매업
410,푸른종합동물병원,37.5845516,127.0440407,서울특별시 동대문구 청량리동 359번지 ,동물판매업
411,푸른종합동물병원,37.5845516,127.0440407,서울특별시 동대문구 청량리동 359번지 ,동물판매업
412,현대종합펫(현대동물병원),37.5724575,127.0730343,서울특별시 동대문구 장안동 330-2번지 ,동물판매업
413,현대종합펫(현대동물병원),37.5724575,127.0730343,서울특별시 동대문구 장안동 330-2번지 ,동물판매업
414,하이유 동물병원,37.5666132,127.05585,서울특별시 동대문구 답십리동 490-57번지 ,동물판매업
415,하이유 동물병원,37.5666132,127.05585,서울특별시 동대문구 답십리동 490-57번지 ,동물판매업
416,그린 동물병원,37.5771457,127.0358247,서울특별시 동대문구 용두동 790번지 롯데캐슬피렌체 ,동물판매업
417,그루밍살롱 마루네,37.5650702,127.0714743,서울특별시 동대문구 장안동 358-5번지 ,동물판매업
418,그루밍살롱 마루네,37.5650702,127.0714743,서울특별시 동대문구 장안동 358-5번지 ,동물판매업
419,스마트 동물병원,37.5754786,127.067642,서울특별시 동대문구 장안동 483번지 ,동물판매업
420,스마트 동물병원,37.5754786,127.067642,서울특별시 동대문구 장안동 483번지 ,동물판매업
421,앙쥬펫,37.57853,127.0699928,서울특별시 동대문구 장안동 102-1번지 ,동물판매업
422,장평펫샵(장평동물병원),37.5728637,127.071407,서울특별시 동대문구 장안동 307-3번지 ,동물판매업
423,뉴월드 동물병원,37.5708058,127.0474461,서울특별시 동대문구 답십리동 465-55번지 ,동물판매업
424,뉴월드 동물병원,37.5708058,127.0474461,서울특별시 동대문구 답십리동 465-55번지 ,동물판매업
425,디아크 동물병원,37.585921,127.043576,서울특별시 동대문구 청량리동 400번지 ,동물판매업
426,디아크 동물병원,37.585921,127.043576,서울특별시 동대문구 청량리동 400번지 ,동물판매업
427,바론 동물의료센터,37.5984591,127.0618591,서울특별시 동대문구 이문동 292-10번지 이문동 웰츠타워 ,동물판매업
428,바론 동물의료센터,37.5984591,127.0618591,서울특별시 동대문구 이문동 292-10번지 이문동 웰츠타워 ,동물판매업
429,더케이 동물병원,37.5725253,127.0556845,서울특별시 동대문구 답십리동 1003-2번지 세기프라자 ,동물판매업
430,더케이 동물병원,37.5725253,127.0556845,서울특별시 동대문구 답십리동 1003-2번지 세기프라자 ,동물판매업
431,VIP 동물의료센터,37.5719714,127.0735486,서울특별시 동대문구 장안동 335-3번지 ,동물판매업
432,디어마이펫,37.5789876,127.087866,서울특별시 중랑구 면목동 624-17번지 ,동물판매업
433,하니동물병원,37.616864,127.0915681,서울특별시 중랑구 신내동 648번지 디아뜨갤러리 142호,동물판매업
434,다줄,37.5261308,126.9675217,서울특별시 용산구 한강로3가 63-70 용산센트럴파크 해링턴스퀘어 2층 98호,동물판매업
435,쿨한 강아지,37.5962548,127.0993214,서울특별시 중랑구 망우동 464-28번지 ,동물판매업
436,혜원동물병원,37.5822302,127.0881876,서울특별시 중랑구 면목동 497-7번지 혜원동물병원 ,동물판매업
437,보담동물병원,37.6000608,127.1091502,서울특별시 중랑구 면목동 17-31번지 청파빌딩 ,동물판매업
438,신풍,37.5062485,126.9139521,서울특별시 영등포구 신길동 ****,동물판매업
439,우아하개,37.5884569,127.085461,서울특별시 중랑구 면목동 119-17번지 ,동물판매업
440,드림독,37.5940437,127.0834132,서울특별시 중랑구 상봉동 112-51번지 ,동물판매업
441,한강아쿠아 롯데마트 서초점,37.4903683,127.0059966,서울특별시 서초구 서초동 1498-5 마제스타시티 힐스테이트 서리풀,동물판매업
442,쥬라기동물병원,37.6118464,127.0949754,서울특별시 중랑구 신내동 646번지 금강리빙스텔 119호,동물판매업
443,코타강쥐,37.5911192,127.0861259,서울특별시 중랑구 면목동 129-69번지 ,동물판매업
444,원더펫,37.5871469,127.0813023,서울특별시 중랑구 면목동 147-45번지 ,동물판매업
445,(주)에이플러스 면목점,37.5808178,127.0798833,서울특별시 중랑구 면목동 168-2번지 ,동물판매업
446,(주)밀레펫,37.596438,127.0935903,서울특별시 중랑구 망우동 506-1번지 3층 ,동물판매업
447,안쌤러브애견,37.58728199999999,127.0766696,서울특별시 중랑구 면목동 177-38번지 ,동물판매업
448,큐티펫,37.5911973,127.076816,서울특별시 중랑구 면목동 182-130번지 ,동물판매업
449,순진한 강아지,37.5927106,127.0982045,서울특별시 중랑구 망우동 582번지 ,동물판매업
450,주연동물병원,37.5772578,127.0856896,서울특별시 중랑구 면목동 353-25번지 제일동물병원 ,동물판매업
451,엔젤퍼피,37.5974847,127.0788956,서울특별시 중랑구 중화동 296-78번지 생명강지역아동센터 ,동물판매업
452,쥬라기동물병원,37.6118464,127.0949754,서울특별시 중랑구 신내동 646번지 금강리빙스텔 119호,동물판매업
453,홍상희동물병원,37.61064229999999,127.0774308,서울특별시 중랑구 묵동 239-76번지 영은빌딩 ,동물판매업
454,엔젤동물병원,37.5870343,127.0878471,서울특별시 중랑구 면목동 102-51번지 엔젤동물병원 ,동물판매업
455,우아하개,37.5884569,127.085461,서울특별시 중랑구 면목동 119-17번지 플러스빌 ,동물판매업
456,우아하개,37.5884569,127.085461,서울특별시 중랑구 면목동 119-17번지 플러스빌 ,동물판매업
457,개날라리,37.5898542,127.0869476,서울특별시 중랑구 면목동 126-3번지 ,동물판매업
458,개날라리,37.5898542,127.0869476,서울특별시 중랑구 면목동 126-3번지 ,동물판매업
459,주식회사 알에이엠씨로얄지점,37.5953109,127.0797088,서울특별시 중랑구 중화동 207번지 로얄스포츠센터 ,동물판매업
460,주식회사 알에이엠씨로얄지점,37.5953109,127.0797088,서울특별시 중랑구 중화동 207번지 로얄스포츠센터 ,동물판매업
461,쁘띠멍,37.5785197,127.0908787,서울특별시 중랑구 면목동 1097-15번지 ,동물판매업
462,쁘띠멍,37.5785197,127.0908787,서울특별시 중랑구 면목동 1097-15번지 ,동물판매업
463,성지동물병원,37.5799518,127.0879584,서울특별시 중랑구 면목동 634-5번지 삼원빌딩 ,동물판매업
464,사랑해줄개,37.6037991,127.0957762,서울특별시 중랑구 신내동 546-25번지 ,동물판매업
465,멍멍이천국,37.600926,127.1061019,서울특별시 중랑구 망우동 134-17번지 ,동물판매업
466,사랑해줄개,37.6037991,127.0957762,서울특별시 중랑구 신내동 546-25번지 ,동물판매업
467,수애견,37.6161971,127.0754586,서울특별시 중랑구 묵동 233-100번지 해명빌딩 ,동물판매업
468,수애견,37.6161971,127.0754586,서울특별시 중랑구 묵동 233-100번지 해명빌딩 ,동물판매업
469,순진한 강아지,37.5927106,127.0982045,서울특별시 중랑구 망우동 582번지 주함해븐아파트 ,동물판매업
470,순진한 강아지,37.5927106,127.0982045,서울특별시 중랑구 망우동 582번지 주함해븐아파트 ,동물판매업
471,진실이네 애견샵,37.5785063,127.0848275,서울특별시 중랑구 면목동 661-14번지 ,동물판매업
472,금란동물애견,37.59842200000001,127.1005678,서울특별시 중랑구 망우동 364-27번지 금란동물병원 ,동물판매업
473,금란동물애견,37.59842200000001,127.1005678,서울특별시 중랑구 망우동 364-27번지 금란동물병원 ,동물판매업
474,큐티펫,37.5911973,127.076816,서울특별시 중랑구 면목동 182-130번지 ,동물판매업
475,큐티펫,37.5911973,127.076816,서울특별시 중랑구 면목동 182-130번지 ,동물판매업
476,강사모펫,37.5949992,127.0794098,서울특별시 중랑구 중화동 207-6번지 영애빌딩 ,동물판매업
477,디자인펫샵,37.5806066,127.0897143,서울특별시 중랑구 면목동 472-55번지 ,동물판매업
478,디자인펫샵,37.5806066,127.0897143,서울특별시 중랑구 면목동 472-55번지 ,동물판매업
479,닥터아이펫 동물병원,37.5972274,127.0875279,서울특별시 중랑구 상봉동 99-10번지 ,동물판매업
480,닥터아이펫 동물병원,37.5972274,127.0875279,서울특별시 중랑구 상봉동 99-10번지 ,동물판매업
481,면목독,37.5767739,127.0853333,서울특별시 중랑구 면목동 353-29번지 ,동물판매업
482,도그앤스토리,37.6064225,127.078833,서울특별시 중랑구 묵동 182-21번지 ,동물판매업
483,코타강쥐,37.5911192,127.0861259,서울특별시 중랑구 면목동 129-69번지 ,동물판매업
484,말랑말랑,37.6040303,127.0774536,서울특별시 중랑구 중화동 307-62번지 승진학원 ,동물판매업
485,말랑말랑,37.6040303,127.0774536,서울특별시 중랑구 중화동 307-62번지 승진학원 ,동물판매업
486,ABMALL,37.6169193,127.0777917,서울특별시 중랑구 묵동 167번지 묵동신도아파트 ,동물판매업
487,태능동물병원 펫샵,37.6125542,127.0775737,서울특별시 중랑구 묵동 175-2번지 ,동물판매업
488,바르다펫 중화점,37.6015086,127.080348,서울특별시 중랑구 중화동 287-14번지 용우빌딩 ,동물판매업
489,우리펫 강아지분양 성동구점,37.5649439,127.0513852,서울특별시 성동구 용답동 83-8,동물판매업
490,커멍커멍,37.5599712,126.8383206,서울특별시 강서구 마곡동 794-1 우성에스비타워,동물판매업
491,쿨한 강아지,37.5962548,127.0993214,서울특별시 중랑구 망우동 464-28번지 ,동물판매업
492,개발소,37.582864,127.0863683,서울특별시 중랑구 면목동 573-28번지 ,동물판매업
493,개발소,37.582864,127.0863683,서울특별시 중랑구 면목동 573-28번지 ,동물판매업
494,개발소,37.582864,127.0863683,서울특별시 중랑구 면목동 573-28번지 ,동물판매업
495,밀레쥬,37.598081,127.0905951,서울특별시 중랑구 상봉동 500번지 상봉 프레미어스 엠코 ,동물판매업
496,도그냥,37.60002619999999,127.1068617,서울특별시 중랑구 망우동 ***-**,동물판매업
497,59펫살롱,37.5901102,127.0962079,서울특별시 중랑구 면목동 23-1번지 ,동물판매업
498,지앤에프,37.5816737,127.0931466,서울특별시 중랑구 면목동 468-45번지 ,동물판매업
499,지앤에프,37.5816737,127.0931466,서울특별시 중랑구 면목동 468-45번지 ,동물판매업
500,아이봄동물병원,37.6050099,127.095637,서울특별시 중랑구 신내동 563-2번지 ,동물판매업
501,아이봄동물병원,37.6050099,127.095637,서울특별시 중랑구 신내동 563-2번지 ,동물판매업
502,꼬마애견,37.6013724,127.0773551,서울특별시 중랑구 중화동 312-121번지 ,동물판매업
503,진실이네 애견샵,37.5785063,127.0848275,서울특별시 중랑구 면목동 661-14번지 ,동물판매업
504,하이 그루밍,37.6118028,127.0796648,서울특별시 중랑구 묵동 121-76번지 ,동물판매업
505,러블리펫,37.608603,127.0795151,서울특별시 중랑구 묵동 122-188번지 ,동물판매업
506,우쭈쭈,37.5757009,127.034989,서울특별시 동대문구 용두동 ***-**,동물판매업
507,카페개인,37.5811454,127.0883961,서울특별시 중랑구 면목동 ***-***,동물판매업
508,러블리펫,37.608603,127.0795151,서울특별시 중랑구 묵동 122-188번지 ,동물판매업
509,춘살롱,37.5888356,127.0789988,서울특별시 중랑구 면목동 552-12번지 안성슈퍼 ,동물판매업
510,숲속동물병원,37.5892125,127.0905471,서울특별시 중랑구 면목동 103-4번지 ,동물판매업
511,숲속동물병원,37.5892125,127.0905471,서울특별시 중랑구 면목동 103-4번지 ,동물판매업
512,진실이네 애견샵,37.5785063,127.0848275,서울특별시 중랑구 면목동 661-14번지 ,동물판매업
513,해피독,37.6007078,127.1077511,서울특별시 중랑구 망우동 135-5번지 ,동물판매업
514,취미타운,37.5819441,127.0845171,서울특별시 중랑구 면목동 89-1번지 ,동물판매업
515,펫조아 강아지 조아,37.5813075,127.0866659,서울특별시 중랑구 면목동 604-26번지 ,동물판매업
516,펫시랑 상봉점,37.5990737,127.0893441,서울특별시 중랑구 상봉동 500번지 B2층 홈플러스 ,동물판매업
517,닥터아이펫 동물병원,37.5972274,127.0875279,서울특별시 중랑구 상봉동 99-10번지 ,동물판매업
518,숲속동물병원,37.5892125,127.0905471,서울특별시 중랑구 면목동 103-4번지 ,동물판매업
519,진정훈동물병원,37.6003103,127.0793753,서울특별시 중랑구 중화동 303-16번지 진정훈동물병원 ,동물판매업
520,신내동물병원,37.6026635,127.0856846,서울특별시 중랑구 중화동 11-36번지 삼일시티빌 ,동물판매업
521,진서동물병원,37.6046561,127.0959119,서울특별시 중랑구 신내동 571-8번지 ,동물판매업
522,진서동물병원,37.6046561,127.0959119,서울특별시 중랑구 신내동 571-8번지 ,동물판매업
523,아지사랑,37.5855252,127.0943736,서울특별시 중랑구 면목동 67-3번지 ,동물판매업
524,강아지미용실502,37.59411619999999,127.1010389,서울특별시 중랑구 망우동 408-1번지 2호 ,동물판매업
525,면목동물병원,37.58115770000001,127.0848958,서울특별시 중랑구 면목동 606-6번지 ,동물판매업
526,니니 애견 미용실,37.61503099999999,127.0787109,서울특별시 중랑구 묵동 294-49번지 ,동물판매업
527,보람동물병원,37.5769195,127.0857526,서울특별시 중랑구 면목동 353-4번지 ,동물판매업
528,도그플러스동물병원,37.6157809,127.0937068,서울특별시 중랑구 신내동 645번지 홈플러스서울신내점 ,동물판매업
529,몽몽이#,37.5901798,127.0772577,서울특별시 중랑구 면목동 181-5번지 ,동물판매업
530,몽몽이#,37.5901798,127.0772577,서울특별시 중랑구 면목동 181-5번지 ,동물판매업
531,몽몽이#,37.5901798,127.0772577,서울특별시 중랑구 면목동 181-5번지 ,동물판매업
532,도도애견샵,37.6056907,127.0279236,서울특별시 성북구 하월곡동 88-402번지 ,동물판매업
533,토미펫샵,37.5874359,127.0104807,서울특별시 성북구 삼선동2가 131번지 ,동물판매업
534,토미펫샵,37.5874359,127.0104807,서울특별시 성북구 삼선동2가 131번지 ,동물판매업
535,미소동물병원,37.5983598,127.0343878,서울특별시 성북구 종암동 68-1번지 ,동물판매업
536,페리독,37.5951127,127.015768,서울특별시 성북구 동소문동6가 233번지 ,동물판매업
537,페리독,37.5951127,127.015768,서울특별시 성북구 동소문동6가 233번지 ,동물판매업
538,테이블에이,37.5540054,126.9294881,서울특별시 마포구 창전동 6 그레이스빌딩,동물판매업
539,(주)그린프레밀리,37.6108081,127.0296855,서울특별시 성북구 길음동 25-2번지 이마트미아점 ,동물판매업
540,이마트 하월곡점,37.6041779,127.0409997,서울특별시 성북구 하월곡동 230번지 ,동물판매업
541,70dog,37.61348479999999,127.0101639,서울특별시 성북구 정릉동 258-13번지 ,동물판매업
542,퍼피돌,37.621435,127.0485574,서울특별시 성북구 장위동 305-7번지 ,동물판매업
543,요미독 성북구지점,37.6048476,127.0449555,서울특별시 성북구 하월곡동 10-48번지 2층 ,동물판매업
544,넬동물의료센터,37.6087789,127.0357595,서울특별시 성북구 하월곡동 76-16번지 ,동물판매업
545,넬동물의료센터,37.6087789,127.0357595,서울특별시 성북구 하월곡동 76-16번지 ,동물판매업
546,스마트동물병원 성북길음점,37.6095887,127.0186795,서울특별시 성북구 길음동 1285번지 길음7구역 두산위브아파트 103호 ,동물판매업
547,스마트동물병원 성북길음점,37.6095887,127.0186795,서울특별시 성북구 길음동 1285번지 길음7구역 두산위브아파트 103호 ,동물판매업
548,강북 24시 N 동물의료센터,37.6057605,127.0243654,서울특별시 성북구 길음동 1163번지 ,동물판매업
549,꿈의숲동물병원,37.62027399999999,127.0466407,서울특별시 성북구 장위동 319번지 꿈의숲코오롱하늘채아파트 105동 112호,동물판매업
550,강북동물병원,37.5961696,127.0351896,서울특별시 성북구 종암동 19-1번지 ,동물판매업
551,행복한동물병원,37.6111416,127.0564086,서울특별시 성북구 장위동 64-123번지 ,동물판매업
552,비비펫동물병원,37.6029482,127.0421011,서울특별시 성북구 하월곡동 16-7번지 국민은행 월곡동지점 ,동물판매업
553,드림동물병원,37.5917976,127.0136863,서울특별시 성북구 동소문동5가 8-1번지 ,동물판매업
554,수호펫,37.4854586,126.8223481,서울특별시 성동구 성수동2가 416-4 서진그린빌라 101호,동물판매업
555,호담동물병원,37.6067525,127.0285191,서울특별시 성북구 하월곡동 88-677번지 ,동물판매업
556,호담동물병원,37.6067525,127.0285191,서울특별시 성북구 하월곡동 88-677번지 ,동물판매업
557,쓰담쓰담동물병원,37.6001144,127.033654,서울특별시 성북구 종암동 86-1번지 ,동물판매업
558,우리동물병원,37.6107834,127.0225838,서울특별시 성북구 길음동 1125-9번지 ,동물판매업
559,태양동물병원,37.6069885,127.0606765,서울특별시 성북구 석관동 332-23번지 ,동물판매업
560,해피독,37.6041438,127.0148993,서울특별시 성북구 정릉동 175-35번지 정릉 빌딩 1층 ,동물판매업
561,앙리동물병원,37.59339600000001,127.0016826,서울특별시 성북구 성북동 155-15번지 1층 ,동물판매업
562,앙리동물병원,37.59339600000001,127.0016826,서울특별시 성북구 성북동 155-15번지 1층 ,동물판매업
563,등산집,37.5963836,127.0186333,서울특별시 성북구 동선동5가 89번지 ,동물판매업
564,24시 애니동물병원,37.5839501,127.0198261,서울특별시 성북구 보문동5가 3-1번지 영광빌딩 ,동물판매업
565,아름애견,37.6075637,127.028444,서울특별시 성북구 길음동 517-11번지 ,동물판매업
566,앙팡애견백화점,37.6137179,127.0483624,서울특별시 성북구 장위동 238-201번지 ,동물판매업
567,앙팡애견백화점,37.6137179,127.0483624,서울특별시 성북구 장위동 238-201번지 ,동물판매업
568,러블리펫,37.606235,127.0322033,서울특별시 성북구 하월곡동 90-69번지 ,동물판매업
569,트리몽(trimmong),37.5830752,127.0192665,서울특별시 성북구 보문동5가 54번지 1층 ,동물판매업
570,러블리펫,37.606235,127.0322033,서울특별시 성북구 하월곡동 90-69번지 ,동물판매업
571,페리독,37.5951127,127.015768,서울특별시 성북구 동소문동6가 233번지 ,동물판매업
572,행복하개,37.6137323,127.046243,서울특별시 성북구 장위동 233-249번지 ,동물판매업
573,그루밍,37.5792622,127.0554405,서울특별시 동대문구 전농동 ***-**,동물판매업
574,행복하개,37.6137323,127.046243,서울특별시 성북구 장위동 233-249번지 ,동물판매업
575,마로동물병원,37.6064198,127.0300189,서울특별시 성북구 하월곡동 88-64번지 성북힐스테이트 101동 112호 ,동물판매업
576,길음동물병원,37.602671,127.0236243,서울특별시 성북구 길음동 1276번지 삼부아파트 102동 106호 ,동물판매업
577,중앙동물병원,37.6087907,127.0593265,서울특별시 성북구 석관동 268-4번지 ,동물판매업
578,도담도담PET,37.6018094,127.0403791,서울특별시 성북구 하월곡동 46-73번지 코업스타클래스 114호 ,동물판매업
579,한사랑동물병원,37.5903101,127.0038552,서울특별시 성북구 성북동1가 115-23번지 동방빌딩 ,동물판매업
580,한사랑펫,37.5903236,127.0038286,서울특별시 성북구 성북동1가 115-23번지 1층 ,동물판매업
581,한사랑펫,37.5903236,127.0038286,서울특별시 성북구 성북동1가 115-23번지 1층 ,동물판매업
582,ZOO동물병원,37.6019947,127.0195403,서울특별시 성북구 정릉동 16-162,동물판매업
583,마이댕댕스쿨,37.5453349,126.8470588,서울특별시 강서구 화곡동 **-*** 호왕빌딩,동물판매업
584,포유동물병원,37.6041902,127.0376727,서울특별시 성북구 하월곡동 62-4번지 ,동물판매업
585,이쁘니 이발소,37.5962319,127.0137713,서울특별시 성북구 동소문동7가 120번지 브라운스톤 동선아파트 ,동물판매업
586,이쁘니 이발소,37.5962319,127.0137713,서울특별시 성북구 동소문동7가 120번지 브라운스톤 동선아파트 ,동물판매업
587,요술강아지,37.6109114,127.0090914,서울특별시 성북구 정릉동 285-10,동물판매업
588,개끌림,37.58571209999999,127.0107956,서울특별시 성북구 삼선동2가 211-5번지 ,동물판매업
589,반려동물 이동서비스,37.4985243,127.0167294,서울특별시 서초구 서초동 1685 삼풍아파트,동물판매업
590,카카오N동물병원,37.6075197,127.018009,서울특별시 성북구 길음동 1284번지 길음뉴타운 ,동물판매업
591,카카오N동물병원,37.6075197,127.018009,서울특별시 성북구 길음동 1284번지 길음뉴타운 ,동물판매업
592,안전한 펫택시,37.6018094,127.0403791,서울특별시 성북구 하월곡동 46-73번지 코업스타클래스 ,동물판매업
593,김지용펫택시,37.5962328,127.0113052,서울특별시 성북구 돈암동 609-1번지 한신한진아파트 ,동물판매업
594,강아지를 부탁해,37.58138539999999,127.0202035,서울특별시 성북구 보문동5가 224번지 ,동물판매업
595,서울종합동물병원,37.5870703,127.0181668,서울특별시 성북구 보문동2가 49번지 성균빌딩 ,동물판매업
596,몽켓,37.5988545,127.0199677,서울특별시 성북구 돈암동 45-48번지 ,동물판매업
597,아름애견,37.6075637,127.028444,서울특별시 성북구 길음동 517-11번지 ,동물판매업
598,장은정펫택시,37.5929352,127.0112662,서울특별시 성북구 동소문동4가 192번지 한들주택 ,동물판매업
599,마이도그(My Dog),37.6061261,127.061453,서울특별시 성북구 석관동 332-242번지 명소아과의원 ,동물판매업
600,마이도그(My Dog),37.6061261,127.061453,서울특별시 성북구 석관동 332-242번지 명소아과의원 ,동물판매업
601,빨리펫,37.5091042,127.0820549,서울특별시 송파구 잠실동 202-1 트윈빌라 304호,동물판매업
602,더편한동물병원,37.6103982,127.0275509,서울특별시 성북구 길음동 498-1번지 래미안길음센터피스 ,동물판매업
603,더편한동물병원,37.6103982,127.0275509,서울특별시 성북구 길음동 498-1번지 래미안길음센터피스 ,동물판매업
604,성신동물병원,37.5944776,127.0163233,서울특별시 성북구 동선동5가 1번지 ,동물판매업
605,행복하개키울고양,37.5873143,127.0218412,서울특별시 성북구 안암동2가 81,동물판매업
606,행복하개키울고양,37.5866998,127.0290956,서울특별시 성북구 안암동*가 **,동물판매업
607,큐 그루밍 샵(Q grooming shop),37.6139477,127.0456864,서울특별시 성북구 장위동 225-61번지 ,동물판매업
608,바르다펫 꿈의숲점,37.6156087,127.0507954,서울특별시 성북구 장위동 319번지 꿈의숲코오롱하늘채아파트 상가 104동 109호,동물판매업
609,지지독,37.5880498,127.0077256,서울특별시 성북구 동소문동2가 129번지 ,동물판매업
610,몽몽이발소,37.6169991,127.003671,서울특별시 성북구 정릉동 778-15번지 ,동물판매업
611,캣츠아일랜드,37.61053070000001,127.047767,서울특별시 성북구 돈암동 46-3번지 성운빌딩 ,동물판매업
612,VOVOPET,37.6087928,127.0226608,서울특별시 성북구 길음동 1171,동물판매업
613,야옹아 멍멍해봐,37.589656,127.015113,서울특별시 성북구 삼선동5가 299번지 ,동물판매업
614,야옹아 멍멍해봐,37.589656,127.015113,서울특별시 성북구 삼선동5가 299번지 ,동물판매업
615,애니몰파크,37.6381073,127.0331043,서울특별시 강북구 번동 458-46번지 금촌슈퍼 ,동물판매업
616,늘사랑동물병원,37.5544909,127.1433265,서울특별시 강동구 명일동 305-3번지,동물판매업
617,VOVOPET,37.6087928,127.0226608,서울특별시 성북구 길음동 1171,동물판매업
618,베이비펫,37.5082586,126.9111263,서울특별시 영등포구 신길동 223-7,동물판매업
619,노아동물병원,37.5184063,126.8706612,서울특별시 양천구 신정동 294-62,동물판매업
620,멍미용,37.6137463,127.0628308,서울특별시 성북구 석관동 168-32,동물판매업
621,삼호동물판매소,37.6315328,127.0235153,서울특별시 강북구 수유동 51-21번지 ,동물판매업
622,펫을 부탁해,37.622975,127.0305318,서울특별시 강북구 미아동 129-27번지 ,동물판매업
623,퍼피하우스,37.6421317,127.0221143,서울특별시 강북구 수유동 39-3번지 ,동물판매업
624,핫!Dog,37.6456606,127.0147274,서울특별시 강북구 수유동 405-10번지 제이스타빌 ,동물판매업
625,반려동물 이동서비스,37.6320915,127.0199313,서울특별시 강북구 수유동 56-29번지 ,동물판매업
626,쿠키동물병원,37.6173606,127.0203693,서울특별시 강북구 미아동 812번지 삼성래미안트리베라아파트 ,동물판매업
627,뽀리&쵸쵸,37.4923207,126.9252545,서울특별시 동작구 신대방동 706 보라매우성아파트,동물판매업
628,주토피아(zutopia),37.6456648,127.0241295,서울특별시 강북구 수유동 678-11번지 윤성약국 ,동물판매업
629,솔샘펫,37.61982320000001,127.0177781,서울특별시 강북구 미아동 1341-4번지 ,동물판매업
630,스트로젤리컴퍼니,37.6378881,127.0294347,서울특별시 강북구 번동 417-6번지 번동포르텔 ,동물판매업
631,멍스,37.6219588,127.02715,서울특별시 강북구 미아동 317-9번지 ,동물판매업
632,아이러브 캣,37.6438549,127.0225903,서울특별시 강북구 수유동 252-146번지 진흥빌딩 ,동물판매업
633,아이사랑 동물병원,37.6173072,127.0219638,서울특별시 강북구 미아동 561-2번지 현대성우아파트 ,동물판매업
634,아이사랑 동물병원,37.6173072,127.0219638,서울특별시 강북구 미아동 561-2번지 현대성우아파트 ,동물판매업
635,VELY DOG,37.6413321,127.0296568,서울특별시 강북구 번동 464-1번지 테마빌딩 ,동물판매업
636,핑크멍,37.6173087,127.012633,서울특별시 강북구 미아동 1353번지 에스케이북한산시티아파트 ,동물판매업
637,피치 앤 마리,37.6448322,127.0143752,서울특별시 강북구 수유동 276-17번지 장미빌라 101호,동물판매업
638,coco puppy,37.617544,127.0356305,서울특별시 강북구 미아동 4번지 꿈의숲 롯데캐슬 101동 4호,동물판매업
639,coco puppy,37.617544,127.0356305,서울특별시 강북구 미아동 4번지 꿈의숲 롯데캐슬 101동 4호,동물판매업
640,펫미업,37.6375156,127.0226394,서울특별시 강북구 수유동 486-714번지 대영빌라 나동 202호,동물판매업
641,댕댕카,37.6193578,127.0242342,서울특별시 강북구 미아동 351번지 은진하이빌 101호,동물판매업
642,멍멍이발소,37.6303552,127.0179817,서울특별시 강북구 수유동 57-77번지 ,동물판매업
643,멍멍이발소,37.6303552,127.0179817,서울특별시 강북구 수유동 57-77번지 ,동물판매업
644,멍멍슈퍼,37.6377335,127.0224042,서울특별시 강북구 수유동 2-28번지 ,동물판매업
645,리독,37.6338106,127.015481,서울특별시 강북구 수유동 461-21번지 ,동물판매업
646,리독,37.6338106,127.015481,서울특별시 강북구 수유동 461-21번지 ,동물판매업
647,이브캣,37.611081,127.0315753,서울특별시 강북구 미아동 42-64번지 ,동물판매업
648,솔샘펫,37.61982320000001,127.0177781,서울특별시 강북구 미아동 1341-4번지 ,동물판매업
649,뽀리&쵸쵸,37.4923207,126.9252545,서울특별시 동작구 신대방동 706 보라매우성아파트,동물판매업
650,왕십리 고양이 위너펫 24시,37.5628832,127.0419022,서울특별시 성동구 마장동 388-7,동물판매업
651,러브펫 멀티펫샵 수유역점,37.63827920000001,127.029022,서울특별시 강북구 번동 417-40번지 ,동물판매업
652,버블펫,37.6346285,127.0239971,서울특별시 강북구 미아동 258-187번지 1층 ,동물판매업
653,버블펫,37.6346285,127.0239971,서울특별시 강북구 미아동 258-187번지 1층 ,동물판매업
654,준 pet,37.64423,127.0161288,서울특별시 강북구 수유동 331-5번지 ,동물판매업
655,나라 앤 송이 애견샵,37.6430126,127.027306,서울특별시 강북구 수유동 169-48번지 ,동물판매업
656,강아지세상,37.6483234,127.0151535,서울특별시 강북구 수유동 279-105번지 ,동물판매업
657,하늘애견,37.6460172,127.0235524,서울특별시 강북구 수유동 725-8번지 ,동물판매업
658,퍼피하우스,37.6305,127.0234911,서울특별시 강북구 미아동 217-1번지 ,동물판매업
659,강미경의애견미용실,37.6338509,127.0162147,서울특별시 강북구 수유동 472-54번지 ,동물판매업
660,멍가네,37.6211353,127.026609,서울특별시 강북구 미아동 321-31번지 리치하우스 ,동물판매업
661,기다려빵아,37.6188807,127.0223351,서울특별시 강북구 미아동 860-108번지 ,동물판매업
662,팁하우스,37.6118129,127.033472,서울특별시 강북구 미아동 705-1번지 ,동물판매업
663,H 동물병원,37.6142123,127.0340232,서울특별시 강북구 미아동 811-9번지 위브 테라스 파크 ,동물판매업
664,H 동물병원,37.6142123,127.0340232,서울특별시 강북구 미아동 811-9번지 위브 테라스 파크 ,동물판매업
665,위드벳홀딩스 주식회사,37.6347643,127.0225859,서울특별시 강북구 수유동 47-69번지 ,동물판매업
666,위드벳홀딩스 주식회사,37.6347643,127.0225859,서울특별시 강북구 수유동 47-69번지 ,동물판매업
667,목동동물병원,37.5365367,126.8798966,서울특별시 양천구 목동 907-10 현대파리지앙,동물판매업
668,위즈동물병원,37.6266854,127.0262534,서울특별시 강북구 미아동 197-9번지 ,동물판매업
669,24시 수유 바른펫 동물의료센터,37.6414183,127.0222438,서울특별시 강북구 수유동 39-10번지 리안스페이스 ,동물판매업
670,24시 수유 바른펫 동물의료센터,37.6414183,127.0222438,서울특별시 강북구 수유동 39-10번지 리안스페이스 ,동물판매업
671,동물을 사랑하는 사람들,37.6408619,127.0326834,서울특별시 강북구 번동 471-1번지 ,동물판매업
672,나라 앤 송이 애견샵,37.6430126,127.027306,서울특별시 강북구 수유동 169-48,동물판매업
673,미용하숑,37.5240157,126.8555473,서울특별시 양천구 신정동 948-30,동물판매업
674,사랑의 동물병원,37.6173087,127.012633,서울특별시 강북구 미아동 1353-5번지 에스케이북한산시티 ,동물판매업
675,필동물종합병원,37.531329,126.8640931,서울특별시 양천구 목동 805-1,동물판매업
676,펫맘애,37.6350549,127.0175193,서울특별시 강북구 수유동 400-30번지 새마을금고 ,동물판매업
677,펫맘애,37.6350549,127.0175193,서울특별시 강북구 수유동 400-30번지 새마을금고 ,동물판매업
678,핫!Dog,37.6387457,127.0202733,서울특별시 강북구 수유동 23-21번지 ,동물판매업
679,소울캣,37.6218525,127.0302246,서울특별시 강북구 미아동 133-16번지 ,동물판매업
680,하비동물병원,37.65199310000001,127.0465063,서울특별시 도봉구 창동 75-4번지 ,동물판매업
681,삼성동물종합병원,37.6501504,127.0352962,서울특별시 도봉구 쌍문동 88-115번지 ,동물판매업
682,강아지세상,37.643632,127.0307472,서울특별시 도봉구 쌍문동 256번지 에벤에셀아파트 214호,동물판매업
683,(주)비에이치벳홀딩스,37.669057,127.0431913,서울특별시 도봉구 방학동 653-17번지 101호,동물판매업
684,삼성동물종합병원,37.6501504,127.0352962,서울특별시 도봉구 쌍문동 88-115번지 ,동물판매업
685,도담동물병원,37.6826262,127.0455067,서울특별시 도봉구 도봉동 562-26번지 ,동물판매업
686,펫아찌펫아씨,37.6451323,127.0391209,서울특별시 도봉구 창동 608-99번지 102호,동물판매업
687,도그에이드애견샵,37.6488702,127.0485232,서울특별시 도봉구 창동 45번지 삼성아파트 상가1동 117호,동물판매업
688,TAXI BENEPET(택시벤이펫),37.6449984,127.0340452,서울특별시 도봉구 창동 624-1번지 북한산현대홈시티 102동 909호,동물판매업
689,현대종합동물병원,37.6641938,127.0422642,서울특별시 도봉구 방학동 680-1번지 ,동물판매업
690,핑크퍼피(PINKPUPPY),37.6709097,127.0407746,서울특별시 도봉구 도봉동 609-32번지 ,동물판매업
691,핑크퍼피(PINKPUPPY),37.6709097,127.0407746,서울특별시 도봉구 도봉동 609-32번지 ,동물판매업
692,댕댕이타요,37.490182,127.127859,서울특별시 송파구 문정동 * 현대아파트,동물판매업
693,강아지풀,37.6385567,127.0402412,서울특별시 도봉구 창동 562-3번지 ,동물판매업
694,도그멍멍,37.60002619999999,127.1068617,서울특별시 중랑구 망우동 ***-***,동물판매업
695,(주)코스모이펙트,37.6523864,127.0500144,서울특별시 도봉구 창동 9번지 비2층 9-104호 ,동물판매업
696,푼푼호텔,37.6615544,127.0389036,서울특별시 도봉구 쌍문동 710-13번지 ,동물판매업
697,에스에이엠,37.6636132,127.0345961,서울특별시 도봉구 방학동 664-12번지 ,동물판매업
698,(주)마이리틀프렌드 도봉지점,37.66780139999999,127.0452101,서울특별시 도봉구 방학동 717-6번지 빅마켓 도봉점 별관 2층 ,동물판매업
699,도그송,37.6459611,127.0395567,서울특별시 도봉구 창동 674-66번지 돋을볕 101호,동물판매업
700,도그송,37.65185,127.0503526,서울특별시 도봉구 창동 674-66번지 돋을볕 1동 101호,동물판매업
701,푼푼호텔,37.6615544,127.0389036,서울특별시 도봉구 쌍문동 710-13번지 1층 ,동물판매업
702,그루머웅,37.6801136,127.0469968,서울특별시 도봉구 도봉동 89-173번지 ,동물판매업
703,포지티브(Pawsitive),37.532796,126.9907873,서울특별시 용산구 이태원동 44-50 지상1층,동물판매업
704,그루머웅,37.6801136,127.0469968,서울특별시 도봉구 도봉동 89-173번지 ,동물판매업
705,MOMO,37.6342596,127.0423427,서울특별시 도봉구 창동 487-17번지 302호,동물판매업
706,행복한 애견샵,37.6466967,127.0357239,서울특별시 도봉구 창동 651-77번지 ,동물판매업
707,행복하개,37.6632363,127.0374255,서울특별시 도봉구 방학동 690-89번지 ,동물판매업
708,댕댕이살롱,37.6373221,127.0388941,서울특별시 도봉구 창동 542-4번지 ,동물판매업
709,사랑해줄개,37.6773914,127.0446283,서울특별시 도봉구 도봉동 600-1번지 ,동물판매업
710,사랑해줄개,37.6773914,127.0446283,서울특별시 도봉구 도봉동 600-1번지 ,동물판매업
711,사랑해줄개,37.6773914,127.0446283,서울특별시 도봉구 도봉동 600-1번지 ,동물판매업
712,두부네,37.6666244,127.0383407,서울특별시 도봉구 방학동 659-35번지 북한산팰리스 ,동물판매업
713,고놈들,37.6435791,127.0305575,서울특별시 도봉구 쌍문동 103-81번지 ,동물판매업
714,고놈들,37.6435791,127.0305575,서울특별시 도봉구 쌍문동 103-81번지 ,동물판매업
715,세븐에이치샵(7H#),37.5559772,126.9012821,서울특별시 마포구 망원동 ***-**,동물판매업
716,고놈들,37.6435791,127.0305575,서울특별시 도봉구 쌍문동 103-81번지 ,동물판매업
717,양천종합동물병원,37.5222264,126.8426171,서울특별시 양천구 신월동 444-11,동물판매업
718,나의첫강아지,37.6515851,127.032355,서울특별시 도봉구 쌍문동 137-78번지 ,동물판매업
719,강아지세상,37.643632,127.0307472,서울특별시 도봉구 쌍문동 256번지 에벤에셀아파트 101동 214호,동물판매업
720,해봄동물병원,37.6826104,127.0475778,서울특별시 도봉구 도봉동 62-43번지 도봉투웨니퍼스트2단지 201동 102호,동물판매업
721,몽블리펫,37.6351092,127.0421176,서울특별시 도봉구 창동 481-2번지 ,동물판매업
722,몽블리펫,37.6351092,127.0421176,서울특별시 도봉구 창동 481-2번지 ,동물판매업
723,사랑해요동물병원,37.6561457,127.0277048,서울특별시 도봉구 쌍문동 262-10번지 104호,동물판매업
724,온블리살롱,37.667241,127.0394335,서울특별시 도봉구 방학동 674-1번지 ,동물판매업
725,두부네,37.6434557,127.0397644,서울특별시 도봉구 방학동 659-35번지 북한산팰리스 102동 103호,동물판매업
726,행복한강아지,37.6559409,127.0309567,서울특별시 도봉구 쌍문동 167-6번지 ,동물판매업
727,애견놀이터,37.6492143,127.0266438,서울특별시 도봉구 쌍문동 345번지 ,동물판매업
728,애견놀이터,37.6492143,127.0266438,서울특별시 도봉구 쌍문동 345번지 ,동물판매업
729,행복한동물병원,37.6593503,127.0417621,서울특별시 도봉구 창동 749-16번지 한독패밀리타운 108호,동물판매업
730,솔직하개 정직하개,37.6672384,127.0421526,서울특별시 도봉구 방학동 656-9번지 대원제니스빌 1층 B동 ,동물판매업
731,(주) 에이플러스 방학점,37.6648183,127.0435994,서울특별시 도봉구 방학동 707-7번지 ,동물판매업
732,캣앤독,37.6710777,127.0450425,서울특별시 도봉구 도봉동 622-34번지 1층 ,동물판매업
733,뽀도독펫샵,37.6748161,127.0476189,서울특별시 도봉구 도봉동 632-6번지 1층 우측상가 ,동물판매업
734,강아지풀,37.6385567,127.0402412,서울특별시 도봉구 창동 562-3번지 1층 ,동물판매업
735,신창동물병원,37.6382175,127.0379818,서울특별시 도봉구 창동 557-100번지 ,동물판매업
736,강북우리동물의료센터,37.6568202,127.0399881,서울특별시 도봉구 창동 731-72번지 1층 ,동물판매업
737,강북우리동물의료센터,37.6568202,127.0399881,서울특별시 도봉구 창동 731-72번지 1층 ,동물판매업
738,하비동물병원,37.65199310000001,127.0465063,서울특별시 도봉구 창동 75-4번지 ,동물판매업
739,진성애견용품,37.6409875,127.0380163,서울특별시 도봉구 창동 601-78번지 ,동물판매업
740,별난동물병원,37.6585679,127.0402818,서울특별시 도봉구 쌍문동 716-31번지 ,동물판매업
741,(주)비에이치벳홀딩스,37.669057,127.0431913,서울특별시 도봉구 방학동 653-17번지 101호,동물판매업
742,한빛동물병원,37.6401423,127.0397801,서울특별시 도봉구 창동 568-5번지 ,동물판매업
743,퍼피랜드,37.6666222,127.0343168,서울특별시 도봉구 방학동 629-28번지 ,동물판매업
744,댕댕이루,37.5510075,127.0472534,서울특별시 성동구 성수동1가 656-491,동물판매업
745,트윈스동물병원,37.6453311,127.0336792,서울특별시 도봉구 창동 650-11번지 ,동물판매업
746,가나동물병원,37.6626666,127.0340881,서울특별시 도봉구 방학동 665-11번지 ,동물판매업
747,365동물병원,37.6629409,127.046349,서울특별시 도봉구 방학동 713-35번지 영하빌딩 ,동물판매업
748,리더스 동물병원,37.52160740000001,126.8742126,서울특별시 양천구 신정동 117-37,동물판매업
749,쌍문동 댕댕이네,37.6466648,127.027768,서울특별시 도봉구 쌍문동 725-1번지 쌍문동삼성래미안 203호,동물판매업
750,쌍문동 댕댕이네,37.6466648,127.027768,서울특별시 도봉구 쌍문동 725-1번지 쌍문동삼성래미안 203호,동물판매업
751,퓨리나동물병원,37.6475792,127.0336864,서울특별시 도봉구 쌍문동 96-25번지 ,동물판매업
752,띠아몽,37.6231078,127.074097,서울특별시 노원구 공릉동 517-34 1층,동물판매업
753,하비동물병원,37.65199310000001,127.0465063,서울특별시 도봉구 창동 75-4번지 ,동물판매업
754,보니또그,37.65324810000001,127.0709302,서울특별시 노원구 상계동 194-22번지 오성빌딩 ,동물판매업
755,드비숑,37.6234356,127.0795891,서울특별시 노원구 공릉동 576-18번지 원광약국 ,동물판매업
756,유림동물병원,37.6267357,127.0511204,서울특별시 노원구 월계동 562번지 월계아파트형공장 ,동물판매업
757,유림동물병원,37.6267357,127.0511204,서울특별시 노원구 월계동 562번지 월계아파트형공장 ,동물판매업
758,스마트동물병원,37.65839649999999,127.0657368,서울특별시 노원구 상계동 397-5번지 금녕빌딩 ,동물판매업
759,프렌즈 펫택시,37.603245,127.024959,서울특별시 성북구 길음동 1281 길음뉴타운 415동 402호,동물판매업
760,닥터스종합동물병원,37.6291675,127.0577933,서울특별시 노원구 월계동 292-59번지 상천빌딩 ,동물판매업
761,POSH(포쉬),37.524965,126.8548529,서울특별시 양천구 신정동 922-24,동물판매업
762,카페멍스,37.658837,127.0645832,서울특별시 노원구 상계동 354-11번지 대광빌딩 ,동물판매업
763,카페멍스,37.658837,127.0645832,서울특별시 노원구 상계동 354-11번지 대광빌딩 ,동물판매업
764,닥터스종합동물병원,37.6291675,127.0577933,서울특별시 노원구 월계동 292-59번지 상천빌딩 ,동물판매업
765,홈플러스 중계점,37.639815,127.0686402,서울특별시 노원구 중계동 509-2번지 ,동물판매업
766,에이미펫,37.6610587,127.0667121,서울특별시 노원구 상계동 434-22번지 ,동물판매업
767,웰리스동물병원,37.6389443,127.0647295,서울특별시 노원구 중계동 506-1번지 건영옴니백화점 ,동물판매업
768,도그에이드,37.6609972,127.0724021,서울특별시 노원구 상계동 173-1번지 벽산아파트 109동 28호,동물판매업
769,러브펫(홈플러스),37.6398053,127.068653,서울특별시 노원구 중계동 509-2번지 홈플러스 ,동물판매업
770,삐삐애견샵,37.6785565,127.053257,서울특별시 노원구 상계동 1110 두산아파트 124호,동물판매업
771,세븐에이치,37.5056569,127.0462398,서울특별시 강남구 역삼동 697-8,동물판매업
772,나는펫이다,37.6646394,127.0739198,서울특별시 노원구 상계동 1102-19번지 2층 ,동물판매업
773,미래동물병원,37.6249568,127.0799773,서울특별시 노원구 공릉동 411-26번지 ,동물판매업
774,롯데동물병원,37.6415758,127.0635039,서울특별시 노원구 중계동 503 중계그린아파트,동물판매업
775,메인동물메디컬센터,37.621655,127.0739,서울특별시 노원구 공릉동 576-23번지 메인동물메디컬센터 ,동물판매업
776,메인동물메디컬센터,37.621655,127.0739,서울특별시 노원구 공릉동 576-23번지 메인동물메디컬센터 ,동물판매업
777,고려동물병원,37.6634257,127.0762135,서울특별시 노원구 상계동 79-145번지 정진145빌딩 ,동물판매업
778,그린동물병원,37.6613802,127.0593229,서울특별시 노원구 상계동 670-2번지 상계주공아파트 9단지상가 ,동물판매업
779,애견카페 개그멍,37.6563587,127.0617644,서울특별시 노원구 상계동 603-14번지 대유빌딩 ,동물판매업
780,스누피동물병원,37.6276302,127.0775642,서울특별시 노원구 공릉동 441-152번지 ,동물판매업
781,브라운동물병원,37.6400147,127.0642892,서울특별시 노원구 중계동 506번지 브라운스톤중계 ,동물판매업
782,MOMO,37.632673,127.0436897,서울특별시 노원구 월계동 911번지 ,동물판매업
783,강아지사랑,37.6567249,127.0745013,서울특별시 노원구 중계동 434-21번지 102호,동물판매업
784,핫독,37.6226296,127.0790748,서울특별시 노원구 공릉동 338-77번지 ,동물판매업
785,케이나인클럽하우스(K9 ClubHouse),37.5400456,126.9921017,서울특별시 용산구 이태원동 ***-**,동물판매업
786,참동물병원,37.6649964,127.0580145,서울특별시 노원구 상계동 649-7번지 다모아빌딩 ,동물판매업
787,이앤박동물병원,37.6652688,127.0665438,서울특별시 노원구 상계동 456-128번지 ,동물판매업
788,핫독,37.6226296,127.0790748,서울특별시 노원구 공릉동 338-77번지 ,동물판매업
789,별개,37.5225727,126.8325717,서울특별시 양천구 신월동 933-3번지,동물판매업
790,펫가든,37.6466484,127.0709824,서울특별시 노원구 중계동 361번지 롯데마트 ,동물판매업
791,은마로동물병원,37.6578984,127.0744335,서울특별시 노원구 중계동 450,동물판매업
792,포독,37.5671145,126.8268941,서울특별시 강서구 마곡동 ***-* 마곡보타닉파크프라자,동물판매업
793,화랑동물병원,37.6192441,127.0796184,서울특별시 노원구 공릉동 653-10번지 ,동물판매업
794,키움동물병원,37.622143,127.0863716,서울특별시 노원구 공릉동 90-1번지 해중빌딩 ,동물판매업
795,우리들동물종합병원,37.6431659,127.0662365,서울특별시 노원구 중계동 512번지 중계무지개아파트2단지상가유치원 ,동물판매업
796,시마동물병원,37.65019280000001,127.0634866,서울특별시 노원구 상계동 749-5번지 상계주공4단지아파트 ,동물판매업
797,한빛종합동물병원,37.6508593,127.0618478,서울특별시 노원구 상계동 749-10번지 현대프라자빌딩 ,동물판매업
798,참사랑동물병원,37.6517762,127.077513,서울특별시 노원구 중계동 366-10번지 중원코아빌딩 ,동물판매업
799,엔젤동물병원,37.6284734,127.0718475,서울특별시 노원구 공릉동 362-3번지 미래치과의원 ,동물판매업
800,엔젤동물병원,37.6284734,127.0718475,서울특별시 노원구 공릉동 362-3번지 미래치과의원 ,동물판매업
801,우솔동물병원,37.615336,127.0666539,서울특별시 노원구 월계동 26-13번지 석계문고 ,동물판매업
802,프랑소와펫 아카데미,37.4991233,126.9981167,서울특별시 서초구 반포동 94-5,동물판매업
803,스마일플러스동물병원,37.6237733,127.0732504,서울특별시 노원구 공릉동 494-17번지 씨엔티빌딩 ,동물판매업
804,똥강아지,37.5910004,126.9055659,서울특별시 은평구 신사동 185-4번지 ,동물판매업
805,스마일플러스동물병원,37.6237733,127.0732504,서울특별시 노원구 공릉동 494-17번지 씨엔티빌딩 ,동물판매업
806,도그에이드,37.6609972,127.0724021,서울특별시 노원구 상계동 173-1번지 벽산아파트 ,동물판매업
807,애견카페 개그멍,37.6563587,127.0617644,서울특별시 노원구 상계동 603-14번지 대유빌딩 ,동물판매업
808,똥강아지,37.6608941,127.0710846,서울특별시 노원구 상계동 169-489번지 대동속셈학원 ,동물판매업
809,뭉투샵,37.636594,127.0739229,서울특별시 노원구 하계동 166-6번지 ,동물판매업
810,은빛동물병원,37.6756299,127.055028,서울특별시 노원구 상계동 1118-53번지 윤일빌딩 ,동물판매업
811,웰리스동물병원,37.6389443,127.0647295,서울특별시 노원구 중계동 506-1번지 건영옴니백화점 ,동물판매업
812,수락동물병원,37.6729279,127.055951,서울특별시 노원구 상계동 1023-1번지 유성상가 ,동물판매업
813,수동물병원,37.6790818,127.0549275,서울특별시 노원구 상계동 1262번지 하이베라스 ,동물판매업
814,25시동물병원,37.6474434,127.0779019,서울특별시 노원구 중계동 363번지 대림벽산상가 102호,동물판매업
815,중계이오동물병원,37.6498319,127.0763465,서울특별시 노원구 중계동 360-9번지 두타빌 A111호,동물판매업
816,수락동물병원,37.6729279,127.055951,서울특별시 노원구 상계동 1023-1번지 유성상가 ,동물판매업
817,오렌지독하우스,37.6399026,127.0738093,서울특별시 노원구 하계동 256-13번지 삼정 이오니아 109호,동물판매업
818,몽이펫,37.6740621,127.0525642,서울특별시 노원구 상계동 1048-70번지 ,동물판매업
819,러브펫동물병원 중계점,37.6398053,127.068653,서울특별시 노원구 중계동 509-2번지 홈플러스 ,동물판매업
820,한빛종합동물병원,37.6508593,127.0618478,서울특별시 노원구 상계동 749-10번지 현대프라자빌딩 ,동물판매업
821,임제혁 펫택시,37.6256129,127.0874016,서울특별시 노원구 공릉동 109번지 비선아파트 ,동물판매업
822,임선아 펫택시,37.6281957,127.0768748,서울특별시 노원구 공릉동 745번지 동신아파트 ,동물판매업
823,루피네,37.6777023,127.0544689,서울특별시 노원구 상계동 1132-23번지 삼천리 ,동물판매업
824,루피네,37.6777023,127.0544689,서울특별시 노원구 상계동 1132-23번지 삼천리 ,동물판매업
825,오늘도 예쁘개,37.6734873,127.0521089,서울특별시 노원구 상계동 1054-25번지 현대가정의학과의원 ,동물판매업
826,위위그루밍,37.5589118,127.155157,서울특별시 강동구 고덕동 ***-* ***호,동물판매업
827,루프독 1027,37.621786,127.0738653,서울특별시 노원구 공릉동 576-24번지 송이빌딩 ,동물판매업
828,해피퍼피 강아지 유치원 & 미용,37.5155371,127.0306609,서울특별시 강남구 논현동 81-11,동물판매업
829,에이미펫,37.6610587,127.0667121,서울특별시 노원구 상계동 434-22번지 거목미술학원 ,동물판매업
830,트레밍MM,37.5543885,126.9037746,서울특별시 마포구 망원동 398-15,동물판매업
831,소담 살롱,37.6634939,127.072045,서울특별시 노원구 상계동 155-50번지 ,동물판매업
832,소담 살롱,37.6634939,127.072045,서울특별시 노원구 상계동 155-50번지 ,동물판매업
833,개냥이네 노원본점,37.6571754,127.0651389,서울특별시 노원구 상계동 349-3번지 ,동물판매업
834,아담스펫강아지&가필드고양이,37.6570226,127.0656429,서울특별시 노원구 상계동 366-3번지 노원위너스빌딩 ,동물판매업
835,개인의 취향,37.5914802,126.9177325,서울특별시 은평구 응암동 576-32번지 ,동물판매업
836,아담스펫강아지&가필드고양이,37.6570226,127.0656429,서울특별시 노원구 상계동 366-3번지 노원위너스빌딩 ,동물판매업
837,아담스펫강아지&가필드고양이,37.6570226,127.0656429,서울특별시 노원구 상계동 366-3번지 노원위너스빌딩 ,동물판매업
838,개다방,37.6575352,127.0639274,서울특별시 노원구 상계동 1305번지 202호,동물판매업
839,애견천국,37.5833848,126.9192434,서울특별시 은평구 응암동 250-4번지 ,동물판매업
840,돌봄앤아카데미,37.5126865,127.1222064,서울특별시 송파구 방이동 196-19 DAWON,동물판매업
841,정민영 펫택시,37.536666,127.0495371,서울특별시 성동구 성수동1가 357 1 502호,동물판매업
842,이승우 펫택시,37.556217,126.8175353,서울특별시 강서구 공항동 1344-15,동물판매업
843,도니바니 애견카페,37.6566014,127.0629736,서울특별시 노원구 상계동 595 2층,동물판매업
844,스머프동물병원,37.5926646,126.9205206,서울특별시 은평구 응암동 ***-**,동물판매업
845,주식회사 날라주,37.619671,127.0767099,서울특별시 노원구 공릉동 622번지 ,동물판매업
846,엘케이동물병원,37.647867,127.0762533,서울특별시 노원구 중계동 ***-* 두림빌딩 ***호,동물판매업
847,펫픽스,37.6661631,127.0650415,서울특별시 노원구 상계동 639번지 보람아파트2단지 ,동물판매업
848,개과천선,37.6548571,127.0695833,서울특별시 노원구 상계동 320-4번지 ,동물판매업
849,개과천선,37.6548571,127.0695833,서울특별시 노원구 상계동 320-4번지 ,동물판매업
850,나나펫(NaNaPet),37.6528115,127.0777004,서울특별시 노원구 중계동 359-4번지 우리유치원 ,동물판매업
851,나나펫(NaNaPet),37.6528115,127.0777004,서울특별시 노원구 중계동 359-4번지 우리유치원 ,동물판매업
852,러브펫동물병원 공릉점,37.6206102,127.0749119,서울특별시 노원구 공릉동 596-5번지 1층 ,동물판매업
853,루루펫,37.6608975,127.0698072,서울특별시 노원구 상계동 389-75번지 ,동물판매업
854,도그펠리스,37.6553816,126.9482092,서울특별시 은평구 진관동 277-17번지 ,동물판매업
855,스머프 애견미용실,37.598106,126.9249871,서울특별시 은평구 응암동 194-24번지 ,동물판매업
856,24시치유동물의료센터,37.6013963,126.9314129,서울특별시 은평구 녹번동 215번지 ,동물판매업
857,메르시몽프레,37.6206602,126.9204168,서울특별시 은평구 불광동 484-319번지 ,동물판매업
858,메르시몽프레,37.6206602,126.9204168,서울특별시 은평구 불광동 484-319번지 ,동물판매업
859,댕댕이미용실,37.6034344,126.9250531,서울특별시 은평구 녹번동 155-1번지 ,동물판매업
860,아름다운 애견,37.585753,126.9178924,서울특별시 은평구 응암동 696-48번지 ,동물판매업
861,조이펫?,37.6178962,126.9151544,서울특별시 은평구 갈현동 499-17번지 ,동물판매업
862,메르시몽프레,37.6206602,126.9204168,서울특별시 은평구 불광동 484-319번지 ,동물판매업
863,honapet(호나펫),37.5934242,126.92162,서울특별시 은평구 응암동 239-18번지 ,동물판매업
864,honapet(호나펫),37.5934242,126.92162,서울특별시 은평구 응암동 239-18번지 ,동물판매업
865,개털깎개,37.5993402,126.9363991,서울특별시 은평구 응암동 27-4번지 ,동물판매업
866,은평동물병원,37.6078313,126.9217835,서울특별시 은평구 대조동 179-8번지 ,동물판매업
867,뽀송펫,37.6161616,126.9137604,서울특별시 은평구 갈현동 505-12번지 ,동물판매업
868,고인걸애견미용?,37.6144217,126.9322233,서울특별시 은평구 불광동 243-2번지 ,동물판매업
869,스마트독까페,37.5857547,126.9092704,서울특별시 은평구 증산동 191-12번지 ,동물판매업
870,금지옥엽,37.6271831,126.9200698,서울특별시 은평구 불광동 528번지 ,동물판매업
871,애견미니호텔,37.5928245,126.9180176,서울특별시 은평구 응암동 576-16번지 ,동물판매업
872,애견미니호텔,37.5928245,126.9180176,서울특별시 은평구 응암동 576-16번지 ,동물판매업
873,은평애견,37.6031294,126.9160371,서울특별시 은평구 역촌동 35-24번지 ,동물판매업
874,러브독스,37.5293136,126.8751264,서울특별시 은평구 진관동 22번지 909동 111호,동물판매업
875,GG클럽,37.6104382,126.9215091,서울특별시 은평구 대조동 172-101번지 ,동물판매업
876,피닉스 동물병원,37.5284351,126.9204078,서울특별시 동작구 대방동 395-4 정원빌딩,동물판매업
877,미용하는 강아지,37.5886698,126.9122531,서울특별시 은평구 증산동 158-1번지 ,동물판매업
878,미용하는 강아지,37.5886698,126.9122531,서울특별시 은평구 증산동 158-1번지 ,동물판매업
879,미래펫미용,37.6137223,126.9123357,서울특별시 은평구 갈현동 498-3번지 제영빌딩 ,동물판매업
880,개와냥이 동물병원,37.6101863,126.9291737,서울특별시 은평구 대조동 14-27번지 2층 ,동물판매업
881,서울햇빛동물병원,37.6342946,126.927747,서울특별시 은평구 진관동 82번지 은평뉴타운 우물골 202동 B101호,동물판매업
882,우리덕구 동물병원,37.6342946,126.927747,서울특별시 은평구 진관동 83번지 은평뉴타운우물골 205동 104호,동물판매업
883,우리덕구 동물병원,37.6342946,126.927747,서울특별시 은평구 진관동 83번지 은평뉴타운우물골 상가B 205동 104호,동물판매업
884,한빛동물병원,37.6494127,126.9302219,서울특별시 은평구 진관동 5번지 은평뉴타운상림마을 629동 116호,동물판매업
885,한빛동물병원,37.6494127,126.9302219,서울특별시 은평구 진관동 5번지 은평뉴타운상림마을 629동 116호,동물판매업
886,Dr.윤24시동물병원,37.6165209,126.9231826,서울특별시 은평구 대조동 187-24번지 ,동물판매업
887,Dr.윤24시동물병원,37.6165209,126.9231826,서울특별시 은평구 대조동 187-24번지 ,동물판매업
888,담은 동물병원,37.6183087,126.9390451,서울특별시 은평구 불광동 643번지 북한산 힐스테이트7차 상가동 128호,동물판매업
889,김정복 동물병원,37.6213495,126.9195345,서울특별시 은평구 갈현동 394-19번지 ,동물판매업
890,늘푸른동물병원,37.5982273,126.9109953,서울특별시 은평구 신사동 20-24번지 ,동물판매업
891,한수 동물병원,37.599685,126.921606,서울특별시 은평구 응암동 109-3번지 서강스카이빌 상가동 101호,동물판매업
892,한마음 동물병원,37.6009061,126.9101205,서울특별시 은평구 신사동 9-34번지 1층 ,동물판매업
893,행복한 강아지,37.6237305,126.9195862,서울특별시 은평구 갈현동 392-5번지 1층 ,동물판매업
894,행복한 강아지,37.6237305,126.9195862,서울특별시 은평구 갈현동 392-5번지 1층 ,동물판매업
895,개빡빡펫샵,37.6216069,126.9165505,서울특별시 은평구 갈현동 434-4번지 ,동물판매업
896,쿠키돌,37.5863345,126.9095099,서울특별시 은평구 증산동 192-3번지 ,동물판매업
897,은평애견,37.6031294,126.9160371,서울특별시 은평구 역촌동 35-24번지 ,동물판매업
898,은평애견,37.6031294,126.9160371,서울특별시 은평구 역촌동 35-24번지 ,동물판매업
899,다루동물병원,37.6122089,126.9321304,서울특별시 은평구 불광동 554-1번지 불광동라비앙프라자 102호,동물판매업
900,연서 동물병원,37.6131681,126.9178498,서울특별시 은평구 대조동 223-13번지 ,동물판매업
901,고마워 MIN,37.602364,126.9128603,서울특별시 은평구 역촌동 68-50번지 ,동물판매업
902,고마워 MIN,37.602364,126.9128603,서울특별시 은평구 역촌동 68-50번지 ,동물판매업
903,우신동물병원,37.60557000000001,126.9158182,서울특별시 은평구 역촌동 22-48번지 ,동물판매업
904,금쪽같은 내새끼 동물병원,37.6153175,126.9178005,서울특별시 은평구 갈현동 462-25번지 ,동물판매업
905,금쪽같은 내새끼 동물병원,37.6153175,126.9178005,서울특별시 은평구 갈현동 462-25번지 ,동물판매업
906,Love My Pet 동물병원,37.6010253,126.9307365,서울특별시 은평구 응암동 74-14번지 ,동물판매업
907,둘레길 동물병원,37.6237504,126.9277267,서울특별시 은평구 불광동 104-94번지 동윤빌딩1층 ,동물판매업
908,개이쁜냥,37.6092732,126.910721,서울특별시 은평구 구산동 15-19번지 예일노블레스 ,동물판매업
909,메디펫 동물병원,37.6219565,126.9195031,서울특별시 은평구 갈현동 394-27번지 ,동물판매업
910,메디펫 동물병원,37.6219565,126.9195031,서울특별시 은평구 갈현동 394-27번지 ,동물판매업
911,반려동물생활연구소 압구정점,37.524346,127.023466,서울특별시 강남구 신사동 549-1 타워빌딩,동물판매업
912,디올독(Dior Dog),37.5327169,126.8434224,서울특별시 강서구 화곡동 353-91,동물판매업
913,퍼피하우스,37.5958383,126.9144749,서울특별시 은평구 신사동 24-54번지 ,동물판매업
914,퍼피하우스,37.5958383,126.9144749,서울특별시 은평구 신사동 24-54번지 ,동물판매업
915,도담동물병원,37.6056782,126.9111302,서울특별시 은평구 역촌동 51-22번지 ,동물판매업
916,더독 동물병원,37.6113086,126.9175811,서울특별시 은평구 대조동 224-24번지 ,동물판매업
917,아이뻐 펫샵,37.5557391,126.8997031,서울특별시 은평구 진관동 60번지 A동 101호,동물판매업
918,안녕 멍멍아,37.5999832,126.91694,서울특별시 은평구 역촌동 44-9번지 ,동물판매업
919,해피멍,37.6046641,126.9144984,서울특별시 은평구 역촌동 60-8번지 ,동물판매업
920,해피멍,37.6046641,126.9144984,서울특별시 은평구 역촌동 60-8번지 ,동물판매업
921,도그원,37.6193935,126.917576,서울특별시 은평구 갈현동 452-1번지 2층 ,동물판매업
922,도그원,37.619564,126.9177038,서울특별시 은평구 갈현동 431-5번지 정운빌딩 2층 ,동물판매업
923,도그원,37.619564,126.9177038,서울특별시 은평구 갈현동 431-5번지 정운빌딩2층 ,동물판매업
924,도무스 펫샵,37.6066208,126.9330427,서울특별시 은평구 녹번동 14-1번지 2층 ,동물판매업
925,도무스 펫샵,37.6066208,126.9330427,서울특별시 은평구 녹번동 14-1번지 2층 ,동물판매업
926,마벨떼떼,37.504661,127.1177657,서울특별시 송파구 송파동 *** 송파삼성래미안아파트,동물판매업
927,몽슈슈 강아지,37.636209,126.9332825,서울특별시 은평구 진관동 92번지 은평뉴타운 제각말 ,동물판매업
928,몽슈슈 강아지,37.636209,126.9332825,서울특별시 은평구 진관동 92번지 은평뉴타운 제각말 ,동물판매업
929,The 이뿌개,37.6001735,126.9246493,서울특별시 은평구 응암동 98-20번지 ,동물판매업
930,The 이뿌개,37.6001735,126.9246493,서울특별시 은평구 응암동 98-20번지 ,동물판매업
931,모모펫,37.6045135,126.9184475,서울특별시 은평구 역촌동 20-49번지 1층 ,동물판매업
932,도그#,37.5902205,126.9186033,서울특별시 은평구 응암동 335-14번지 ,동물판매업
933,퍼피하우스,37.6083953,126.9228672,서울특별시 은평구 대조동 62-1번지 1층 ,동물판매업
934,노버래그 캐터리,37.6017871,126.9252297,서울특별시 은평구 응암동 85-16번지 ,동물판매업
935,디어도그,37.58679,126.9199584,서울특별시 은평구 응암동 752-5,동물판매업
936,디어도그,37.58679,126.9199584,서울특별시 은평구 응암동 752-5,동물판매업
937,멍멍이,37.6156232,126.9244325,서울특별시 은평구 대조동 188-2번지 1층 우측 ,동물판매업
938,런닝독,37.5914186,126.9151403,서울특별시 은평구 응암동 585-10번지 2층 ,동물판매업
939,디지탈디자인(INTERZOO),37.5783273,126.8996391,서울특별시 은평구 수색동 37-38번지 408호,동물판매업
940,에이플코리아(주) 범서점 롯데슈퍼내,37.6189195,126.9222806,서울특별시 은평구 불광동 308-1번지 롯데슈퍼 2층 ,동물판매업
941,미니펫,37.5968911,126.91903,서울특별시 은평구 응암동 117-22번지 응암동하이포룸 104호,동물판매업
942,미니펫,37.5968911,126.91903,서울특별시 은평구 응암동 117-22번지 응암동하이포룸 104호,동물판매업
943,뉴타운동물병원,37.64223339999999,126.9231143,서울특별시 은평구 진관동 20번지 은평뉴타운상림마을 821동 상가101호,동물판매업
944,녹번동물병원,37.6080074,126.931631,서울특별시 은평구 녹번동 117-112번지 남영빌딩 ,동물판매업
945,참좋은동물병원,37.5881949,126.9224382,서울특별시 은평구 응암동 244-212번지 ,동물판매업
946,hola(올라),37.6157124,126.9085407,서울특별시 은평구 갈현동 327-20번지 1층 ,동물판매업
947,마이뷰티독,37.6375688,126.9181915,서울특별시 은평구 진관동 63번지 롯데몰 은평점 ,동물판매업
948,고인걸애견미용?,37.6144217,126.9322233,서울특별시 은평구 불광동 243-2번지 ,동물판매업
949,로얄 수족관(본사: 2690-7311),37.5795991,126.8987214,서울특별시 은평구 수색동 75번지 4층 ,동물판매업
950,로얄수족관(본사: 2690-7311),37.6003074,126.9201687,서울특별시 은평구 응암동 90-1번지 5층 ,동물판매업
951,디지탈디자인(INTERZOO),37.5783273,126.8996391,서울특별시 은평구 수색동 37-38번지 408호,동물판매업
952,Pet#,37.6080086,126.9210719,서울특별시 은평구 역촌동 14-22번지 ,동물판매업
953,24시스마트동물메디컬센터,37.5997452,126.9181133,서울특별시 은평구 응암동 91-5번지 ,동물판매업
954,강아지풀,37.6425621,126.9205939,서울특별시 은평구 진관동 25번지 은평뉴타운 구파발 918동 101호,동물판매업
955,루비펫,37.6146099,126.9213118,서울특별시 은평구 대조동 205-28번지 ,동물판매업
956,개샵,37.5844998,126.9190948,서울특별시 은평구 응암동 733-15번지 ,동물판매업
957,보보스퍼피,37.5768262,126.9245651,서울특별시 서대문구 남가좌동 338-37번지 ,동물판매업
958,러브펫,37.5703928,126.9600668,서울특별시 서대문구 영천동 94-1번지 ,동물판매업
959,독특,37.5658466,126.9280758,서울특별시 서대문구 연희동 192-14번지 ,동물판매업
960,WALWAL(왈왈),37.5613695,126.9271948,서울특별시 서대문구 창천동 449번지 ,동물판매업
961,퍼피하우스,37.5664281,126.926495,서울특별시 서대문구 연희동 421-33번지 동신빌딩 ,동물판매업
962,에이플러스동물병원,37.5678116,126.9319184,서울특별시 서대문구 연희동 135-9번지 내풍빌딩 ,동물판매업
963,한솔동물병원,37.5849034,126.9486084,서울특별시 서대문구 홍제동 103-3번지 ,동물판매업
964,독립문동물병원,37.5690534,126.9631893,서울특별시 서대문구 냉천동 195번지 ,동물판매업
965,러브펫,37.5703894,126.960085,서울특별시 서대문구 영천동 93-2번지 ,동물판매업
966,헬로우동물병원,37.5727411,126.9357258,서울특별시 서대문구 연희동 79-12번지 ,동물판매업
967,러브펫,37.5703894,126.960085,서울특별시 서대문구 영천동 93-2번지 ,동물판매업
968,명지애견,37.5804497,126.9255116,서울특별시 서대문구 홍은동 409-33번지 ,동물판매업
969,미스터앤미세스멍,37.572301,126.9182776,서울특별시 서대문구 남가좌동 385번지 DMC파크뷰자이 ,동물판매업
970,명품애견,37.59240399999999,126.940795,서울특별시 서대문구 홍은동 88-3번지 ,동물판매업
971,루이애견,37.6011189,126.9492839,서울특별시 서대문구 홍은동 9-38번지 ,동물판매업
972,홍은애견미용,37.5932529,126.944436,서울특별시 서대문구 홍은동 48-358번지 ,동물판매업
973,햇살동물병원,37.572301,126.9182776,서울특별시 서대문구 남가좌동 385번지 DMC파크뷰자이 ,동물판매업
974,오즈동물병원,37.5787686,126.9200981,서울특별시 서대문구 남가좌동 369-10번지 ,동물판매업
975,어울림동물병원,37.572301,126.9182776,서울특별시 서대문구 남가좌동 385번지 DMC파크뷰자이 ,동물판매업
976,가좌종합동물병원,37.5799801,126.9111344,서울특별시 서대문구 북가좌동 308-1번지 ,동물판매업
977,두리틀동물병원,37.57880189999999,126.910787,서울특별시 서대문구 북가좌동 306-21번지 ,동물판매업
978,가재울봉쥬르동물병원,37.5771312,126.9108577,서울특별시 서대문구 북가좌동 304-29번지 ,동물판매업
979,예일,37.5806391,126.9258315,서울특별시 서대문구 홍은동 409-10번지 ,동물판매업
980,멍멍하우스,37.582081,126.9238804,서울특별시 서대문구 남가좌동 322-1번지 ,동물판매업
981,반려동물생활연구소 압구정점,37.524346,127.023466,서울특별시 강남구 신사동 549-1 타워빌딩,동물판매업
982,퍼피하우스,37.5610351,126.9561663,서울특별시 서대문구 북아현동 1006번지 경남아파트 ,동물판매업
983,은퇴한 수의사의 저택,37.5802443,126.9284887,서울특별시 서대문구 홍은동 396-26번지 ,동물판매업
984,퍼피독,37.5586703,126.9350918,서울특별시 서대문구 창천동 52-159번지 ,동물판매업
985,퍼피하우스,37.5610351,126.9561663,서울특별시 서대문구 북아현동 1006번지 경남아파트 ,동물판매업
986,멍이랑몽이 미용,37.5627009,126.9555975,서울특별시 서대문구 북아현동 1-512번지 ,동물판매업
987,고양이다락방,37.5579376,126.9366709,서울특별시 서대문구 창천동 33-36번지 ,동물판매업
988,은퇴한 수의사의 저택,37.5802443,126.9284887,서울특별시 서대문구 홍은동 396-26번지 ,동물판매업
989,반려동물 이동서비스,37.6149342,127.0815507,서울특별시 중랑구 묵동 103-12 로즈빌,동물판매업
990,아리솔(Arisol),37.5746761,126.926816,서울특별시 서대문구 연희동 609번지 ,동물판매업
991,이쁘냥 고양이미용실 서대문점,37.5646822,126.964692,서울특별시 서대문구 충정로2가 99-26번지 ,동물판매업
992,슈가네,37.5633866,126.9207345,서울특별시 마포구 연남동 369-20번지 ,동물판매업
993,아쿠아푸들,37.5743727,126.9352033,서울특별시 서대문구 연희동 77-1번지 ,동물판매업
994,핑키펫,37.5920897,126.942823,서울특별시 서대문구 홍은동 48-195번지 ,동물판매업
995,반려동물미용실 언니네,37.5720898,126.9353423,서울특별시 서대문구 연희동 79-26번지 ,동물판매업
996,몽냥몽냥,37.55739519999999,126.9309857,서울특별시 서대문구 창천동 502-10번지 ,동물판매업
997,퍼플캣,37.5803938,126.9529438,서울특별시 서대문구 홍제동 462번지 홍제청구3차아파트 ,동물판매업
998,mummui(멈무이),37.5969051,126.9472992,서울특별시 서대문구 홍제동 287-49,동물판매업
999,썬 개린이집,37.5720131,126.9289496,서울특별시 서대문구 연희동 107-1번지 ,동물판매업
1000,퍼피독,37.5586703,126.9350918,서울특별시 서대문구 창천동 52-159번지 ,동물판매업
1001,개들의 왕국,37.5569517,126.9455017,서울특별시 서대문구 대현동 40-13번지 ,동물판매업
1002,예뻐할개,37.5885791,126.9374886,서울특별시 서대문구 홍제동 334-28번지 ,동물판매업
1003,퍼피독,37.5586703,126.9350918,서울특별시 서대문구 창천동 52-159번지 ,동물판매업
1004,주식회사 코리아팩토리,37.5857449,126.9457784,서울특별시 서대문구 홍제동 157-73번지 ,동물판매업
1005,펫배달,37.5613679,126.9296411,서울특별시 서대문구 연희동 739번지 연희 대우 아파트 ,동물판매업
1006,카페 곳,37.58551120000001,126.9489831,서울특별시 서대문구 홍제동 ***-*,동물판매업
1007,카페 곳,37.58551120000001,126.9489831,서울특별시 서대문구 홍제동 ***-*,동물판매업
1008,링크애견샵,37.5571583,126.9492609,서울특별시 서대문구 북아현동 251-40번지 ,동물판매업
1009,링크애견샵,37.5571583,126.9492609,서울특별시 서대문구 북아현동 251-40번지 ,동물판매업
1010,프란다스동물병원,37.5760603,126.9155865,서울특별시 서대문구 남가좌동 381번지 DMC센트레빌아파트 ,동물판매업
1011,강앤정동물병원,37.572301,126.9182776,서울특별시 서대문구 남가좌동 385번지 DMC파크뷰자이 ,동물판매업
1012,초콜릿동물병원,37.5830974,126.9134564,서울특별시 서대문구 북가좌동 333-7번지 ,동물판매업
1013,반려동물생활연구소 압구정점,37.524346,127.023466,서울특별시 강남구 신사동 549-1 타워빌딩,동물판매업
1014,도그바이러스,37.5717975,126.9325254,서울특별시 서대문구 연희동 ,동물판매업
1015,연희동물병원,37.56908920000001,126.9321128,서울특별시 서대문구 연희동 89-9번지 연화아파트 ,동물판매업
1016,보보스퍼피,37.5768262,126.9245651,서울특별시 서대문구 남가좌동 338-37번지 ,동물판매업
1017,신영동물병원,37.591659,126.9409143,서울특별시 서대문구 홍은동 217-30번지 ,동물판매업
1018,홍제동물병원,37.589583,126.9427214,서울특별시 서대문구 홍제동 330-54번지 ,동물판매업
1019,빛가온동물병원,37.5835515,126.9492818,서울특별시 서대문구 홍제동 90-67번지 ,동물판매업
1020,마음을나누는동물병원,37.5584231,126.9546193,서울특별시 서대문구 북아현동 136-21번지 e편한세상신촌 4단지 ,동물판매업
1021,라파엘종합동물병원,37.5691731,126.9330394,서울특별시 서대문구 연희동 88-20번지 ,동물판매업
1022,연희동 미미네,37.57064769999999,126.9348873,서울특별시 서대문구 연희동 93-16번지 ,동물판매업
1023,스타일나개,37.569703,126.961128,서울특별시 서대문구 옥천동 58-2번지 ,동물판매업
1024,우리동물병원,37.5699488,126.9563277,서울특별시 서대문구 영천동 ***,동물판매업
1025,주식회사 하울팟,37.4876872,127.0174271,서울특별시 서초구 서초동 ****-**,동물판매업
1026,스타일나개,37.569703,126.961128,서울특별시 서대문구 옥천동 58-2번지 ,동물판매업
1027,예일,37.5806391,126.9258315,서울특별시 서대문구 홍은동 409-10번지 ,동물판매업
1028,명지애견,37.5804497,126.9255116,서울특별시 서대문구 홍은동 409-33번지 ,동물판매업
1029,퍼피하우스,37.5664281,126.926495,서울특별시 서대문구 연희동 421-33번지 동신빌딩 ,동물판매업
1030,퍼피독,37.5586703,126.9350918,서울특별시 서대문구 창천동 52-159번지 ,동물판매업
1031,퍼피도그,37.5575365,126.9349608,서울특별시 서대문구 창천동 57-36번지 ,동물판매업
1032,C.T.종합동물병원,37.5464743,126.9581687,서울특별시 마포구 신공덕동 159번지 신공덕2차삼성래미안 ,동물판매업
1033,공덕 건강한 동물병원,37.5446204,126.9526393,서울특별시 마포구 공덕동 256-13번지 제일빌딩 ,동물판매업
1034,웰케어동물병원,37.55309099999999,126.9220032,서울특별시 마포구 서교동 447-2번지 이화빌딩 ,동물판매업
1035,웰케어동물병원,37.55309099999999,126.9220032,서울특별시 마포구 서교동 447-2번지 이화빌딩 ,동물판매업
1036,도그핏애견샵,37.5634635,127.0623337,서울특별시 동대문구 장안동 406-7번지,동물판매업
1037,박효리군동물병원,37.5528533,126.9065133,서울특별시 마포구 망원동 338-76번지 ,동물판매업
1038,마리동물병원,37.5579504,126.9281289,서울특별시 마포구 동교동 174-14번지 ,동물판매업
1039,워너비 동물병원,37.5565074,126.9300023,서울특별시 마포구 동교동 200-29번지 동진빌딩 ,동물판매업
1040,푸른숲동물병원,37.5556461,126.914476,서울특별시 마포구 서교동 5-2번지 서현빌딩 ,동물판매업
1041,셀레네동물병원,37.5478828,126.922737,서울특별시 마포구 상수동 310-1번지 ,동물판매업
1042,멍마르뜨,37.5730867,126.8183183,서울특별시 강서구 방화동 ***-*** 한림리첸빌,동물판매업
1043,주식회사 하울팟,37.4876872,127.0174271,서울특별시 서초구 서초동 ****-**,동물판매업
1044,도화동물병원,37.5377789,126.9472518,서울특별시 마포구 도화동 153번지 ,동물판매업
1045,프롬 클라우드,37.5529789,126.9040239,서울특별시 마포구 망원동 396-4번지 삼성캐슬(B동) ,동물판매업
1046,찰리애견미용샵,37.545026,126.935003,서울특별시 마포구 신수동 382-1번지 ,동물판매업
1047,Chae hwa,37.5548142,126.929257,서울특별시 마포구 서교동 327-18번지 ,동물판매업
1048,워킹페코,37.5543692,126.9303532,서울특별시 마포구 창전동 5-73번지 ,동물판매업
1049,집사의 하루 홍대점,37.549647,126.9211422,서울특별시 마포구 서교동 364-2번지 태경빌딩 ,동물판매업
1050,말희네,37.5674005,126.91091,서울특별시 마포구 성산동 137-3번지 ,동물판매업
1051,마이펫 글리,37.5583828,126.9085456,서울특별시 마포구 성산동 252-11번지 ,동물판매업
1052,고양이 미용실,37.5493807,126.9093389,서울특별시 마포구 합정동 393-18번지 ,동물판매업
1053,반려동물이동서비스,37.5580503,126.9016419,서울특별시 마포구 망원동 428-26번지 ,동물판매업
1054,W앤다솔,37.5534014,126.9122987,서울특별시 마포구 서교동 444-5번지 ,동물판매업
1055,금강동물병원,37.5174785,126.9805401,서울특별시 용산구 이촌동 ***-*** 렉스상가 *-**-*호,동물판매업
1056,닥터호오 동물병원,37.54300920000001,126.937863,서울특별시 마포구 용강동 494-68번지 서강빌딩 ,동물판매업
1057,닥터호오 동물병원,37.54300920000001,126.937863,서울특별시 마포구 용강동 494-68번지 서강빌딩 ,동물판매업
1058,세븐에이치샵(7H#),37.5599577,126.9025057,서울특별시 마포구 망원동 436-18,동물판매업
1059,아프지말게 동물병원,37.5775596,126.8887835,서울특별시 마포구 상암동 1655 상암 월드컵파크 4단지,동물판매업
1060,이누아이,37.5605244,126.923645,서울특별시 마포구 연남동 373-14번지 ,동물판매업
1061,목욕하는 강아지,37.5467032,126.937724,서울특별시 마포구 신수동 190번지 성원아파트 ,동물판매업
1062,목욕하는 강아지,37.5467032,126.937724,서울특별시 마포구 신수동 190번지 성원아파트 ,동물판매업
1063,산책 동물병원,37.5468293,126.9326383,서울특별시 마포구 구수동 56-8번지 ,동물판매업
1064,쥬쥬펫,37.5626191,126.9235187,서울특별시 마포구 연남동 255-9번지 ,동물판매업
1065,쥬쥬펫,37.5626191,126.9235187,서울특별시 마포구 연남동 255-9번지 ,동물판매업
1066,미어캣 프렌즈,37.551894,126.9226159,서울특별시 마포구 서교동 364-3 예원빌딩,동물판매업
1067,개의온도,37.63287589999999,127.0200966,서울특별시 강북구 수유동 49-47,동물판매업
1068,동물병원 닥터K,37.5763932,126.8933386,서울특별시 마포구 상암동 115-11번지 상암메디컬빌딩 ,동물판매업
1069,라온동물병원,37.5659781,126.9108372,서울특별시 마포구 성산동 94-4번지 성미빌딩 ,동물판매업
1070,와우동물병원,37.56696489999999,126.9097901,서울특별시 마포구 성산동 200-24번지 나디 빌딩 ,동물판매업
1071,고양이당,37.556971,126.9081655,서울특별시 마포구 망원동 57-371번지 ,동물판매업
1072,Groomer Ameri,37.548694,126.9213888,서울특별시 마포구 상수동 312-4번지 ,동물판매업
1073,플라잉펫,37.54891509999999,126.9521527,서울특별시 마포구 공덕동 222-2번지 공덕 메디힐스 ,동물판매업
1074,플라잉펫,37.54891509999999,126.9521527,서울특별시 마포구 공덕동 222-2번지 공덕 메디힐스 ,동물판매업
1075,금강동물병원,37.5174785,126.9805401,서울특별시 용산구 이촌동 ***-*** 렉스상가 *-**-*,동물판매업
1076,똘이살롱,37.4810382,126.9271855,서울특별시 관악구 신림동 1606-15,동물판매업
1077,슈가네,37.5633866,126.9207345,서울특별시 마포구 연남동 369-20번지 ,동물판매업
1078,카페 안녕로빈,37.5551042,126.9101338,서울특별시 마포구 망원동 378-9번지 ,동물판매업
1079,펫 다이어리,37.5588755,126.9006609,서울특별시 마포구 망원동 432-20번지 ,동물판매업
1080,(주)독핏코리아,37.5520144,126.9120676,서울특별시 마포구 합정동 426-8번지 ,동물판매업
1081,즐거운 애견미용,37.5574878,126.9149647,서울특별시 마포구 서교동 454-9번지 ,동물판매업
1082,다다다펫그루밍,37.5532115,126.9325574,서울특별시 마포구 창전동 2-21,동물판매업
1083,즐거운 애견미용,37.5574878,126.9149647,서울특별시 마포구 서교동 454-9번지 ,동물판매업
1084,러브펫,37.5703942,126.9085595,서울특별시 마포구 중동 40-12번지 성산2차현대아파트 상가 ,동물판매업
1085,독앤독,37.53817670000001,126.9516396,서울특별시 마포구 도화동 357번지 도화동현대아파트 ,동물판매업
1086,서진 동물병원,37.5564513,126.9322249,서울특별시 마포구 동교동 185-22번지 ,동물판매업
1087,아담스펫 강아지 서울점,37.5519484,126.916256,서울특별시 마포구 서교동 378-13번지 한동출판 ,동물판매업
1088,선릉동물병원,37.5068705,127.0467831,서울특별시 강남구 역삼동 694-11 연안이씨빌딩,동물판매업
1089,네발하우스(마포점),37.5602645,126.924484,서울특별시 마포구 동교동 150-6,동물판매업
1090,요미독,37.5566077,126.9476423,서울특별시 마포구 염리동 8-43번지 ,동물판매업
1091,테이블에이,37.5540054,126.9294881,서울특별시 마포구 창전동 6 그레이스빌딩,동물판매업
1092,아이엠독,37.6503872,127.0613201,서울특별시 노원구 상계동 746-4 명지프라자빌딩 202호,동물판매업
1093,올라,37.5813924,126.885617,서울특별시 마포구 상암동 1590번지 상암 IT Tower ,동물판매업
1094,구름뜬하늘,37.5541195,126.9270724,서울특별시 마포구 서교동 339-5번지 ,동물판매업
1095,구름뜬하늘,37.5541195,126.9270724,서울특별시 마포구 서교동 339-5번지 ,동물판매업
1096,스마트 독,37.5482921,126.9305996,서울특별시 마포구 창전동 291-2번지 ,동물판매업
1097,써니네,37.5566808,126.9254433,서울특별시 마포구 동교동 169-29번지 ,동물판매업
1098,써니네,37.5566808,126.9254433,서울특별시 마포구 동교동 169-29번지 ,동물판매업
1099,선릉동물병원,37.5068705,127.0467831,서울특별시 강남구 역삼동 694-11 연안이씨빌딩,동물판매업
1100,킹독,37.5044256,127.0382942,서울특별시 강남구 역삼동 671-31,동물판매업
1101,킹독,37.5044256,127.0382942,서울특별시 강남구 역삼동 671-31,동물판매업
1102,나의 강아지에게,37.5627511,126.9229791,서울특별시 마포구 연남동 257-1번지 선경빌라 ,동물판매업
1103,강아지 미용실 왕왕,37.54888130000001,126.9492515,서울특별시 마포구 염리동 27-110번지 ,동물판매업
1104,(주)상상유니버스,37.54661979999999,126.9362797,서울특별시 마포구 신수동 459번지 밤섬경남아너스빌 ,동물판매업
1105,펫스토어1004,37.6041242,127.0797832,서울특별시 중랑구 중화동 281-33,동물판매업
1106,오묘한집 고양이호텔,37.5574793,126.9166702,서울특별시 마포구 서교동 487번지 서교동 대우미래사랑 ,동물판매업
1107,아이엔쥬,37.5584353,126.9111107,서울특별시 마포구 창전동 * 그레이스빌딩,동물판매업
1108,디엔씨 동물병원,37.556307,126.9426292,서울특별시 마포구 노고산동 1-67번지 ,동물판매업
1109,펫버스,37.5559837,126.8978139,서울특별시 마포구 망원동 453-35번지 ,동물판매업
1110,개러리아,37.5139848,127.0565207,서울특별시 강남구 삼성동 *-**,동물판매업
1111,다온펫샵,37.5547021,126.9333909,서울특별시 마포구 노고산동 54-64번지 태인빌딩 ,동물판매업
1112,다온펫샵,37.5547021,126.9333909,서울특별시 마포구 노고산동 54-64번지 태인빌딩 ,동물판매업
1113,연남동고양이,37.5588794,126.9249612,서울특별시 마포구 동교동 154-5번지 3층 ,동물판매업
1114,아이엠독,37.6503872,127.0613201,서울특별시 노원구 상계동 746-4 명지프라자빌딩 202호,동물판매업
1115,멍블랑,37.5476462,126.8642269,서울특별시 양천구 목동 615-7번지 ,동물판매업
1116,고양이미용실,37.535563,126.8655903,서울특별시 양천구 목동 781-8번지 ,동물판매업
1117,봄날동물병원,37.5372755,126.8719574,서울특별시 양천구 목동 753-12번지 ,동물판매업
1118,봄날동물병원,37.5372755,126.8719574,서울특별시 양천구 목동 753-12번지 ,동물판매업
1119,해맞이동물병원,37.5173925,126.8377666,서울특별시 양천구 신월동 984-1번지 인산빌딩 ,동물판매업
1120,내 품안의 반려견,37.4850655,126.9322218,서울특별시 관악구 신림동 1422-2 휴드림 101호,동물판매업
1121,펫타고,37.5335556,126.8687051,서울특별시 양천구 목동 774-1,동물판매업
1122,아이러브독 애견미용실,37.5244205,126.859391,서울특별시 양천구 신정동 985-1번지 ,동물판매업
1123,아이러브독 애견미용실,37.5244205,126.859391,서울특별시 양천구 신정동 985-1번지 ,동물판매업
1124,아이러브독 애견미용실,37.5244205,126.859391,서울특별시 양천구 신정동 985-1번지 ,동물판매업
1125,몽몽,37.5195484,126.8568464,서울특별시 양천구 신정동 1049-27번지 ,동물판매업
1126,신월동물병원,37.5162002,126.8377477,서울특별시 양천구 신월동 1002-3번지 ,동물판매업
1127,신월동물병원,37.5162002,126.8377477,서울특별시 양천구 신월동 1002-3번지 ,동물판매업
1128,댕댕이타요(22고 0713),37.5226084,126.8396756,서울특별시 양천구 신월동 433-8번지 ,동물판매업
1129,댕댕이타요(10소 8163),37.5226084,126.8396756,서울특별시 양천구 신월동 433-8번지 ,동물판매업
1130,펫스토어1004,37.6041242,127.0797832,서울특별시 중랑구 중화동 281-33,동물판매업
1131,아츠,37.542121,126.9937587,서울특별시 용산구 이태원동 258-61 1층,동물판매업
1132,멍스타일,37.533903,126.8270162,서울특별시 양천구 신월동 158-20 1층,동물판매업
1133,로사네 애견미용실,37.51463160000001,126.865836,서울특별시 양천구 신정동 327번지 목동신시가지아파트13단지 상가C동 115호,동물판매업
1134,살롱드 꽃개,37.5104801,126.8591496,서울특별시 양천구 신정동 325번지 목동신시가지아파트11단지 상가 A동 103호,동물판매업
1135,POSH,37.5249916,126.8549678,서울특별시 양천구 신정동 922-24번지 1층 ,동물판매업
1136,공주네 펫샵,37.5359095,126.8678073,서울특별시 양천구 목동 769-1번지 105호 ,동물판매업
1137,스타일독앤캣 강아지고양이 목동점,37.52713110000001,126.8631533,서울특별시 양천구 신정동 888-29 1층,동물판매업
1138,케이펫스타(K-펫스타),37.5138475,127.0165228,서울특별시 서초구 잠원동 **-* 정진빌딩,동물판매업
1139,밀레펫(이마트 목동점),37.5258712,126.8708145,서울특별시 양천구 목동 962번지 목동트라팰리스 지하 1층 ,동물판매업
1140,닥터펫동물병원,37.53020830000001,126.8732314,서울특별시 양천구 목동 919-7번지 홈플러스 2층 ,동물판매업
1141,양천종합동물병원,37.5222264,126.8426171,서울특별시 양천구 신월동 444-11번지 ,동물판매업
1142,개과천선,37.5343831,126.8354652,서울특별시 양천구 신월동 105-4번지 ,동물판매업
1143,루시캣,37.5164003,126.8548096,서울특별시 양천구 신정동 1052-26,동물판매업
1144,금쪽같은강아지,37.5393656,126.8666552,서울특별시 양천구 목동 740-1번지 1층,동물판매업
1145,마포고양이도레미캣,37.5549184,126.9378999,서울특별시 마포구 노고산동 31-4,동물판매업
1146,아츠,37.542121,126.9937587,서울특별시 용산구 이태원동 258-61 1층,동물판매업
1147,멍멍이 이발소,37.5442706,126.8739749,서울특별시 양천구 목동 536-1 1층,동물판매업
1148,몽몽바블펫#,37.519515,126.8565618,서울특별시 양천구 신정동 1049-19번지 ,동물판매업
1149,몽몽바블펫#,37.519515,126.8565618,서울특별시 양천구 신정동 1049-19번지 ,동물판매업
1150,립독,37.54108,126.8687905,서울특별시 양천구 목동 315-42번지 지하1층 ,동물판매업
1151,서현펫#,37.5381563,126.866738,서울특별시 양천구 목동 739-11번지 1층 ,동물판매업
1152,캣츠살롱,37.5164003,126.8548096,서울특별시 양천구 신정동 1052-26번지 3층 ,동물판매업
1153,너와함개,37.5197405,126.8524113,서울특별시 양천구 신정동 1183-30번지 1층 ,동물판매업
1154,알콩달콩 애견,37.52998970000001,126.8360177,서울특별시 양천구 신월동 122-13번지 ,동물판매업
1155,캣츠아일랜드,37.5164003,126.8548096,서울특별시 양천구 신정동 1052-26 3층,동물판매업
1156,뽀송하개,37.5252196,126.8508283,서울특별시 양천구 신정동 942-19 1층,동물판매업
1157,뽀송하개,37.5252196,126.8508283,서울특별시 양천구 신정동 942-19번지 1층 ,동물판매업
1158,립독,37.54108,126.8687905,서울특별시 양천구 목동 315-42번지 ,동물판매업
1159,스테이펫_호텔,37.5099288,126.869045,서울특별시 양천구 신정동 171-61번지 목동파크자이 상가 비동 318호,동물판매업
1160,스테이펫,37.5099288,126.869045,서울특별시 양천구 신정동 171-61번지 목동파크자이 상가 비동 318호,동물판매업
1161,쿨펫이마트 목동점 동물병원,37.5258712,126.8708145,서울특별시 양천구 목동 962번지 목동트라팰리스 지하1층 ,동물판매업
1162,멍스베베,37.5687578,126.8402731,서울특별시 강서구 마곡동 776 마곡파크뷰대방디엠시티오피스텔,동물판매업
1163,쿨펫이마트 목동점 동물병원,37.5258712,126.8708145,서울특별시 양천구 목동 962번지 목동트라팰리스 지하1층 ,동물판매업
1164,꿀펫,37.60928699999999,127.0500872,서울특별시 성북구 장위동 68-648 1층,동물판매업
1165,리즈동물병원,37.53350030000001,126.8695126,서울특별시 양천구 목동 773-3번지 목동글로리파크 106호,동물판매업
1166,토론토동물병원,37.5450759,126.8625742,서울특별시 양천구 목동 657-21번지 등촌빌딩 ,동물판매업
1167,OMW dog's cafe,37.5420076,126.8420946,서울특별시 강서구 화곡동 107-13번지 모아빌딩 ,동물판매업
1168,낭만고양이(강서점),37.5764888,126.8307466,서울특별시 강서구 마곡동 800-15번지 이너매스마곡2 516호,동물판매업
1169,알까네 펫드라이브,37.5445116,126.8501064,서울특별시 강서구 화곡동 46-17번지 신성주택 ,동물판매업
1170,독살롱 다듬,37.5764888,126.8307466,서울특별시 강서구 마곡동 798-14번지 ,동물판매업
1171,독살롱 다듬,37.5764888,126.8307466,서울특별시 강서구 마곡동 798-14번지 ,동물판매업
1172,샵 세린파크,37.4872296,126.989251,서울특별시 서초구 방배동 869-1,동물판매업
1173,올리유 ALLY.U,37.4861843,127.0214953,서울특별시 서초구 서초동 1671-6 금강빌딩,동물판매업
1174,이수환 펫택시,37.5720908,126.8056823,서울특별시 강서구 방화동 847번지 유니트로 ,동물판매업
1175,개인의취향,37.5307869,126.8489831,서울특별시 강서구 화곡동 342-1번지 ,동물판매업
1176,오늘도댕댕,37.565787,126.8120799,서울특별시 강서구 방화동 606-112번지 ,동물판매업
1177,오늘도댕댕,37.565787,126.8120799,서울특별시 강서구 방화동 606-112번지 ,동물판매업
1178,그로잉독,37.5443957,126.8365055,서울특별시 강서구 화곡동 1023번지 ,동물판매업
1179,하이독스,37.5682726,126.8090984,서울특별시 강서구 방화동 590-19번지 ,동물판매업
1180,하이독스,37.5682726,126.8090984,서울특별시 강서구 방화동 590-19번지 ,동물판매업
1181,미소동물의료센터,37.5520898,126.8495658,서울특별시 강서구 화곡동 1024-7번지 삼광빌딩 ,동물판매업
1182,스마일동물병원,37.5525338,126.8261792,서울특별시 강서구 내발산동 750-5번지 발산시티타워 ,동물판매업
1183,우리애견미용실,37.5311374,126.8473841,서울특별시 강서구 화곡동 342-57번지 ,동물판매업
1184,미소동물의료센터,37.5520898,126.8495658,서울특별시 강서구 화곡동 1024-7번지 삼광빌딩 ,동물판매업
1185,스마일동물병원,37.5525338,126.8261792,서울특별시 강서구 내발산동 750-5번지 발산시티타워 ,동물판매업
1186,스마일동물병원,37.5525338,126.8261792,서울특별시 강서구 내발산동 750-5번지 발산시티타워 ,동물판매업
1187,DADOG,37.5408665,126.8400931,서울특별시 강서구 화곡동 1075-8번지 ,동물판매업
1188,DADOG,37.5408665,126.8400931,서울특별시 강서구 화곡동 1075-8번지 ,동물판매업
1189,곁에 있을개,37.5545019,126.8615889,서울특별시 강서구 등촌동 645번지 ,동물판매업
1190,곁에 있을개,37.5545019,126.8615889,서울특별시 강서구 등촌동 645번지 103호,동물판매업
1191,가양쿨펫동물병원,37.5642272,126.8500654,서울특별시 강서구 가양동 18-24번지 홈플러스가양점 ,동물판매업
1192,마곡나무 동물병원,37.5597636,126.8200757,서울특별시 강서구 마곡동 747번지 마곡엠밸리10단지 103호,동물판매업
1193,마곡나무 동물병원,37.5597636,126.8200757,서울특별시 강서구 마곡동 747번지 마곡엠밸리10단지 103호,동물판매업
1194,황하동물병원,37.5686007,126.8163473,서울특별시 강서구 방화동 594-1번지 세성빌딩 ,동물판매업
1195,송정동물메디컬센터,37.5615082,126.8116509,서울특별시 강서구 공항동 28-10번지 ,동물판매업
1196,송정동물메디컬센터,37.5615082,126.8116509,서울특별시 강서구 공항동 28-10번지 ,동물판매업
1197,서서울 동물병원,37.5512282,126.8711315,서울특별시 강서구 염창동 265-23번지 ,동물판매업
1198,서서울동물병원,37.5512282,126.8711315,서울특별시 강서구 염창동 265-23번지 ,동물판매업
1199,시온동물병원,37.5451955,126.8473136,서울특별시 강서구 화곡동 46-236번지 ,동물판매업
1200,올스타동물의료센터,37.5369219,126.8379048,서울특별시 강서구 화곡동 371-32번지 청파빌딩 ,동물판매업
1201,올스타동물의료센터,37.5369219,126.8379048,서울특별시 강서구 화곡동 371-32번지 청파빌딩 ,동물판매업
1202,외박해도 괜찮아,37.5472194,126.8434677,서울특별시 강서구 화곡동 84-5번지 ,동물판매업
1203,맘즈펫부티끄,37.5788637,126.8151518,서울특별시 강서구 방화동 357-2번지 상일빌딩 ,동물판매업
1204,꿈꾸는 고양이,37.5456648,126.8615162,서울특별시 강서구 등촌동 524-4번지 2층 ,동물판매업
1205,맘즈펫부티끄,37.5788637,126.8151518,서울특별시 강서구 방화동 357-2번지 상일빌딩 ,동물판매업
1206,강서YD동물의료센터,37.5569117,126.8522274,서울특별시 강서구 등촌동 658-4번지 ,동물판매업
1207,아프리카펫센터,37.5581723,126.8448994,서울특별시 강서구 등촌동 664-1번지 경왕빌딩 ,동물판매업
1208,아프리카 펫센터,37.5581723,126.8448994,서울특별시 강서구 등촌동 664-1번지 경왕빌딩 ,동물판매업
1209,케이펫스타(K-펫스타),37.5138475,127.0165228,서울특별시 서초구 잠원동 **-* 정진빌딩,동물판매업
1210,우장산동물의료센터,37.5508666,126.8365747,서울특별시 강서구 내발산동 702-16번지 ,동물판매업
1211,우장산동물의료센터,37.5508666,126.8365747,서울특별시 강서구 내발산동 702-16번지 ,동물판매업
1212,한마음동물병원,37.5339428,126.8466088,서울특별시 강서구 화곡동 338-21번지 ,동물판매업
1213,세명동물병원,37.5326963,126.8428785,서울특별시 강서구 화곡동 353-95번지 ,동물판매업
1214,24시 안박동물병원,37.5600612,126.8562872,서울특별시 강서구 등촌동 628-13번지 현대프린스텔 ,동물판매업
1215,24시 안박동물병원,37.5600612,126.8562872,서울특별시 강서구 등촌동 628-13번지 현대프린스텔 ,동물판매업
1216,(주)다온케이,37.54708060000001,126.8356739,서울특별시 강서구 화곡동 1006-13번지 아림빌딩 ,동물판매업
1217,해맑은동물병원,37.5625886,126.8529818,서울특별시 강서구 가양동 1480-5번지 이스타빌1차 101호,동물판매업
1218,공감동물병원,37.5764888,126.8307466,서울특별시 강서구 마곡동 751번지 상가동 103호 ,동물판매업
1219,고려종합동물병원,37.5625886,126.8529818,서울특별시 강서구 가양동 1480-5번지 이스타빌1차 ,동물판매업
1220,고려종합동물병원,37.5625886,126.8529818,서울특별시 강서구 가양동 1480-5번지 이스타빌1차 ,동물판매업
1221,서울플러스 종합 동물병원,37.5347866,126.8632594,서울특별시 강서구 화곡동 772-71번지 신진통상빌딩 ,동물판매업
1222,미로애견센터,37.5321839,126.8395125,서울특별시 강서구 화곡동 421-23번지 ,동물판매업
1223,서울플러스 종합 동물병원,37.5347866,126.8632594,서울특별시 강서구 화곡동 772-71번지 신진통상빌딩 ,동물판매업
1224,우산쓴고양이,37.5321121,126.8628853,서울특별시 강서구 화곡동 779-2번지 ,동물판매업
1225,멍마르뜨,37.5730867,126.8183183,서울특별시 강서구 방화동 ***-*** 한림리첸빌,동물판매업
1226,우장동물병원,37.5411061,126.8376158,서울특별시 강서구 화곡동 1066-10번지 충효빌딩 ,동물판매업
1227,묘한호텔,37.530037,126.8493998,서울특별시 강서구 화곡동 895-6번지 현대그린아파트 상가1층 ,동물판매업
1228,개네집,37.5359588,126.8469195,서울특별시 강서구 화곡동 332-30번지 ,동물판매업
1229,시온동물병원,37.5451955,126.8473136,서울특별시 강서구 화곡동 46-236번지 강서구약사회관 ,동물판매업
1230,고양이별 캣 카페,37.5764888,126.8307466,서울특별시 강서구 마곡동 794번지 문영비즈웍스 903호,동물판매업
1231,강남애견미용샵,37.5308295,126.8499073,서울특별시 강서구 화곡동 391-57번지 ,동물판매업
1232,피플앤독,37.5689765,126.8421772,서울특별시 강서구 가양동 1496번지 일신건영휴먼빌아파트 상가동 103호,동물판매업
1233,피플앤독,37.5689765,126.8421772,서울특별시 강서구 가양동 1496번지 일신건영휴먼빌아파트 상가동 103호,동물판매업
1234,그루밍살롱,37.5572933,126.8597174,서울특별시 강서구 등촌동 630-3번지 우성아파트 상가 102호,동물판매업
1235,화곡동물병원,37.5456093,126.8476184,서울특별시 강서구 화곡동 24-167번지 ,동물판매업
1236,꽃보다 강쥐,37.5578662,126.8156621,서울특별시 강서구 화곡동 923-2번지 현대홈타운 203호,동물판매업
1237,몽몽이 펫뷰티,37.5632603,126.8031088,서울특별시 강서구 방화동 886번지 김포공항 롯데몰 스카이시티 ,동물판매업
1238,몽몽이 펫뷰티,37.5632603,126.8031088,서울특별시 강서구 방화동 886번지 김포공항 롯데몰 스카이시티 ,동물판매업
1239,엉클펫,37.5548398,126.864592,서울특별시 강서구 등촌동 632-4번지 삼성한사랑1차아파트 ,동물판매업
1240,빈 펫택시,37.5671523,126.8108561,서울특별시 강서구 방화동 600-34번지 ,동물판매업
1241,바스독(BATH DOG),37.5349533,126.8629261,서울특별시 강서구 화곡동 1024-10번지 영신빌딩 ,동물판매업
1242,개아범콜,37.5652178,126.8558445,서울특별시 강서구 가양동 1475번지 강변아파트 ,동물판매업
1243,해피펫,37.5310174,126.851804,서울특별시 강서구 화곡동 872-20번지 ,동물판매업
1244,말순이네,37.5288148,126.8448725,서울특별시 강서구 화곡동 1038-24번지 남촌빌라 ,동물판매업
1245,노블도그,37.5468258,126.8358714,서울특별시 강서구 화곡동 1013번지 ,동물판매업
1246,노블도그,37.5468258,126.8358714,서울특별시 강서구 화곡동 1013번지 ,동물판매업
1247,하룻강아지,37.5327325,126.8578965,서울특별시 강서구 화곡동 831-10번지 ,동물판매업
1248,펫마인드,37.5612223,126.8539122,서울특별시 강서구 등촌동 75-1번지 삼부르네상스오피스텔 ,동물판매업
1249,굿모닝동물병원,37.5765029,126.8131242,서울특별시 강서구 방화동 830-3번지 방화샤르망1오피스텔 ,동물판매업
1250,오즈동물병원,37.5480366,126.8345704,서울특별시 강서구 내발산동 722-15번지 ,동물판매업
1251,퍼피스쿨(puppy school),37.5422024,126.8331087,서울특별시 강서구 화곡동 1041번지 ,동물판매업
1252,버들강아지,37.5457292,126.8318733,서울특별시 강서구 화곡동 1091번지 화곡푸르지오 제상가A동 106107호 ,동물판매업
1253,냉큼 오레오,37.5527859,126.8530693,서울특별시 강서구 화곡동 1115-35,동물판매업
1254,주식회사 하울팟,37.4876872,127.0174271,서울특별시 서초구 서초동 ****-**,동물판매업
1255,버들강아지,37.5457292,126.8318733,서울특별시 강서구 화곡동 1091번지 화곡푸르지오  제상가A동 106107호 ,동물판매업
1256,Hello,37.5743004,126.9121504,서울특별시 서대문구 북가좌동 *** DMC 래미안 e편한세상,동물판매업
1257,꿈꾸는 고양이,37.5456648,126.8615162,서울특별시 강서구 등촌동 524-4번지 ,동물판매업
1258,놀러오개,37.5426897,126.843902,서울특별시 강서구 화곡동 98-207번지 ,동물판매업
1259,놀러오개,37.5426897,126.843902,서울특별시 강서구 화곡동 98-207번지 ,동물판매업
1260,놀러오개,37.5426897,126.843902,서울특별시 강서구 화곡동 98-207번지 ,동물판매업
1261,순독살롱,37.5500626,126.8685085,서울특별시 강서구 염창동 275-8번지 태선빌딩 ,동물판매업
1262,강아지정류장,37.549892,126.8748115,서울특별시 강서구 염창동 250-8번지 ,동물판매업
1263,강아지정류장,37.549892,126.8748115,서울특별시 강서구 염창동 250-8번지 ,동물판매업
1264,강아지정류장,37.549892,126.8748115,서울특별시 강서구 염창동 250-8번지 ,동물판매업
1265,멍멍이다방,37.5404069,126.834868,서울특별시 강서구 화곡동 1068-24번지 ,동물판매업
1266,멍멍이다방,37.5404069,126.834868,서울특별시 강서구 화곡동 1068-24번지 ,동물판매업
1267,마곡M동물의료센터,37.568556,126.816317,서울특별시 강서구 방화동 245-31번지 ,동물판매업
1268,마곡M동물의료센터,37.568556,126.816317,서울특별시 강서구 방화동 245-31번지 ,동물판매업
1269,OMW dog's cafe,37.5420076,126.8420946,서울특별시 강서구 화곡동 107-13번지 모아빌딩 ,동물판매업
1270,뷰티 in 독,37.5548079,126.837695,서울특별시 강서구 내발산동 666-3번지 ,동물판매업
1271,아임멍 미용,37.5760207,126.8359468,서울특별시 강서구 마곡동 759번지 마곡센트럴타워Ⅱ ,동물판매업
1272,러브미독,37.5308295,126.8499073,서울특별시 강서구 화곡동 391-57번지 ,동물판매업
1273,푸른들 동물병원,37.5521584,126.8707881,서울특별시 강서구 염창동 246-11번지 ,동물판매업
1274,아임멍,37.5760207,126.8359468,서울특별시 강서구 마곡동 759번지 마곡센트럴타워Ⅱ ,동물판매업
1275,참동물병원,37.5656875,126.8238125,서울특별시 강서구 마곡동 743-4번지 마곡엠밸리7단지 ,동물판매업
1276,라미살롱,37.5532406,126.8374613,서울특별시 강서구 내발산동 675-14번지 ,동물판매업
1277,바스독,37.5521245,126.8479686,서울특별시 강서구 화곡동 996-12번지 홈피아맨션 ,동물판매업
1278,펫업,37.5720591,126.8221235,서울특별시 강서구 방화동 857번지 방화삼성아파트 ,동물판매업
1279,위자드 웹,37.561922,126.8525375,서울특별시 강서구 등촌동 717번지 그레이스힐 ,동물판매업
1280,카카오독,37.5307544,126.8632782,서울특별시 강서구 화곡동 782-11번지 ,동물판매업
1281,스프링그루밍,37.5457292,126.8318733,서울특별시 강서구 화곡동 1091번지 화곡푸르지오 ,동물판매업
1282,스프링그루밍,37.5457292,126.8318733,서울특별시 강서구 화곡동 1091번지 화곡푸르지오 ,동물판매업
1283,라운지독,37.5604172,126.8448669,서울특별시 강서구 등촌동 695-1번지 등촌5단지주공아파트 ,동물판매업
1284,라운지독,37.5604172,126.8448669,서울특별시 강서구 등촌동 695-1번지 등촌5단지주공아파트 ,동물판매업
1285,펫티,37.5764888,126.8307466,서울특별시 강서구 마곡동 800-4번지 발산W타워 ,동물판매업
1286,펫티,37.5764888,126.8307466,서울특별시 강서구 마곡동 800-4번지 발산W타워 ,동물판매업
1287,펫티,37.5764888,126.8307466,서울특별시 강서구 마곡동 800-4번지 발산W타워 ,동물판매업
1288,김동일 펫택시,37.5979109,126.9476236,서울특별시 서대문구 홍제동 287-18,동물판매업
1289,Hello,37.5743004,126.9121504,서울특별시 서대문구 북가좌동 *** DMC 래미안 e편한세상,동물판매업
1290,멍블랑 강아지 강남점,37.5179203,127.0298846,서울특별시 강남구 역삼동 ***-** 역삼동제이빌딩,동물판매업
1291,카카오독,37.53811839999999,126.8471024,서울특별시 강서구 화곡동 ***-**,동물판매업
1292,왓더독 스타일,37.5686067,126.8395831,서울특별시 강서구 마곡동 776-2번지 마곡센트럴대방디엠시티오피스텔 ,동물판매업
1293,왓더독,37.5686067,126.8395831,서울특별시 강서구 마곡동 776-2번지 마곡센트럴대방디엠시티오피스텔 ,동물판매업
1294,왓더독,37.5686067,126.8395831,서울특별시 강서구 마곡동 776-2번지 마곡센트럴대방디엠시티오피스텔 ,동물판매업
1295,멋지고 이쁜개,37.5679458,126.8118984,서울특별시 강서구 방화동 597-18번지 ,동물판매업
1296,멋지고 이쁜개,37.5679458,126.8118984,서울특별시 강서구 방화동 597-18번지 ,동물판매업
1297,꼬망스 펫 살롱,37.5764888,126.8307466,서울특별시 강서구 마곡동 768-2번지 동익드미라벨복합빌딩 ,동물판매업
1298,펫고고,37.5523954,126.8537876,서울특별시 강서구 화곡동 1047-33번지 남광아트빌 ,동물판매업
1299,순독살롱,37.5500626,126.8685085,서울특별시 강서구 염창동 275-8번지 태선빌딩 ,동물판매업
1300,바크바크,37.5764888,126.8307466,서울특별시 강서구 마곡동 793-4번지 101호,동물판매업
1301,본동애견,37.5329819,126.8449005,서울특별시 강서구 화곡동 348-4번지 ,동물판매업
1302,영하개,37.6304778,127.0901988,서울특별시 노원구 공릉동 ***-* *층,동물판매업
1303,아쿠아플러스 강서점,37.5584359,126.8547981,서울특별시 강서구 등촌동 639-11번지 ,동물판매업
1304,(주)밀레펫 가양점,37.5648322,126.8342406,서울특별시 강서구 가양동 ,동물판매업
1305,로얄수족관,37.53811839999999,126.8471024,서울특별시 강서구 화곡동 ,동물판매업
1306,아프리카펫센터,37.558653,126.8532512,서울특별시 강서구 등촌동 ,동물판매업
1307,도그플러스 동물병원,37.558653,126.8532512,서울특별시 강서구 등촌동 ,동물판매업
1308,영점일프로 강서점,37.5428552,126.8431357,서울특별시 강서구 화곡동 98-55번지 ,동물판매업
1309,냉큼 오레오,37.5527859,126.8530693,서울특별시 강서구 화곡동 1115-35,동물판매업
1310,퍼피앤허니,37.5466465,126.8451378,서울특별시 강서구 화곡동 94-4번지 ,동물판매업
1311,강동수족관(롯데마트 김포공항점),37.5764563,126.813873,서울특별시 강서구 방화동 ,동물판매업
1312,퍼피앤유(PUPPY&U),37.577475,126.8125409,서울특별시 강서구 방화동 829-4번지 금강프라자빌딩 203호,동물판매업
1313,밀레쥬 가양점,37.5642454,126.8499416,서울특별시 강서구 가양동 18-24번지 ,동물판매업
1314,엠펫,37.5489774,126.9762012,서울특별시 용산구 후암동 108-11,동물판매업
1315,라운지독,37.5604386,126.8447789,서울특별시 강서구 등촌동 695-1번지 현대교육센터 ,동물판매업
1316,하울 애견 유치원,37.5317992,126.8582818,서울특별시 강서구 화곡동 837-7번지 ,동물판매업
1317,오조호조,37.6700265,127.0407542,서울특별시 도봉구 도봉동 610-35,동물판매업
1318,설레임,37.5268187,127.0456863,서울특별시 강남구 청담동 123-27 메호르디아 청담 1빌딩,동물판매업
1319,서초M동물의료센터,37.4881006,127.0149404,서울특별시 서초구 서초동 1624-1 영빌딩,동물판매업
1320,빙글독,37.5572969,126.837456,서울특별시 강서구 내발산동 696-22번지 해피하우스 ,동물판매업
1321,몽셰리,37.51047,127.0357802,서울특별시 강남구 논현동 ***-* 논현 아이파크,동물판매업
1322,외박해도 괜찮아,37.5472292,126.843511,서울특별시 강서구 화곡동 84-5번지 서흥빌딩 ,동물판매업
1323,스카이동물병원,37.5731229,126.8117935,서울특별시 강서구 방화동 569-12번지 해성빌딩 ,동물판매업
1324,염창제일동물병원,37.5530746,126.8697331,서울특별시 강서구 염창동 244-26번지 ,동물판매업
1325,염창제일동물병원,37.5530746,126.8697331,서울특별시 강서구 염창동 244-26번지 ,동물판매업
1326,퍼피랩 익스클루시브,37.5231998,127.0486655,서울특별시 강남구 청담동 **-*,동물판매업
1327,제이에스콜밴,37.4824595,126.8498177,서울특별시 구로구 개봉동 477번지 개봉동대상아파트 ,동물판매업
1328,플라이플라잉,37.4967,126.8370119,서울특별시 구로구 오류동 3-28번지 ,동물판매업
1329,24시 지구촌 동물 메디컬 센타 미용 분양,37.4992301,126.8848469,서울특별시 구로구 구로동 519-4번지 ,동물판매업
1330,Juni Dog,37.4965412,126.8579277,서울특별시 구로구 개봉동 170-30번지 신개봉삼환아파트 ,동물판매업
1331,내 품안의 반려견(강서점),37.5428634,126.8386488,서울특별시 강서구 화곡동 1051-1 경동엠파이어시티,동물판매업
1332,대학동물병원,37.6150815,127.0657675,서울특별시 성북구 장위동 8-2 석계역 한일노벨리아시티 210호,동물판매업
1333,Juni Dog,37.4965412,126.8579277,서울특별시 구로구 개봉동 170-30번지 신개봉삼환아파트 ,동물판매업
1334,워시포레,37.5040683,126.8682042,서울특별시 구로구 고척동 60-9번지 백광산업주식회사 ,동물판매업
1335,댕댕이루,37.5510075,127.0472534,서울특별시 성동구 성수동1가 656-491,동물판매업
1336,준펫살롱,37.4873308,126.8547303,서울특별시 구로구 개봉동 361-2번지 삼성쉐르빌 ,동물판매업
1337,준펫살롱,37.4873308,126.8547303,서울특별시 구로구 개봉동 361-2번지 삼성쉐르빌 ,동물판매업
1338,(주)잇펫,37.4820569,126.895277,서울특별시 구로구 구로동 222-12번지 마리오타워 804호,동물판매업
1339,오류동,37.4955357,126.8393697,서울특별시 구로구 오류동 6-85번지 ,동물판매업
1340,고척원동물의료센터,37.498029,126.8642314,서울특별시 구로구 고척동 76-38번지 원메디타운 201호,동물판매업
1341,고척 원 동물의료센터,37.498029,126.8642314,서울특별시 구로구 고척동 76-38번지 원메디타운 201호,동물판매업
1342,로이애견,37.49315929999999,126.8533587,서울특별시 구로구 개봉동 305-34번지 ,동물판매업
1343,금강종합동물병원,37.4953416,126.8429191,서울특별시 구로구 오류동 48-1번지 ,동물판매업
1344,캥거루동물병원,37.4897883,126.8397764,서울특별시 구로구 오류동 166-9번지 ,동물판매업
1345,해피동물병원,37.5035194,126.8616532,서울특별시 구로구 고척동 50-95번지 ,동물판매업
1346,푸른동물병원,37.4885431,126.8843047,서울특별시 구로구 구로동 722-4번지 ,동물판매업
1347,나리펫살롱,37.4955279,126.8914678,서울특별시 구로구 구로동 95-10번지 ,동물판매업
1348,벨라동물병원,37.5005388,126.8846046,서울특별시 구로구 구로동 501-12번지 진명빌딩 ,동물판매업
1349,꿈꾸는 강아지,37.4949854,126.8307915,서울특별시 구로구 궁동 212-10번지 송보빌딩 ,동물판매업
1350,허브동물병원,37.4958336,126.87265,서울특별시 구로구 구로동 650-4번지 SK허브수 B동 205호,동물판매업
1351,강아지군대가는날,37.498556,126.8546027,서울특별시 구로구 개봉동 154-106번지 ,동물판매업
1352,하우독,37.5039239,127.1149732,서울특별시 송파구 송파동 102-27,동물판매업
1353,런투독(RUN TO DOG),37.4883762,126.8960075,서울특별시 구로구 구로동 1256번지 현대아파트 ,동물판매업
1354,24시 지구촌 동물메디컬센터 미용 분양,37.4992301,126.8848469,서울특별시 구로구 구로동 519-4번지 ,동물판매업
1355,개봉동물병원,37.5033957,126.8511087,서울특별시 구로구 고척동 265-4번지 ,동물판매업
1356,아이러브펫동물병원,37.5094291,126.8876466,서울특별시 구로구 신도림동 337번지 신도림1차푸르지오 ,동물판매업
1357,구로종합동물병원,37.5069016,126.886619,서울특별시 구로구 신도림동 432-1번지 신도림에스케이뷰 ,동물판매업
1358,24시 지구촌 동물메디컬센터 미용 분양,37.4992301,126.8848469,서울특별시 구로구 구로동 519-4번지 ,동물판매업
1359,행복하개키울고양,37.5866998,127.0290956,서울특별시 성북구 안암동*가 **,동물판매업
1360,캣스테이,37.5011414,126.8625002,서울특별시 구로구 고척동 **-**,동물판매업
1361,굿모닝동물병원,37.4966167,126.8561624,서울특별시 구로구 개봉동 353-15번지 ,동물판매업
1362,드림동물병원,37.5028461,126.8632325,서울특별시 구로구 고척동 343번지 고척 월드메르디앙 ,동물판매업
1363,명동물메디컬센터,37.50219,126.847823,서울특별시 구로구 개봉동 492번지 개봉푸르지오 ,동물판매업
1364,라라동물의료원,37.4893062,126.8916581,서울특별시 구로구 구로동 309-2번지 ,동물판매업
1365,시바나라,37.5450985,126.9487739,서울특별시 마포구 공덕동 385-65 공덕SK리더스뷰,동물판매업
1366,조은주펫택시,37.5273435,126.9971036,서울특별시 용산구 보광동 228-123,동물판매업
1367,라라동물의료원,37.4893062,126.8916581,서울특별시 구로구 구로동 309-2번지 ,동물판매업
1368,안정택동물병원,37.49717160000001,126.8360388,서울특별시 구로구 오류동 353-1번지 골드프라자 ,동물판매업
1369,개명동물병원,37.4901449,126.8562894,서울특별시 구로구 개봉동 403-138번지 ,동물판매업
1370,멍타냥,37.67180159999999,127.0822619,서울특별시 노원구 상계동 **** 노원센트럴푸르지오 ***동 ***호,동물판매업
1371,금이네펫#,37.48372519999999,126.8413333,서울특별시 구로구 천왕동 산 13-1번지 천왕연지타워 ,동물판매업
1372,금이네 펫#,37.48372519999999,126.8413333,서울특별시 구로구 천왕동 산 13-1번지 천왕연지타워 ,동물판매업
1373,사랑동물병원,37.49081839999999,126.8939041,서울특별시 구로구 구로동 152-6번지 ,동물판매업
1374,신도림동물병원,37.5094291,126.8876466,서울특별시 구로구 신도림동 337번지 신도림1차푸르지오 101동 139호,동물판매업
1375,PET TAXI(TP),37.5049399,126.8630986,서울특별시 구로구 고척동 43-27번지 ,동물판매업
1376,구로애조원,37.4902077,126.8851009,서울특별시 구로구 구로동 731-11번지 ,동물판매업
1377,24시 명동물메디컬센터,37.50042759999999,126.8482318,서울특별시 구로구 개봉동 90-22번지 ,동물판매업
1378,(주)펫뱅크(홈플러스 신도림점),37.5095875,126.8875948,서울특별시 구로구 신도림동 337번지 홈플러스 신도림점 지하1층 ,동물판매업
1379,로얄수족관,37.4842934,126.8978963,서울특별시 구로구 구로동 188-26번지 (주)이마트 구로점 ,동물판매업
1380,송대현펫택시,37.492639,126.8210059,서울특별시 구로구 온수동 22-10번지 청구그린빌 ,동물판매업
1381,앙팡 Pet 하우스,37.6104478,127.0351309,서울특별시 성북구 하월곡동 80-23,동물판매업
1382,주세요닷컴,37.4842333,126.8992725,서울특별시 구로구 구로동 811번지 코오롱싸이언스밸리2차 ,동물판매업
1383,딜라잇펫,37.4957233,126.8403133,서울특별시 구로구 오류동 9-177번지 ,동물판매업
1384,블라썸독,37.4579752,126.8943466,서울특별시 금천구 독산동 1150번지 금천롯데캐슬골드파크2차 142호,동물판매업
1385,블라썸독,37.4579752,126.8943466,서울특별시 금천구 독산동 1150번지 금천롯데캐슬골드파크2차 142호,동물판매업
1386,냥카페 묘연,37.4473571,126.9029504,서울특별시 금천구 시흥동 985-8,동물판매업
1387,수아쿠아,37.4772534,126.8935309,서울특별시 금천구 가산동 151-18번지 지하층 ,동물판매업
1388,수아쿠아,37.4772534,126.8935309,서울특별시 금천구 가산동 151-18번지 지하층 ,동물판매업
1389,냥카페 묘연,37.4473571,126.9029504,서울특별시 금천구 시흥동 985-8번지 ,동물판매업
1390,냥카페 묘연,37.4473571,126.9029504,서울특별시 금천구 시흥동 985-8번지 ,동물판매업
1391,더빛나개,37.45615799999999,126.898036,서울특별시 금천구 시흥동 109-1번지 무지개아파트 상가동 1층 19호,동물판매업
1392,내품안의반려견 노원점,37.67480279999999,127.0730618,서울특별시 노원구 상계동 ***,동물판매업
1393,도치퀸,37.4746528,126.8822218,서울특별시 금천구 가산동 345-29번지 대륭테크노타운19차 B108호,동물판매업
1394,골드퍼피동물병원 공릉점,37.6304778,127.0901988,서울특별시 노원구 공릉동 ***-* *층,동물판매업
1395,다움동물병원,37.4845737,127.0414379,서울특별시 영등포구 신길동 ***-** 영민빌딩,동물판매업
1396,금나래동물병원,37.4579752,126.8943466,서울특별시 금천구 독산동 1150번지 금천롯데캐슬골드파크2차 205동 211호,동물판매업
1397,웰리스동물병원,37.6389443,127.0647295,서울특별시 노원구 중계동 506-1 건영옴니백화점 5층,동물판매업
1398,하우독,37.5039239,127.1149732,서울특별시 송파구 송파동 102-27,동물판매업
1399,금나래동물병원,37.4579752,126.8943466,서울특별시 금천구 독산동 1150번지 금천롯데캐슬골드파크2차 205동 211호,동물판매업
1400,조정연동물병원,37.4525535,126.9057724,서울특별시 금천구 시흥동 838-33번지 ,동물판매업
1401,제일종합동물병원,37.4525262,126.9062305,서울특별시 금천구 시흥동 837-37번지 ,동물판매업
1402,제일종합동물병원,37.4525262,126.9062305,서울특별시 금천구 시흥동 837-37번지 ,동물판매업
1403,노아동물병원,37.4501716,126.9125588,서울특별시 금천구 시흥동 262-6번지 ,동물판매업
1404,금천24시 K동물의료센터,37.4561302,126.8995358,서울특별시 금천구 시흥동 999-1번지 도일산호시티빌 105호,동물판매업
1405,금천24시 K동물의료센터,37.4561302,126.8995358,서울특별시 금천구 시흥동 999-1번지 도일산호시티빌 105호,동물판매업
1406,파트너펫,37.4528454,126.9058744,서울특별시 금천구 시흥동 838-28번지 ,동물판매업
1407,해피치 애견카페,37.4649069,126.8971192,서울특별시 금천구 독산동 1009-29번지 류성빌딩 101호,동물판매업
1408,해피치 애견카페,37.4649069,126.8971192,서울특별시 금천구 독산동 1009-29번지 류성빌딩 101호,동물판매업
1409,해피치 애견카페,37.4649069,126.8971192,서울특별시 금천구 독산동 1009-29번지 류성빌딩 101호,동물판매업
1410,금천종합동물병원,37.4637875,126.9035095,서울특별시 금천구 독산동 378-397번지 ,동물판매업
1411,하룻강아지,37.4599739,126.9055117,서울특별시 금천구 시흥동 802-32번지 ,동물판매업
1412,24시 글로리 동물병원,37.4767045,126.8982445,서울특별시 금천구 독산동 145-13번지 ,동물판매업
1413,24시 글로리 동물병원,37.4767045,126.8982445,서울특별시 금천구 독산동 145-13번지 ,동물판매업
1414,조아동물병원,37.4537434,126.8903702,서울특별시 금천구 독산동 1102-5번지 2호,동물판매업
1415,그린동물병원,37.4709381,126.9032072,서울특별시 금천구 독산동 193-31번지 ,동물판매업
1416,독산온동물병원,37.4669783,126.9015016,서울특별시 금천구 독산동 1023-14번지 ,동물판매업
1417,우리동물메디컬센터,37.4796797,126.9047268,서울특별시 금천구 독산동 950-3번지 ,동물판매업
1418,우리동물메디컬센터,37.4796797,126.9047268,서울특별시 금천구 독산동 950-3번지 ,동물판매업
1419,쿨펫동물병원,37.4704705,126.8956692,서울특별시 금천구 독산동 295-10번지 롯데마트금천점 ,동물판매업
1420,파랑새동물병원,37.4582722,126.8995402,서울특별시 금천구 독산동 1077-31번지 ,동물판매업
1421,파랑새동물병원,37.4582722,126.8995402,서울특별시 금천구 독산동 1077-31번지 ,동물판매업
1422,릴리퀸 코리아,37.4809568,126.8863566,서울특별시 금천구 가산동 60-3번지 대륭포스트타워 5차 ,동물판매업
1423,SHIBASLUV,37.5150158,127.1183462,서울특별시 송파구 방이동 ***-* 보람파크빌리지,동물판매업
1424,쿨펫동물병원,37.4704705,126.8956692,서울특별시 금천구 독산동 295-10번지 롯데마트금천점 ,동물판매업
1425,개편한카페,37.4503296,126.9102521,서울특별시 금천구 시흥동 272-20번지 ,동물판매업
1426,개편한카페,37.4503296,126.9102521,서울특별시 금천구 시흥동 272-20번지 ,동물판매업
1427,은행나무종합동물병원,37.4515704,126.9071316,서울특별시 금천구 시흥동 909-5번지 삭암빌딩 ,동물판매업
1428,고양이무마취미용 고무미,37.4771834,126.9103953,서울특별시 금천구 독산동 906-18번지 남강카서비스 ,동물판매업
1429,아쿠아플러스(주) 금천점,37.4684898,126.8968135,서울특별시 금천구 독산동 291-7번지 홈플러스 3층 ,동물판매업
1430,더 예쁘개,37.4664902,126.902785,서울특별시 금천구 독산동 1038-6 1층,동물판매업
1431,쿨펫동물병원,37.4704705,126.8956692,서울특별시 금천구 독산동 295-10번지 롯데빅마켓 3층 ,동물판매업
1432,파랑새 동물병원,37.4592203,126.8991781,서울특별시 금천구 독산동 1077-0031번지 ,동물판매업
1433,고양이무마취미용 고무미,37.4771834,126.9103953,서울특별시 금천구 독산동 906-18번지 남강카서비스 ,동물판매업
1434,멍멍아놀자,37.4695036,126.9027274,서울특별시 금천구 독산동 192-1번지 ,동물판매업
1435,더독스,37.469379,126.897064,서울특별시 금천구 독산동 291-5번지 시티렉스 407호,동물판매업
1436,더조은동물의료센터,37.4494769,126.9032992,서울특별시 금천구 시흥동 904-6번지 서우빌딩 ,동물판매업
1437,더조은동물의료센터,37.4494769,126.9032992,서울특별시 금천구 시흥동 904-6번지 서우빌딩 ,동물판매업
1438,순덕이네,37.4534637,126.9117426,서울특별시 금천구 시흥동 212-3번지 ,동물판매업
1439,도그킹,37.4545575,126.9009328,서울특별시 금천구 시흥동 883번지 ,동물판매업
1440,재롱이 애견쎈터,37.4689425,126.9020731,서울특별시 금천구 독산동 195-7번지 ,동물판매업
1441,(주)에이플러스 시흥점,37.4518699,126.9007568,서울특별시 금천구 시흥동 992-47번지 홈플러스 지하1층 ,동물판매업
1442,멍멍아놀자,37.4696871,126.9027858,서울특별시 금천구 독산동 192-2번지 ,동물판매업
1443,K.style(케이스타일),37.4980473,126.91723,서울특별시 영등포구 신길동 4346-2번지 ,동물판매업
1444,바스텟,37.5195115,126.9078666,서울특별시 영등포구 영등포동5가 2번지 성일빌딩 ,동물판매업
1445,다온 펫택시,37.53198210000001,126.9030334,서울특별시 영등포구 당산동5가 42번지 당산 삼성 래미안 ,동물판매업
1446,라이프 동물병원,37.505654,126.907013,서울특별시 영등포구 신길동 4945번지 래미안프레비뉴 ,동물판매업
1447,꽃단장 애견미용실,37.5233486,126.9077563,서울특별시 영등포구 영등포동7가 203번지 아크로타워 스퀘어 ,동물판매업
1448,꽃단장 애견미용실,37.5233486,126.9077563,서울특별시 영등포구 영등포동7가 203번지 아크로타워 스퀘어 ,동물판매업
1449,한가람동물의료센터,37.5134014,126.9185602,서울특별시 영등포구 신길동 100-12번지 중양빌딩 ,동물판매업
1450,한가람동물의료센터,37.5134014,126.9185602,서울특별시 영등포구 신길동 100-12번지 중양빌딩 ,동물판매업
1451,미스터 토리,37.5069932,126.9016462,서울특별시 영등포구 도림동 151-2번지 ,동물판매업
1452,냥이야 가자,37.5411604,126.8906499,서울특별시 영등포구 양평동6가 10-5번지 리베하임 ,동물판매업
1453,도그밍,37.537865,126.893927,서울특별시 영등포구 양평동5가 108-4번지 선유도나인빌 A동 ,동물판매업
