,사업장명,주소,위도,경도
0,테이블에이 본점,서울 마포구 와우산로 146 그레이스빌딩 1층,37.5540614,126.9295168
1,다온펫샵,서울 마포구 신촌로14길 20 태인빌딩 1층,37.555195,126.9333484
2,애디앤루이스,서울 마포구 성미산로 160 1층,37.56445431,126.9240029
3,폴리파크 홍대점,서울 마포구 동교로 192-1,37.55726708,126.9227829
4,개밥하우스 마포점,서울 마포구 월드컵북로 109,37.56290229,126.9135778
5,스프링펫 동교본점,서울 마포구 양화로 189,37.55861012,126.925755
6,펫하우스,서울 마포구 월드컵로 149 1층,37.56096557,126.9053181
7,크루마이즈,서울 마포구 마포대로4라길 30-5 1층,37.53698408,126.9461912
8,망원휴개소,서울 마포구 희우정로 77,37.55314381,126.9027403
9,펫다이어리,서울 마포구 방울내로 44,37.5589138,126.9006823
10,도기랑냥이랑 합정점,서울 마포구 독막로 17-1,37.54872229,126.9155522
11,강아지미용실왕왕,서울 마포구 마포대로11길 92 1층,37.54891874,126.949292
12,페스룸,서울 마포구 양화로11길 12 현담빌딩 1층,37.55208624,126.916166
13,오마이리틀베이비,서울 마포구 포은로2가길 6 2층,37.55137532,126.9077747
14,펫고리,서울 마포구 성미산로29길 30-3 지하1층,37.56549666,126.9221874
15,몽냥몽냥,서울 마포구 양화로 122 1층,37.55407205,126.9206039
16,반려독,서울 마포구 망원로1길 22 장수필하우스 1층 102호,37.55739272,126.9000266
17,꼬떼아꼬떼,서울 마포구 월드컵로11길 74,37.55379198,126.9069739
18,장보는강아지와고양이 롯데슈퍼 마포점,서울 마포구 토정로 193,37.54583616,126.9325594
19,마이펫글리,서울 마포구 성미산로1길 5,37.55839,126.9085426
20,베라펫,서울 마포구 홍익로3길 7 104호,37.55397916,126.922242
21,오복파티,서울 마포구 성미산로26길 37 102호,37.56230731,126.9234265
22,멍이방앗간,서울 마포구 포은로 37,37.55082117,126.9073843
23,강아지고양이편의점 연남점,서울 마포구 동교로46길 40,37.56215623,126.926723
24,바이도기,서울 마포구 와우산로21길 21-16 아트코빌딩 2층,37.55168391,126.9221709
25,펫모아 마포점,서울 마포구 신촌로 254,37.55702594,126.9539721
26,도그원펫센터 망원점,서울 마포구 월드컵로13길 9,37.55558685,126.909751
27,강아지고양이편의점 망원점,서울 마포구 포은로 65,37.55312639,126.9061471
28,팀버울프코리아,서울 마포구 성산로2길 45 2층,37.56303188,126.9050537
29,우프바이베럴즈 합정점,서울 마포구 월드컵로3길 14 딜라이트스퀘어 B동 지하1층,37.55100797,126.911649
30,펫타운,서울 마포구 월드컵로25길 69,37.55760967,126.9039155
31,하니펫아지천국,서울 마포구 월드컵로25길 48 1층,37.55805242,126.9050324
32,씨엘펫애완용품,서울 마포구 창전로 48-1,37.54666851,126.9325756
33,러브펫,서울 마포구 포은로 88,37.55488858,126.9053904
34,루이비독,서울 마포구 망원로 49 지하 1층,37.55693668,126.9022308
35,행복식탁,서울 마포구 와우산로29길 56-10 B01호,37.55628483,126.9273614
36,댕과댕빵,서울 마포구 백범로 66 2층,37.54906028,126.9389978
37,강아지고양이편의점 망원한강점,서울 마포구 망원로 1-4 5호,37.55596637,126.897013
38,누우띠,서울 마포구 성미산로 147 104호,37.5641886,126.9227471
39,페슈,서울 마포구 성지5길 5-15 벤처빌딩 203호,37.54638633,126.9140146
40,멍뭉샵,서울 마포구 동교로 57-4,37.55358323,126.9087309
41,몽테,서울 마포구 성미산로 190-25 제지층 01호,37.56256758,126.9259269
42,아베크인터내셔날,서울 마포구 독막로8길 28,37.5467516,126.9176798
43,댕냥슈퍼,서울 마포구 숭문길 32,37.54793706,126.945575
44,니쿠큐,서울 마포구 와우산로 150,37.55430325,126.9298568
45,피앤피스토리,서울 마포구 성미산로1길 74 2층,37.56095133,126.9065637
46,얌얌,서울 마포구 성미산로3길 24 지하1층,37.55944584,126.9093175
47,도그베이커리,서울 마포구 망원로 74,37.55722589,126.9049798
48,스테이튠드,서울 마포구 월드컵북로 30 401호,37.55735994,126.9193706
49,퍼피핸드,서울 마포구 동교로8길 35 101호,37.55045378,126.9056086
50,펫그로서리,서울 마포구 광성로6길 56 노블하우스 1층 101호,37.54762466,126.9397598
51,토피토피,서울 마포구 마포대로 12,37.53786613,126.9443936
52,로렌츠,서울 서대문구 수색로 43,37.56979231,126.9133525
53,라니펫,서울 서대문구 남가좌동 277-2,37.56979231,126.9133525
54,도기랑냥이랑 응암점,서울 서대문구 응암로 139 1층,37.58477547,126.9145767
55,펫마트 홍은점,서울 서대문구 가좌로 110 1층,37.58248259,126.9262983
56,예일애견용품분양,서울 서대문구 거북골로 13,37.58067969,126.9258457
57,보보스퍼피,서울 서대문구 증가로 115,37.57686832,126.924578
58,벅구베이크 연희점,서울 서대문구 연희로 82 1층 A동 104호,37.56521501,126.9302729
59,도기랑냥이랑 신사점,서울 은평구 증산로 413 1층,37.59314092,126.9138467
60,행복한동물병원,서울 양천구 공항대로 636 1층,37.54661737,126.8753477
61,폴리파크 신촌점,서울 서대문구 신촌로 91,37.55558816,126.9363752
62,하룻강아지,서울 강서구 양천로 713 대영빌딩 705호,37.54984059,126.8752509
63,매일매일,서울 영등포구 양평로22길 25 201호,37.54003897,126.8953711
64,도그맘,서울 은평구 응암로13길 27 2층,37.58866033,126.9143952
65,토마네애견용품,서울 서대문구 연희로 227 러브아트빌딩 203호,37.57739625,126.9354279
66,데어바이,경기 고양시 덕양구 덕은3로 6 1층,37.58760621,126.8754681
67,펫푸드스토리,서울 은평구 가좌로 212-12,37.58975825,126.9186919
68,펫블라썸,서울 은평구 응암동 126-21 B102호,37.58975825,126.9186919
69,유앤비컴퍼니,서울 강서구 양천로63길 38,37.55701083,126.8658908
70,봄이랜드,서울 은평구 가좌로 333 지하층,37.59657772,126.9082981
71,멍콩까까,서울 은평구 은평터널로 196 지하 1층,37.59582764,126.9091139
72,개상전 애견용품점,서울 은평구 은평로 22,37.59774848,126.9105508
73,알파펫,서울 양천구 공항대로 540 2층,37.55023229,126.8658343
74,더펫샵,서울 은평구 은평로 22,37.59774848,126.9105508
75,도리도리펫샵,서울 은평구 응암로 279 삼흥리치아파트 1층,37.59677078,126.9193829
76,울지마마이펫,서울 강서구 양천로 551-17 1205호,37.55910956,126.8609412
77,도그버디 목동점,서울 양천구 목동중앙북로 11,37.54865667,126.8647676
78,펫츠도어,서울 서대문구 신촌로 169-7 105호,37.55710621,126.9445221
79,예뻐할개,서울 서대문구 홍제내길 152,37.58862437,126.9375035
80,크로스앰,서울 강서구 화곡로68길 82 강서아이티밸리 309호,37.55753932,126.8583018
81,집사들,서울 영등포구 선유로43가길 24,37.53142734,126.8920117
82,댕저트,경기 고양시 덕양구 향기로 123 센타프라자 2층 208호,37.60067631,126.8942757
83,강아지고양이편의점 목동점,서울 양천구 목동중앙로 97,37.53781654,126.872598
84,블루맘,서울 양천구 목동중앙로7길 51 1층,37.53920298,126.8705068
85,멍멍옷,서울 양천구 목동중앙북로8라길 20,37.54647581,126.8640641
86,링트리,서울 강서구 공항대로 461-12,37.55442866,126.8587075
87,펫마인드,서울 강서구 양천로 482 삼부르네상스오피스텔 1층 106호,37.56126285,126.8539256
88,하룻강아지,서울 영등포구 영중로 140 드림플라자 5층 A-7호,37.52877112,126.9060559
89,레드퍼피,서울 영등포구 국회대로 553,37.52856503,126.8961119
90,알모네이쳐코리아,서울 강서구 화곡로68길 15 아벨테크노 808호,37.55945501,126.8553228
91,개밥 하우스,서울 양천구 등촌로 114,37.54014367,126.8640552
92,모모펫,서울 은평구 역말로 54,37.60580902,126.9164652
93,멍박사 강서점,서울 강서구 까치산로 152,37.55076051,126.8524386
94,오케이펫코리아,서울 영등포구 영등포로25길 28-1,37.52351407,126.898466
95,vet7,서울 은평구 은평로13길 10 신풍빌딩 6층,37.60215823,126.9256558
96,도그버디 불광점,서울 은평구 진흥로 147-1,37.60880551,126.9260163
97,홈독애견마트 홍제점,서울 서대문구 통일로 397 인왕산 한신휴플러스 1층,37.5851683,126.9473981
98,지지독,서울 양천구 신목로6길 34 1층,37.52155078,126.875568
99,강아지와고양이나라 불광점,서울 은평구 통일로 790 1층,37.61523052,126.925968
100,해피펫,서울 은평구 연서로17길 18-5,37.61338927,126.915763
101,란스,서울 양천구 목동중앙남로 21,37.53594621,126.8678158
102,도그브레드,서울 강서구 등촌로13길 35,37.53538137,126.8612904
103,이펫 마곡본점,서울 강서구 강서로 433 마곡오드카운티2차 1층,37.56439845,126.8396576
104,밥 애완용품전문점 목동점,서울 양천구 목동로15길 5 1층,37.52402406,126.8640661
105,펫플러스,서울 강서구 국회대로 171,37.52889245,126.8540343
106,도그스푼,서울 서대문구 홍은중앙로3길 22 1층,37.59842074,126.9460305
107,콩이네애완용품할인매장,서울 강서구 강서로 40 1층,37.5315258,126.847125
108,스프링펫 서대문점,서울 서대문구 통일로 185-1,37.57006383,126.9621641
109,머슬펫,서울 강서구 화곡로 286-1 1층,37.54994211,126.848297
110,위펫,서울 은평구 서오릉로 234,37.61571824,126.9086281
111,와와유통,서울 영등포구 영등포로37길 26,37.52243763,126.9058357
112,루미앤비비,서울 서대문구 모래내로 464 105호,37.58567336,126.9463032
113,BOB 영등포점,서울 영등포구 신길로 243 1층,37.51370502,126.9108308
114,냥이와멍이상점,서울 강서구 까치산로 30 1층 4호,37.54221143,126.843786
115,뮤니쿤트,서울 서대문구 통일로 484 서대문구신지식산업센터 311-1호,37.5916068,126.9429418
116,프리미엄 바이마이디어,서울 강서구 강서로56가길 55 1층,37.5620691,126.8402545
117,티제이코리아,서울 영등포구 경인로112길 4 1층,37.51800678,126.9132656
118,리프패럿 앵무새체험관카페 신정점,서울 양천구 은행정로 13 성광빌딩 5층 B호,37.52082171,126.8597444
119,펫죤상사,서울 강서구 국회대로7길 34,37.53014745,126.8589988
120,도그원펫센터,서울 은평구 연서로29길 24 지층,37.6196146,126.9177467
121,어니스트밀,서울 은평구 통일로 715 9층 은평사회적경제혁신밸리센터 11호,37.60941395,126.9303084
122,우리동네펫,서울 서대문구 세검정로 49,37.59252333,126.9464958
123,잇츠써니아웃사이드,서울 영등포구 선유서로 128 양평역대우미래사랑 A동 803호,37.52737422,126.8871279
124,대주통상,서울 서대문구 통일로 484 유진상가 320호,37.5916068,126.9429418
125,멍냥이와산다,서울 강서구 공항대로41길 75 경원프라자 104호,37.56114864,126.8463601
126,서촌양품,서울 종로구 사직로9길 6-1,37.576532,126.9686685
127,반려동물용품백화점 용산점,서울 용산구 새창로14길 48 1층,37.53746075,126.959374
128,퍼니퍼피샵,서울 강서구 곰달래로 245,37.53213365,126.8602459
129,고양이나무,서울 강서구 까치산로 46 1층,37.54320528,126.844983
130,애견사료용품,서울 강서구 국회대로7길 50,37.53003457,126.8581073
131,미소캣,서울 은평구 녹번로 37,37.60541759,126.9289236
132,동부상사,서울 영등포구 영등포로33길 23,37.52256242,126.9028426
133,간식나무,서울 영등포구 선유서로 67 1층 115호,37.52209338,126.8844551
134,펫소드,서울 영등포구 경인로79길 20,37.5136242,126.8935361
135,마리펫,서울 양천구 신정중앙로 20,37.52758935,126.853689
136,펫리미엄,서울 은평구 갈현로 269 1층,37.62086328,126.916338
137,다스블라우,서울 강서구 양천로 401,37.56570105,126.8476441
138,수양애완용품 용산점,서울 용산구 새창로 126,37.53632967,126.9608121
139,뽀송펫,서울 은평구 갈현로 211,37.61620098,126.9137737
140,스프링펫 용산점,서울 용산구 새창로14길 48,37.53746075,126.959374
141,춘펫샵,서울 은평구 통일로61길 7,37.60655216,126.9322146
142,애견샵,서울 은평구 통일로 803,37.61566482,126.9244461
143,애견용품도매상가,서울 중구 퇴계로 39 2층,37.55797078,126.9769357
144,똑똑한 독,서울 영등포구 신길로60마길 4-1,37.51353064,126.9128461
145,나니스펫푸드,서울 종로구 자하문로 298 1층,37.59942921,126.9600556
146,투비펫,서울 강서구 양천로 401 B-1012,37.56570105,126.8476441
147,작은손아린맘,서울 양천구 신목로 45-1,37.51927694,126.8726243
148,에스브이디씨,서울 영등포구 국제금융로 10 IFC몰 2층,37.52517752,126.9248767
149,루이독 현대백화점 목동점,서울 양천구 목동동로 257 지하2층,37.52719787,126.8746912
150,블루페블즈,서울 강서구 공항대로 219,37.55963488,126.8320108
151,샤워앤독,"서울 구로구 경인로 638 신도림sk뷰 상가 1,2층",37.50668795,126.886233
152,이노뱅크,서울 강서구 국회대로7길 50,37.53003457,126.8581073
153,깜순이네,서울 강서구 강서로17길 15,37.53302101,126.8449105
154,개빵집,서울 영등포구 양산로 138 1층,37.52365656,126.8981927
155,멍양사,서울 강서구 강서로62길 98 1층,37.56169883,126.8450141
156,더쉘,서울 용산구 효창원로86나길 7-1,37.54741374,126.9653222
157,나우위,서울 영등포구 여의대방로65길 6 15층,37.51918977,126.930533
158,반하츠,서울 영등포구 영등포로84길 3 트라빌 504호,37.51282671,126.9223059
159,퍼피짱,경기 고양시 덕양구 용두로47번안길 110 2층,37.62104881,126.8917625
160,컴펫라이프,서울 영등포구 국제금융로6길 33 1216호,37.52079083,126.926912
161,독바위펫,서울 은평구 불광로 114 1층,37.61687816,126.9329001
162,영원히지켜줄개,서울 강서구 가로공원로 184-2 2층,37.53680563,126.8364725
163,펫츠홈,경기 고양시 덕양구 서오릉로 452 1층,37.62789693,126.8903858
164,콜링코리아,서울 강서구 초록마을로 149-12,37.5360022,126.8480732
165,개이버,서울 영등포구 도림로 462 국화아파트 상가 3층,37.51577851,126.8923582
166,강아지세상,서울 서대문구 홍은중앙로 114,37.60046092,126.9490343
167,가원펫애견샵,서울 양천구 신월로 220,37.52135003,126.846604
168,캣그린스,서울 강서구 공항대로 220 917호,37.5587038,126.8317656
169,토토팬시,서울 중구 퇴계로 39 영창상가 3층 2호,37.55797078,126.9769357
170,개밥주는고양이 신길점,서울 영등포구 가마산로 394 성락빌딩 1층,37.50306231,126.9010444
171,멍멍신도시,서울 강서구 곰달래로 85,37.5304298,126.8423073
172,옥희독희,서울 강서구 공항대로 220 우성에스비타워2 10층 1017호,37.5587038,126.8317656
173,멍냥개냥,서울 양천구 신월로36길 19 2층,37.51995855,126.858686
174,와이독,서울 용산구 원효로41가길 10,37.53444611,126.9576236
175,BOB애완용품 서울본점,서울 양천구 국회대로 45,37.5267753,126.8398042
176,튼튼펫 연신내점,서울 은평구 연서로 267-1,37.62060461,126.9243595
177,허그허그,서울 양천구 오목로 157 1층,37.52500107,126.854873
178,스튜디오코지,서울 강서구 마곡중앙2로 35 619호,37.55796503,126.8306618
179,달키애견,서울 강서구 강서로45길 174 SM타워 B08호,37.5528719,126.8306113
180,리틀콜린,서울 용산구 원효로89길 19 3층,37.54072234,126.9680711
181,수제간식 얌,서울 양천구 신정동 1194-5 상가동 103호,37.5221275,126.8482056
182,빵댕잇,서울 종로구 자하문로1길 49-24 1층,37.57646544,126.9694391
183,애완용품할인마트,서울 용산구 한강대로 58,37.52578388,126.9650443
184,쥬비코,서울 중구 퇴계로2길 15 지하 1층,37.55695157,126.9774125
185,인터펫,서울 강서구 국회대로 55,37.52697161,126.8409902
186,호키포키,서울 강서구 마곡서로 175 상가동 103호,37.56890813,126.8242325
187,두원실업,서울 강서구 마곡중앙1로 26 마곡엠리체 605~608호,37.5586283,126.823855
188,젠틀펫몬스터,서울 영등포구 가마산로34길 3 우성빌딩 1층,37.49859206,126.8964197
189,스투키펫,서울 종로구 인사동길 24 덕원빌딩 1층,37.57294555,126.9865084
190,포먼트,서울 강서구 공항대로 212 퀸즈파크11 A동 1007호,37.55882481,126.8310076
191,슈퍼펫,서울 중구 명동4길 18,37.5619453,126.990151
192,론이네무인애완용품할인점,서울 강서구 가로공원로76길 100,37.53282366,126.8388354
193,네스트원랩,서울 은평구 갈현로 334 2층,37.62609626,126.9187295
194,강군,서울 영등포구 여의대방로53나길 33-1,37.51044548,126.9208603
195,아더펫,서울 영등포구 가마산로 401,37.50366949,126.9013631
196,개과천선,서울 양천구 월정로 177,37.53442461,126.8354771
197,웰빙상사,서울 강서구 강서로45길 174 수명산타워 B-08호,37.5528719,126.8306113
198,유어마이펫,서울 강서구 마곡서로 152 B동 216호,37.56771074,126.8256454
199,댕큐베리,서울 강서구 마곡서로 101 동익드미라벨 854호,37.56267069,126.8236056
200,멍이랑냥이랑,서울 영등포구 여의대방로 185 1층,37.50364617,126.9214535
201,BOB,서울 양천구 곰달래로6길 8,37.52915321,126.8349496
202,펫마트 양천점,서울 양천구 신월로 134,37.51656834,126.8388408
203,제이엔제이,서울 중구 퇴계로 39 3층 52호,37.55797078,126.9769357
204,야옹아놀자 마곡점,서울 강서구 마곡중앙로 161-1 2층 210호,37.56786566,126.8274534
205,강아지고양이편의점 신정점,서울 양천구 중앙로43길 14 래미안목동아델리체 단지내상가 121동 1층 112호,37.5204176,126.8513406
206,투스투스,서울 용산구 한강대로 170 2층,37.5337932,126.9727666
207,톤온펫,서울 중구 퇴계로 39 영창상가 3층 50호,37.55797078,126.9769357
208,쿠나이앤티,서울 종로구 평창4길 78 1층,37.61383224,126.9645417
209,견생냥품24시 삼청동점,서울 종로구 삼청로 131 2층,37.58709129,126.9814935
210,에스케이펫,서울 동작구 대방동15가길 20-3,37.50361689,126.9239278
211,다줄,서울 용산구 서빙고로 17 용산센트럴파크해링턴스퀘어 2층 98호,37.52690561,126.9665662
212,멍멍대학,서울 강서구 마곡서로 133 712동 1층 104호,37.5645561,126.8238387
213,비엔에스통상,서울 중구 퇴계로 39,37.55797078,126.9769357
214,리케이 본사,서울 구로구 경서로 81 리케이빌딩 3층,37.5041326,126.8606567
215,오파프,서울 용산구 한강대로 211,37.53718336,126.9726003
216,콩이오빠동물약국,서울 구로구 경인로47길 126 1층,37.50420906,126.8634825
217,독바위펫 연신초교점,서울 은평구 연서로37길 40-1,37.62480293,126.927638
218,애견용품도소매,서울 구로구 구로동로 235,37.49951814,126.8822209
219,골든스푼,서울 영등포구 신풍로 86,37.49982204,126.9155847
220,얌 펫푸드스튜디오,서울 양천구 중앙로29길 120-13 상가동 103호,37.52200713,126.8479968
221,도기랑냥이랑 신대방점,서울 동작구 상도로 49,37.5000375,126.926256
222,메이드바이핸드,서울 동작구 노량진1동 215-30,37.5000375,126.926256
223,바비펫샵,경기 고양시 덕양구 서정마을로 5 행신프라자 105호,37.61836921,126.846945
224,펫탑,서울 용산구 후암로4길 7,37.54681818,126.9786111
225,개구쟁이,서울 동작구 매봉로 169,37.51193129,126.9516859
226,멋지고이쁜개,서울 강서구 금낭화로 30,37.56799067,126.8119097
227,펫네이처,서울 중구 삼일대로 343 16층,37.56510046,126.9869596
228,개밥하우스 공항점,서울 강서구 공항대로 49-2 1층,37.56142953,126.8130396
229,장승애견,서울 동작구 상도로 171,37.50446239,126.9379482
230,트윈펫,경기 고양시 덕양구 충경로 135,37.61592849,126.8440981
231,꼬리치는강아지 상도점,서울 동작구 성대로 23,37.49963784,126.9329462
232,개밥,서울 용산구 소월로20길 30-1 1층,37.54521073,126.9852057
233,냥이용품아트호텔,서울 영등포구 신길로 70,37.49868392,126.9086036
234,아남실업,서울 양천구 남부순환로 552 4층,37.51930587,126.8380544
235,개밥파는고양이 마곡점,서울 강서구 공항대로 103 마곡엠벨리9단지아파트 907동 상가 1층,37.56230034,126.8191692
236,그냥가개,경기 고양시 덕양구 도래울2로 9-1 1층 102-1호,37.63013224,126.8704374
237,견생냥품 무인 24시 삼청동점,서울 종로구 삼청로 131 2층,37.58709129,126.9814935
238,공개수배,서울 양천구 남부순환로83길 47,37.51884602,126.8445769
239,씨유펫 고양도내점,경기 고양시 덕양구 도래울3로 24 102호,37.63032674,126.8721456
240,꼬리치는강아지,"서울 동작구 상도로 250 1층,지하1층",37.50460556,126.9462251
241,주주스토리,서울 양천구 남부순환로 585 유림웰스빌 103호,37.51679688,126.8399327
242,위글도기,서울 동작구 상도로 258-1,37.5040226,126.9465895
243,어센틱어카운트,서울 용산구 신흥로20길 20-3 1층,37.54665658,126.9846494
244,제이드펫,서울 구로구 경서로 81 현대빌딩 5층,37.5041326,126.8606567
245,딕시 고양지점,경기 고양시 덕양구 도래울2로 9-1 1층 102-1호,37.63013224,126.8704374
246,봄애완용품,경기 고양시 덕양구 충장로 2,37.61313477,126.8344814
247,지니펫,서울 양천구 지양로11길 13 1층,37.5216464,126.8320543
248,멍멍펀치,서울 동작구 노량진로32길 156,37.50939598,126.9544859
249,정군개사랑,서울 구로구 고척동 52-58,37.50219751,126.8641326
250,콜리올리 롯데마트 은평점,서울 은평구 통일로 1050,37.63753667,126.9179003
251,감성그루밍,서울 마포구 백범로15길 11 1층,37.54796407,126.9430338
252,라니펫,서울 서대문구 남가좌동 277-2,37.59252333,126.9464958
253,펫블라썸,서울 은평구 응암동 126-21 B102호,37.59677078,126.9193829
254,중앙애견,서울 중구 퇴계로 252-2,37.56233241,126.9998517
255,푸드마스터그룹,서울 종로구 혜화로 5,37.58616535,127.0004892
256,마이펫코리아,서울 중구 을지로 248 대광빌딩 303호,37.56616404,127.005642
257,야옹아멍멍해봐 성북점,서울 성북구 삼선교로24길 3,37.58969447,127.0151078
258,참피온애견,서울 중구 퇴계로 223,37.56204459,126.9965983
259,점푸캣,서울 종로구 혜화로 26-1 3층,37.58799301,126.99992
260,스몰스터프,서울 용산구 회나무로13나길 42-1 101호,37.54137981,126.9922267
261,동대문애완용품도매할인,서울 종로구 종로 290,37.57109999,127.0104742
262,강아지고양이편의점 한성대점,서울 성북구 동소문로6길 20-5,37.58809742,127.0082766
263,덴티스츠 어포인트먼트,서울 용산구 회나무로42길 4,37.54073091,126.9958483
264,스프링펫 창신점,서울 종로구 종로51길 16,37.572722,127.0119753
265,펫데렐라프로젝트,서울 용산구 회나무로26길 17,37.53922553,126.991106
266,마루펫,서울 중구 퇴계로 286 쌍림빌딩 617호,37.5630792,127.0035931
267,H펫 현대시티아울렛 동대문점,서울 중구 장충단로13길 20 2층,37.56873455,127.0076665
268,펫클럽 청계점,서울 종로구 청계천로 331 1층,37.57011285,127.0147743
269,뚜리까까,서울 성북구 동소문로2길 79 101호,37.5893528,127.0101753
270,올댓펫,서울 중구 동호로 204 동원빌딩 1층,37.55628036,127.0099297
271,와와펫 동묘점,서울 종로구 종로 334,37.57256617,127.0147924
272,라찌,서울 성북구 고려대로7마길 9 1층,37.58889741,127.0196475
273,밀리블리,서울 성북구 동소문로6길 4-3 2층,37.58876516,127.0079823
274,코지펫샵,서울 중구 청구로 65,37.55962993,127.0148449
275,니모르,서울 성북구 삼선교로10나길 11,37.58643385,127.0091006
276,네퓨레,서울 성북구 창경궁로 318 101호,37.58773477,127.0049115
277,솔티핫티,서울 용산구 이태원로55길 45,37.53786354,126.9989218
278,도기랑냥이랑 정릉점,서울 성북구 아리랑로 115,37.60208157,127.0136094
279,요술강아지,서울 성북구 보국문로 74,37.61094784,127.0091058
280,펫토맘,서울 성북구 삼선교로 40 4층,37.58811674,127.0100914
281,도모토로,서울 중구 동호로12길 106 301호,37.55968758,127.0126802
282,미니강아지,서울 중구 동호로 170-1,37.55368773,127.0119204
283,강아지풀,서울 은평구 진관3로 70,37.64225983,126.9231411
284,와와펫,서울 성북구 보국문로 34,37.60750647,127.0105737
285,스프링펫 돈암점,서울 성북구 동소문로20길 22,37.59158672,127.0165681
286,조스키친,서울 성북구 아리랑로 20,37.59463725,127.0162542
287,다이렉트 펫,서울 종로구 지봉로 29 금호팔레스 10층,37.57252376,127.0152809
288,루피네 소품집,서울 용산구 보광로 114-5 지층 101호,37.53317967,126.994656
289,마스터애견샵,서울 성북구 아리랑로 23 1층,37.59488363,127.0158656
290,스펠,서울 성북구 보문로13나길 8,37.57982183,127.0215672
291,아베크펫,서울 용산구 우사단로10길 61 B동 1층,37.53253565,126.9988537
292,펫컷,서울 성북구 동소문로 155 2층,37.59619483,127.0206596
293,메이드바이핸드,서울 동작구 노량진1동 215-30,37.55442866,126.8587075
294,츄펫샵,서울 용산구 장문로45길 78,37.52945126,127.0001841
295,메종드미우,서울 동대문구 난계로 252 2층,37.57410092,127.0236677
296,프링,서울 성북구 정릉로 307 길음뉴타운10단지아파트 상가동 1층,37.60322851,127.0178662
297,마이펫트너,서울 성동구 마장로 137 텐즈힐 상가 2층 2149호,37.56782502,127.0250536
298,더세컨드로워&포코앤루시,서울 용산구 우사단로10길 87,37.53210111,127.000238
299,커즈펫 금호점,서울 성동구 장터길 14-1,37.5482681,127.0173586
300,펫티셰,서울 성동구 무학로 33 텐즈힐 156동 106호,37.56916416,127.0263479
301,빌라드봉봉,서울 성동구 왕십리로 410 센트라스 J 127동 111호,37.5665905,127.0240825
302,펫블라썸,서울 은평구 응암동 126-21 B102호,37.60941395,126.9303084
303,라니펫,서울 서대문구 남가좌동 277-2,37.57686832,126.924578
304,장보는강아지와고양이 고양동산점,경기 고양시 덕양구 고양대로 2006,37.64682342,126.9016855
305,삼송펫츠마트 삼송애완용품백화점,경기 고양시 덕양구 삼송로139번길 1,37.65271187,126.8892663
306,펫클럽 하나로삼송점,경기 고양시 덕양구 동송로 20 하나로마트 2층 목우촌펫,37.64863473,126.8988801
307,강아지 고양이 편의점 삼송점,경기 고양시 덕양구 동산동 369 1층 44호,37.64961273,126.8964741
308,오모펫,경기 고양시 덕양구 세솔로 82 베아누빌 4층,37.65137818,126.8887209
309,펫츠홈 삼송점,경기 고양시 덕양구 신원로2길 19 1층,37.66088625,126.8902733
310,앨리케익,경기 고양시 덕양구 삼원로1길 26 102호,37.64565627,126.8762008
311,장보는강아지와고양이 화계점,서울 강북구 삼양로 356 1층,37.63512703,127.0175942
312,쥬파크 강북점,서울 강북구 삼양로 112-1,37.61387096,127.0223271
313,솔샘펫아울렛,서울 강북구 솔샘로 226,37.61986249,127.0177929
314,애견용품 할인마트,서울 강북구 인수봉로 185-1,37.63635956,127.0128189
315,테라펫,서울 강북구 월계로 7 유창빌딩 2층 212호,37.60972073,127.0310703
316,와와펫 본점,서울 동대문구 제기로 85,37.58689456,127.0426735
317,365 애완용품할인마트,서울 강북구 솔매로 113,37.62597461,127.0247815
318,강아지고양이 수제간식&까페,서울 성동구 왕십리로24길 39,37.56596344,127.034484
319,장보는강아지와고양이 엔터식스파크애비뉴점,서울 성동구 왕십리로 241 지하1층,37.55715433,127.040105
320,핑키밍키,서울 동대문구 무학로 114-1 4층 전층,37.57437059,127.0310357
321,P마트,서울 성북구 오패산로 46,37.60747384,127.0387095
322,펫플러스,서울 성북구 월곡로5길 68,37.59928816,127.0361528
323,도그버디,서울 성동구 왕십리로21길 14,37.56129782,127.0328645
324,펫블라썸,서울 은평구 응암동 126-21 B102호,37.61566482,126.9244461
325,어몽앤디,서울 동대문구 안암로 104,37.5847679,127.0316376
326,브릭브릭,서울 성동구 마장로23길 6-12 지하1층,37.56686088,127.0324043
327,테일러독,서울 성북구 장위로 15,37.6135287,127.0386212
328,와와유통물류센터,서울 동대문구 왕산로33길 55,37.58190711,127.0416648
329,크럼페와앨리스,서울 강북구 숭인로 39 송천센트레빌 203동 102호,37.61275742,127.0266787
330,봉봉맘,서울 강북구 삼양로80나길 69 던킨빌리지 상가 1호,37.63407568,127.0208875
331,밸런스펫 수유시장점,서울 강북구 도봉로67길 18,37.63072891,127.0226681
332,비비안나,서울 강북구 솔매로 136,37.62637736,127.0271552
333,도기파크 미아점,서울 강북구 월계로7나길 8,37.61277164,127.033478
334,라니펫,서울 서대문구 남가좌동 277-2,37.53922553,126.991106
335,금쪽상회,서울 강북구 도봉로13가길 3,37.61466228,127.0293693
336,도기홀릭,서울 동대문구 약령시로 25 103동 303호,37.583147,127.0316997
337,와와유통,서울 동대문구 왕산로33길 66,37.58234827,127.0418328
338,퍼피하우스,서울 강북구 노해로 73,37.642169,127.0221352
339,허글 넬로 현대백화점 미아점,서울 성북구 동소문로 315 8층,37.60839984,127.0287436
340,좋은나라애견본부 장위점,서울 성북구 돌곶이로 151 1층,37.61509675,127.051652
341,애니몰파크,서울 강북구 도봉로96길 95,37.63814957,127.0331158
342,드림상사,서울 성동구 무학로8길 31,37.56546709,127.0344395
343,제제,서울 성동구 왕십리로 271 세왕빌딩별관 1층,37.55864946,127.0373033
344,드림상사,서울 성동구 마장로 233,37.56629725,127.0357211
345,러블리츄,서울 강북구 삼양로80나길 45 제일빌딩 1층,37.633043,127.0201871
346,펫마트,서울 성동구 사근동11길 7,37.56170885,127.0406945
347,넘버1958,서울 성동구 독서당로 281-1,37.54770402,127.0204781
348,유니애견용품,서울 성동구 행당로 87 대림리빙프라자상가 2층 207호,37.55729212,127.0285443
349,노캣노라이프,서울 성동구 고산자로6길 31,37.55798222,127.0348417
350,디펫,서울 동대문구 고산자로36길 3 3층 70113호,37.57903777,127.0391429
351,해피도그가축사료,서울 동대문구 왕산로 273,37.58515577,127.0507601
352,어질리티몰,서울 성동구 마장로 296,37.56628278,127.0431634
353,스프링펫 수유본점,서울 강북구 한천로 1056,37.64125535,127.0254852
354,365 애완용품할인마트,서울 강북구 노해로23길 77,37.64613004,127.0193246
355,도그버디 금호점,서울 성동구 독서당로 307-1,37.54833272,127.023026
356,BOB애완용품할인점,서울 강북구 한천로 1058,37.64138586,127.0252682
357,스낵몽,서울 강북구 4.19로 8 1층,37.64818789,127.0133999
358,펫액션,서울 강북구 수유로 75,37.6363848,127.021954
359,삼마애견용품할인점,서울 동대문구 이문로9길 8,37.59296999,127.0574352
360,푸츠,서울 성동구 독서당로 270 대우월드타운상가 1층 114-2호,37.54664371,127.0194815
361,몽블리펫샵 창동점,서울 도봉구 덕릉로60길 120 1층,37.63512677,127.0421371
362,희또마미,서울 성동구 독서당로 270,37.54664371,127.0194815
363,어나더페이지,서울 강북구 월계로37길 33,37.62374186,127.0456581
364,펫수라간,서울 성북구 돌곶이로39길 13,37.61738623,127.0469616
365,트로이스포인트,서울 용산구 한남대로10길 36,37.53221554,127.0091589
366,나라&송이애견샵,서울 강북구 한천로144길 54,37.64307573,127.02735
367,펫츠파크 광산사거리점,서울 강북구 노해로33길 23,37.64622071,127.0231244
368,멍이랑냥이랑,서울 강북구 덕릉로 203,37.63663228,127.035964
369,미니도그박스,서울 동대문구 전농로 75-18,37.57178489,127.0562164
370,못된강아지,서울 성동구 용답19가길 9 2층,37.56355815,127.0519248
371,애니밀,서울 용산구 독서당로 46 한남아이파크상가 205호,37.53238119,127.0072578
372,해피도그,서울 도봉구 우이천로4라길 10,37.63354984,127.041438
373,진성애견용품,서울 도봉구 덕릉로59길 30,37.6410261,127.038032
374,펫싸롱,서울 도봉구 노해로 137 1층 3호,37.64724179,127.0253561
375,퍼플네스트,서울 성동구 왕십리로 115 헤이그라운드 8층,37.54792018,127.0441377
376,르샤마키에,서울 용산구 보광로 29,37.52685791,126.9998987
377,희망품은달래,서울 성북구 돌곶이로 49,37.60831722,127.0593922
378,애완용품할인마트,서울 성북구 돌곶이로 9 1층,37.60539056,127.0618027
379,피마트 석관점,서울 성북구 한천로 598 세진빌딩 1층,37.61256208,127.0612796
380,네이처마이펫,서울 성북구 월계로40길 7 513호,37.62294735,127.0483972
381,쪼꼬네애완용품,서울 도봉구 덕릉로59바길 20,37.6407114,127.0365521
382,펫그라운드,서울 도봉구 도봉로110길 39-16 2층,37.6465165,127.0357624
383,몽스낵,서울 도봉구 우이천로 333,37.64653232,127.026339
384,스프링펫 쌍문본점,서울 도봉구 도봉로113길 8,37.64806445,127.0337464
385,견생냥품 쌍문역점,서울 도봉구 도봉로110길 39-16 2층,37.6465165,127.0357624
386,써니펫,서울 성북구 돌곶이로 9 1층,37.60539056,127.0618027
387,펫싸롱,서울 도봉구 도봉로110길 39-9,37.64659774,127.035582
388,어니스트펫,서울 성동구 왕십리로10길 6 서울숲 비즈포레 204호,37.5466833,127.0453099
389,프랑소와펫 신사플래그쉽스토어,서울 강남구 압구정로46길 6,37.52826952,127.0365777
390,우프바이베럴즈 신사점,서울 강남구 강남대로162길 36 동양빌딩 1층,37.52058472,127.0214195
391,몽슈슈 청담플래그십,"서울 강남구 도산대로67길 30 지하 1,2층",37.52596453,127.0445733
392,봉구의간식 압구정현대점,서울 강남구 압구정로29길 71 현대아파트 상가4동 102호,37.53360328,127.0283258
393,투테일스 성수점,서울 성동구 성덕정길 33,37.53904486,127.0474801
394,봉구의간식가로수점,서울 강남구 압구정로14길 6,37.52385849,127.0229802
395,지엔스독,서울 강남구 선릉로157길 13-5 1층,37.52565722,127.0386438
396,푼푼,서울 성동구 왕십리로 63,37.5436228,127.0435859
397,비엔비엔,서울 강남구 선릉로153길 5 3층,37.52453438,127.0389369
398,대일인터내셔널,서울 강남구 강남대로158길 46,37.5198736,127.0221865
399,순녹,서울 강남구 언주로 846,37.52595452,127.0337267
400,웨그앤코,서울 성동구 성덕정길 95 1층,37.53766678,127.0541625
401,리카리카,서울 성동구 성수이로14길 14 성수연방 1층,37.54140761,127.0569083
402,꿈꾸는강아지,서울 성동구 상원6길 3,37.5485266,127.0486108
403,러블리하우스,서울 강남구 압구정로80길 13,37.52470134,127.0457291
404,루이독,서울 강남구 압구정로 461,37.52525477,127.0472324
405,퍼스퍼트,서울 성동구 뚝섬로3길 11-5 2층,37.54117923,127.0492511
406,제일펫푸드,서울 강남구 도산대로 130 하림빌딩 7층,37.51718945,127.0229741
407,펫플러스리폼,서울 강남구 선릉로157길 27-5,37.52593808,127.0374727
408,성보펫헬스케어,서울 성동구 광나루로8길 10 802호,37.54730952,127.0636157
409,앤블랭크,서울 성동구 성수일로12길 29 2층,37.54787716,127.0544017
410,펫부티크 갤러리아백화점 웨스트점,서울 강남구 압구정로 343 1층,37.52847544,127.0400527
411,루이독 현대백화점 압구정본점,서울 강남구 압구정로 165 지하1층,37.52736612,127.0274685
412,압구정펫,서울 강남구 선릉로157길 27-4,37.52611906,127.0372821
413,주주클럽,서울 동대문구 답십리로 272 1층,37.57220704,127.0704389
414,강남아쿠아,서울 강남구 압구정로46길 5-10 압구정로데오스타 B동 102호,37.52792036,127.0374976
415,아반,서울 동대문구 천호대로81길 49 601호,37.56455429,127.0648723
416,허스펫,서울 동대문구 답십리로59가길 4 안국빌딩 402호,37.57355515,127.0659892
417,하비앤레보,서울 성동구 광나루로2길 34 보성빌딩 1층,37.54820923,127.0548744
418,플랜드,서울 성동구 성수이로12길 14 1층,37.5396229,127.0567562
419,스윗도그,서울 강남구 압구정로 108 108호,37.61986249,127.0177929
420,정살롱,서울 강남구 학동로20길 67,37.50952321,127.0266148
421,볼레디,서울 서초구 신반포로47길 18-5 5층,37.51166005,127.0196421
422,알앤케이컴퍼니,서울 성동구 성수이로24길 31 성진코원빌딩 601호,37.54457438,127.061703
423,바스펫,서울 강남구 강남대로136길 15 501호,37.54457438,127.061703
424,펑키코코,서울 강남구 봉은사로69길 11 라플빌딩 1층,37.51277207,127.0490572
425,유벤타스 베일이즈,서울 강남구 도산대로 226 지안빌딩 402호,37.52044814,127.031755
426,독베이커리,서울 강남구 강남대로120길 48 1층,37.50779053,127.0272048
427,리리쁘앙,서울 성동구 성수일로3길 7 새촌브릭스 7층,37.54217002,127.0478194
428,버블독,서울 동대문구 장한로 64 금룡빌딩 202호,37.56663423,127.0683889
429,레브드보너,서울 강남구 선릉로146길 27-8 1층,37.52226603,127.0423119
430,뚜드림 청담점,서울 강남구 도산대로 535 용강빌딩 1층,37.52518026,127.0521655
431,커즈펫 성수점,서울 성동구 성수이로 29,37.53785143,127.0542785
432,펫뜰리에,서울 강남구 학동로12길 14 1층,37.51132629,127.0254574
433,도그버디 논현점,서울 강남구 강남대로120길 46,37.50774069,127.0268964
434,브리지테일,서울 강남구 봉은사로 213 센트럴타워 3층,37.50805002,127.0353661
435,제이씨커뮤니티,서울 강남구 논현로131길 10-3 4층,37.51468645,127.0291413
436,트릿테이블,서울 광진구 천호대로102길 28-2 크라운빌 101호,37.55798493,127.0735047
437,스위피,서울 강남구 선릉로125길 21 4층,37.51452821,127.0402531
438,오투앤독,서울 광진구 뚝섬로 476-5 2층,37.53644261,127.0628569
439,프랑소와펫 반포서래점,"서울 서초구 서래로1길 18 엠제이빌딩1층,지하1층",37.49623346,126.9971338
440,도그샵,서울 강남구 강남대로122길 39,37.50874658,127.0260601
441,와이엘홀딩스,서울 강남구 선릉로 659 301호,37.50874658,127.0260601
442,봄봄샵,서울 동대문구 장안동 564,37.56541648,127.0628289
443,마인드캣,서울 강남구 학동로6길 18 1층,37.51062756,127.0241599
444,아베크,"서울 서초구 서운로26길 5 토탈에코빌딩 1층,3층",37.5024859,127.0223344
445,어반비스트,서울 서초구 사평대로55길 65-7 지하 1층,37.50664394,127.0213608
446,견공본가,서울 서초구 주흥15길 3,37.5091791,127.0187055
447,페페로니,서울 강남구 삼성로119길 21 1층,37.51564967,127.0497799
448,클린펫,서울 광진구 능동로 23-8,37.53376476,127.0672417
449,스텔라앤츄이스,서울 동대문구 장한로28길 14,37.57284428,127.07272
450,뉴트리밸류,서울 서초구 고무래로 6-5 시원빌딩 5층,37.50364181,127.0095375
451,국개대표,서울 강남구 선릉로 659 가헌빌딩 203호,37.51544793,127.041639
452,펫클럽,서울 강남구 선릉로 619,37.51200285,127.0428978
453,므에뜨,서울 강남구 선릉로146길 27-8,37.52226603,127.0423119
454,멍이냥이 2호점,서울 동대문구 답십리로69길 8 1층,37.57271499,127.0740207
455,허글 강남점,서울 서초구 반포동 18-1,37.50293139,126.9992463
456,펫스튜어드,서울 강남구 봉은사로 415,37.5110865,127.0456138
457,아임파인,서울 서초구 사평대로 353 서일빌딩 435호,37.50424935,127.0217889
458,블루레이,서울 서초구 잠원동 68-17 고속터미널 지하쇼핑몰 B009호,37.50762897,127.0091866
459,h플러스,서울 강남구 강남대로 488,37.50589798,127.0242629
460,메이킷,서울 강남구 선릉로112길 52 아람빌딩 301호,37.5121706,127.0478524
461,신성에프앤비,서울 광진구 능동로37길 6 3층 303호,37.55819011,127.0795766
462,프랑소와펫 반포서래 아카데미점,서울 서초구 서래로 47 지하 1층,37.49916634,126.9981232
463,도그버디 군자점,서울 광진구 군자로 140,37.55414673,127.0750078
464,수안 펫하우스,서울 강남구 봉은사로73길 43,37.51523619,127.0495751
465,와와펫,서울 광진구 능동로 401,37.56498448,127.0835616
466,캣드림,서울 광진구 긴고랑로7길 24,37.56440401,127.079721
467,강아지대통령,서울 강남구 삼성로 570 석천빌딩 5층,37.51240531,127.0541317
468,스프링펫 중곡점,서울 광진구 능동로49길 40,37.56502012,127.0812933
469,펫켈리상점,서울 동작구 흑석로 90 1층,37.50715931,126.9596384
470,위즈펫,서울 강남구 선릉로 620,37.51208293,127.0434517
471,OUI75,서울 서초구 동광로43길 43 1층,37.49663462,127.0007526
472,안쌤애견 본점,서울 중랑구 겸재로3길 30,37.58731912,127.0766841
473,반려동물용품점 중랑점,서울 중랑구 망우로 224 1층,37.59404388,127.0777428
474,디투에이치,서울 강남구 선릉로 561 2층,37.50863214,127.0442515
475,메이드바이핸드,서울 동작구 노량진1동 215-30,37.5467516,126.9176798
476,베비수,서울 광진구 능동로53길 40 지하 1층,37.56705962,127.0824493
477,개밥집개옷집,서울 광진구 긴고랑로13길 10,37.56299705,127.0820353
478,도그버디 상봉점,서울 중랑구 망우로32길 28,37.59270222,127.0764934
479,에이미러브즈펫,서울 강남구 영동대로118길 30-4 리젠시타운 B단지 2동 105호,37.51679333,127.0617625
480,오도독캣,서울 광진구 용마산로 92 1층,37.56185555,127.0874762
481,더개밥 1호점,서울 광진구 긴고랑로13길 10,37.56299705,127.0820353
482,댕구르르,서울 중랑구 면목로31길 22,37.57626015,127.0840792
483,비엠스마일,서울 강남구 테헤란로44길 8 아이콘역삼빌딩 4층,37.50232702,127.0444447
484,마켓멍,서울 광진구 용마산로7길 17,37.55914692,127.086685
485,시크릿펫룸,서울 서초구 동광로1길 93-1 엠하우스 101호,37.49599171,126.9837229
486,클라이네독,서울 강남구 테헤란로8길 22 화인빌딩 225호,37.49741634,127.0315939
487,토토씨,서울 서초구 서초대로 389 진흥상가 2층 212호,37.49708113,127.0236652
488,메가펫 사가정점,서울 중랑구 면목로 272,37.57707549,127.0860402
489,펫츠모리,서울 강남구 강남대로84길 23,37.49712987,127.0303844
490,아르르,서울 강남구 테헤란로 311 3층,37.50374414,127.0448545
491,한국프로비던스 동물약품,서울 강남구 테헤란로4길 6 311호,37.50374414,127.0448545
492,더마독헬스케어,서울 서초구 서초대로 357 아르누보시티 102호,37.49616856,127.0204832
493,유엔우,서울 서초구 동광로1길 55-4,37.49441348,126.9835306
494,퍼피퍼피,서울 강남구 테헤란로20길 19 엘지 에클라트 407호,37.4985647,127.0350268
495,케이왕,서울 강남구 영동대로118길 30-4 리젠시타운 B단지 2동 105호,37.51679333,127.0617625
496,도그버디 면목점,서울 중랑구 사가정로50길 51,37.578604,127.0855815
497,미유컴퍼니,서울 강남구 삼성로103길 12 신도브래뉴 1층 101호,37.5103691,127.0534108
498,바움쉔,서울 서초구 방배중앙로21길 6 401호,37.49264919,126.9861391
499,스윗도그,서울 강남구 압구정로 108 108호,37.54770402,127.0204781
500,바스펫,서울 강남구 강남대로136길 15 501호,37.55968758,127.0126802
501,장보는강아지와고양이 본점,서울 서초구 서운로 45 1층,37.48801528,127.0282066
502,방배동강아지,서울 서초구 방배중앙로 106 드림앤하우스 1층,37.4887578,126.9883485
503,장보는강아지와고양이 한티점,서울 강남구 선릉로 318 동궁상가 지하 1호,37.49806958,127.0523705
504,도그버디 이수점,서울 동작구 동작대로29길 35 1층,37.48807786,126.9799884
505,하울팟 케어클럽 셀렉샵,서울 서초구 서초대로58길 36 2층,37.49313303,127.0178881
506,인터펫코리아,서울 서초구 서운로 45,37.48801528,127.0282066
507,강남강아지,서울 강남구 언주로79길 14 2층,37.49933085,127.042877
508,메이드바이핸드,서울 동작구 노량진1동 215-30,37.49933085,127.042877
509,핏펫,서울 강남구 테헤란로 420 13층,37.50514527,127.0525582
510,잇츠그룸,서울 서초구 방배천로18길 12 1층,37.48262431,126.9833836
511,퍼피스낵,서울 서초구 동광로12가길 9,37.48728239,126.9843362
512,올리독,서울 서초구 서초대로15길 48 1층,37.48871868,126.9891527
513,봉구의간식 역삼점,서울 강남구 역삼로7길 3,37.49431495,127.0330432
514,펫찌,서울 동작구 상도로47길 3,37.49969535,126.9512007
515,와이엘홀딩스,서울 강남구 선릉로 659 301호,37.56916416,127.0263479
516,챠오펫 본점,서울 서초구 효령로33길 43,37.48325273,126.997119
517,조이피아,서울 강남구 역삼로 134,37.49411114,127.0343164
518,핏펫,서울 강남구 선릉로 428 9층 126호,37.50335325,127.0498758
519,블라블라컴퍼니,서울 서초구 서초대로34가길 18 브라이트하우스 1층,37.48780329,126.9981874
520,티아라펫,서울 동작구 상도로37길 78 지하1층,37.49744169,126.9532686
521,더마독,서울 서초구 강남대로41길 19 2층,37.48688613,127.0314472
522,강남펫스타일,서울 강남구 언주로79길 5 301호,37.48688613,127.0314472
523,네코마켓,서울 동작구 사당로17길 111 현대아파트상가 107호,37.48772967,126.9707248
524,서울퍼피 서초점,서울 서초구 효령로46길 5,37.48333089,127.0090761
525,도슈어,서울 강남구 테헤란로79길 6,37.50728398,127.0555369
526,한국프로비던스 동물약품,서울 강남구 테헤란로4길 6 311호,37.58889741,127.0196475
527,솜이네애견용품점,서울 동작구 사당로16길 64,37.48101122,126.9718817
528,도기랑냥이랑 봉천점,서울 관악구 남부순환로 1698,37.48335374,126.938733
529,봄프렌즈,서울 강남구 선릉로92길 42 세진빌딩 3층,37.50611861,127.0521887
530,런독스,서울 관악구 중앙길 17,37.4839318,126.9534981
531,에이플코리아,서울 서초구 서초대로 122 3층 301호,37.48801659,126.9957807
532,댕쁘앙,서울 동작구 상도로 320 중앙하이츠빌 상가동 201호,37.49980716,126.9499021
533,포펫지니,서울 서초구 서초대로34가길 18,37.48780329,126.9981874
534,커들리 수제간식,서울 동작구 사당로28길 58,37.47949473,126.979248
535,몽시앙,서울 서초구 남부순환로333길 10,37.4831618,127.0204142
536,애완용품할인매장,서울 관악구 은천로 21 1층,37.48642041,126.9376962
537,심콩캣,서울 서초구 반포대로14길 71 LG서초에클라트 621호,37.48690952,127.0145047
538,펫버디,서울 서초구 방배천로 11 SK리더스뷰 A동,37.47770076,126.9822361
539,더로그인,서울 강남구 역삼로19길 9 6층,37.4959614,127.0368673
540,도그미소,서울 동작구 상도로 346-1,37.49678998,126.9516675
541,포더펫,서울 강남구 논현로63길 16,37.49300852,127.039144
542,스낵랩,서울 동작구 장승배기로10길 130 b동상가 202호,37.50201892,126.944785
543,아지앤냥이,서울 동작구 국사봉길 87-5,37.49627007,126.9314002
544,애견용품 할인매장,서울 관악구 남부순환로248길 68,37.47313656,126.9659928
545,소잉도그,서울 관악구 양녕로 28 2층,37.48444484,126.9468712
546,슈퍼멍,서울 관악구 남부순환로249길 6-7 까치빌라 가동 101호,37.47598204,126.9679135
547,하이큐브,서울 관악구 남부순환로 1888 301호,37.47854446,126.9590026
548,나에개로,서울 관악구 봉천로 605,37.4760912,126.9646038
549,강남똥개,서울 강남구 선릉로76길 38,37.50212842,127.0536046
550,강아지식탁 낙성대점,서울 관악구 인헌2길 19 1층 2호,37.4753303,126.965853
551,펫과나의이야기,서울 관악구 관악로10길 56,37.4764002,126.9556764
552,장보는강아지와고양이 대치점,서울 강남구 영동대로 223 1층,37.49909692,127.0679069
553,강아지아이돌,서울 강남구 선릉로 312 3층,37.49754372,127.0526428
554,루이독 현대백화점 무역센터점,서울 강남구 테헤란로 517 지하1층,37.50861513,127.0597651
555,비아퍼시픽,서울 동작구 남부순환로 2039,37.47666525,126.975308
556,모건네트웍스,서울 강남구 도곡로37길 35,37.49604865,127.0446036
557,아울렛펫코 양재점,서울 서초구 양재천로 141,37.47953438,127.0425699
558,플러쉬퍼피코리아,서울 강남구 테헤란로88길 10 805호,37.51679333,127.0617625
559,프리센트,서울 강남구 테헤란로82길 15,37.50604704,127.058229
560,샴푸하는강아지,서울 관악구 보라매로 20,37.49114264,126.9273628
561,개밥천국,서울 관악구 쑥고개로 82 1층,37.47921875,126.9455645
562,헬로우도그,서울 관악구 남부순환로248길 68,37.47313656,126.9659928
563,바이오펫,서울 강남구 테헤란로 623 삼성빌딩 10층,37.51001655,127.0657089
564,쑤니네펫샵,서울 관악구 봉천로 376-1,37.4831187,126.941641
565,코코멍냥,서울 관악구 신림동7길 8 지층,37.47027779,126.9413064
566,라온애니멀헬스,서울 강남구 남부순환로 2912 그랑프리엔상가 B110호,37.49070599,127.0561429
567,도그버디 신림점,서울 관악구 신원로5길 41 신원시장내 B-20호,37.48276886,126.9266553
568,애완용품,서울 광진구 뚝섬로 635 1층,37.53195336,127.0802828
569,하룻강아지,서울 강남구 개포로 251,37.47921186,127.0498447
570,찰찰이네 자연간식,서울 서초구 마방로6길 43,37.47410946,127.0433915
571,내새끼닷컴,서울 서초구 언남19길 11 성경빌딩 302호,37.47589217,127.0456196
572,디자인펫샵,서울 중랑구 사가정로 405,37.58064537,127.0897278
573,장보는강아지와고양이 묵동점,서울 중랑구 동일로 941 극동늘푸른아파트 상가 1층 101호,37.61486676,127.0762031
574,글로벌펫샵,서울 광진구 자양로43길 147 1층,37.55697399,127.0887439
575,디어마이펫,서울 중랑구 면목로40길 12 1층,37.57902605,127.0878811
576,대한사료,서울 중랑구 겸재로 209,37.58928119,127.090812
577,바르다펫,서울 중랑구 봉화산로 52 용우빌딩 1층,37.60142548,127.0802217
578,도그버디 아차산점,서울 광진구 자양로49길 25,37.55306992,127.0914065
579,강사모펫,서울 중랑구 망우로 241,37.59503781,127.0794248
580,지앤에프 애견샵,서울 중랑구 용마산로 333 2층,37.58171129,127.0931619
581,반값애견,서울 광진구 자양로28길 23,37.54219781,127.0856796
582,본오독 애견용품 수제간식,서울 중랑구 망우로 385,37.59887904,127.0949929
583,행복한강고모,서울 중랑구 봉화산로22길 5 1층,37.60142861,127.0822172
584,피마트,서울 중랑구 봉화산로3길 74,37.60489118,127.0755184
585,루브르펫,서울 광진구 아차산로57길 9,37.53900979,127.0881439
586,남대문애견용품,서울 중랑구 중랑역로 73,37.59995844,127.0778668
587,와이엘홀딩스,서울 강남구 선릉로 659 301호,37.59995844,127.0778668
588,멍브라더스,서울 광진구 구의강변로 102 현대13차폴라트리움 1층 102호,37.53941201,127.0946455
589,감성독,서울 중랑구 면목로44길 79 밝은미래빌딩 4층,37.58089881,127.0929943
590,스윗매직,서울 중랑구 사가정로 429,37.58070281,127.0923521
591,취미타운,서울 중랑구 봉우재로 180,37.59390457,127.0928555
592,도그빠 중화점,서울 중랑구 중랑천로 208-2,37.60337445,127.0743961
593,스윗도그,서울 강남구 압구정로 108 108호,37.52044814,127.031755
594,카이코리아 서울지사,서울 중랑구 봉우재로 114 우성빌딩 302호,37.59236455,127.0857604
595,애견사랑,서울 중랑구 봉화산로3길 131,37.60748044,127.0748181
596,바스펫,서울 강남구 강남대로136길 15 501호,37.51132629,127.0254574
597,애견수제간식,서울 중랑구 동일로149길 12,37.60678563,127.0776933
598,쿨한강아지,서울 중랑구 망우로66길 72,37.59631159,127.0993588
599,컬러풀독 강아지옷,서울 광진구 자양로53길 50 1층,37.55532067,127.0917901
600,도기러버,서울 중랑구 상봉중앙로5길 46-3 2층,37.60058267,127.0847638
601,엄지펫,서울 중랑구 동일로156길 6,37.6095675,127.0784056
602,꾸러미세상,서울 중랑구 봉화산로 115,37.60308497,127.0870306
603,러블리펫,서울 중랑구 동일로152길 23-1,37.60866406,127.0795113
604,개나리수제간식,서울 중랑구 동일로157길 70 목동아이파크아파트 상가동 101호,37.60956847,127.0738416
605,건강하개,서울 중랑구 동일로151길 46,37.6079974,127.0755679
606,위클리,서울 중랑구 상봉중앙로8가길 46-1,37.60046776,127.09017
607,애견용품그린펫,서울 중랑구 용마공원로 17-1,37.59410858,127.101362
608,황도 도그,서울 중랑구 동일로144가길 2 1층 애완용품,37.60548474,127.0805841
609,모리모리샵,서울 중랑구 봉화산로 115,37.60308497,127.0870306
610,꾸러미새상,서울 중랑구 봉화산로 115 102호 애견용품샵,37.60308497,127.0870306
611,개간식집,서울 중랑구 중랑역로 205 1층,37.61175602,127.0756206
612,토끼밥상,서울 중랑구 동일로144길 88 B동 203호,37.60637297,127.0831283
613,금란애견백화점,서울 중랑구 용마산로 532,37.59844643,127.100593
614,반려동물생활연구소 잠실본점,"서울 송파구 올림픽로12길 45 1,2층",37.59844643,127.100593
615,플러쉬퍼피코리아,서울 강남구 테헤란로88길 10 805호,37.59844643,127.100593
616,강남펫스타일,서울 강남구 언주로79길 5 301호,37.59844643,127.100593
617,장보는 강아지와 고양이 잠실롯데월드점,서울 송파구 올림픽로 240 1층 S-911호,37.51130961,127.0981418
618,미미쿡,서울 노원구 공릉로20길 27,37.6197888,127.0797009
619,구뜨,서울 중랑구 공릉로12길 3 5층,37.61663955,127.079743
620,도그버디 잠실점,서울 송파구 석촌호수로12길 18 1층,37.50900737,127.0843702
621,밀웜아저씨,서울 중랑구 망우로 479-7,37.60102447,127.1052985
622,도그버디 공릉점,서울 노원구 동일로180길 37 1층 103호,37.62269037,127.0762493
623,왈왈식당,서울 송파구 올림픽로 145 리센츠상가 1층 A43호,37.51198046,127.0870419
624,유니펫,서울 중랑구 용마산로125길 92,37.60356902,127.1012078
625,한국프로비던스 동물약품,서울 강남구 테헤란로4길 6 311호,37.60356902,127.1012078
626,애견용품할인매장,서울 송파구 백제고분로18길 20,37.50345513,127.0840862
627,주주클럽 망우본점,서울 중랑구 양원역로 7 흥성빌딩 1층,37.60128916,127.1081158
628,똑똑제과,서울 노원구 공릉로34길 6,37.62232368,127.0796462
629,몽몽이펫샵 잠실롯데월드점,서울 송파구 올림픽로 240 롯데월드 쇼핑몰 1층,37.51130961,127.0981418
630,씨케이티,서울 중랑구 망우로81길 28,37.6019092,127.1075524
631,리버독,서울 강동구 천중로 6 1층 105호,37.54580343,127.1223002
632,금동네 사랑방,서울 송파구 백제고분로19길 35 1층,37.50784738,127.0876372
633,천호동강아지,서울 강동구 천중로 17 1층,37.54591313,127.1238995
634,반려동물생활연구소 잠실본점,"서울 송파구 올림픽로12길 45 1,2층",37.53904486,127.0474801
635,오어트릿,서울 송파구 풍성로 69 1층,37.53354491,127.1201649
636,펫마트 서울천호점,서울 강동구 천호대로 995 1층,37.53928649,127.1230131
637,탐앤드폴 잠실롯데월드몰,서울 송파구 올림픽로 300 에비뉴엘 5층,37.51375196,127.1044469
638,도그버디,서울 송파구 천호대로152길 17,37.53736513,127.1216023
639,봉구의간식,서울 송파구 백제고분로45길 31,37.51034564,127.1081353
640,바르코,서울 강동구 성내로6길 31 예은빌딩 5층,37.52834985,127.1226896
641,펫라밸,서울 송파구 석촌호수로 188 104호,37.50345513,127.0840862
642,미야우프,서울 강동구 올림픽로 693,37.54327745,127.1248311
643,호두네과자집,서울 송파구 송파대로48길 5-1,37.50864141,127.1051176
644,펫츠베이 송파삼전점,서울 송파구 삼전로 54 1층,37.5036311,127.0877991
645,도그버디 삼전점,서울 송파구 백제고분로 202 1층,37.50381382,127.0890048
646,우다다,서울 송파구 백제고분로 504 프라임빌딩 4층,37.51502516,127.115488
647,펫플러스,서울 강동구 구천면로 192 3416호,37.51277207,127.0490572
648,도쿠몰,서울 송파구 백제고분로45길 11 3층 301호,37.50940381,127.1099983
649,강아지고양이편의점 삼전점,서울 송파구 삼전로6길 15 1층,37.50287551,127.088889
650,아모르 애견용품할인매장,서울 강동구 천호대로162길 63,37.53407031,127.1278646
651,마이펫,서울 송파구 백제고분로22길 15,37.50246404,127.0889869
652,강아지영토,서울 강동구 성내로14길 18,37.5271669,127.1266444
653,루비네수제간식 1호점,서울 강동구 천중로11길 41 1층,37.54721485,127.1274912
654,플러쉬퍼피코리아,서울 강남구 테헤란로88길 10 805호,37.57355515,127.0659892
655,와와애견용품할인매장,서울 강동구 올림픽로92길 36 1층,37.54773138,127.1288298
656,마니사개,서울 강동구 구천면로 259-1,37.54352835,127.1317424
657,키친반,서울 송파구 백제고분로28길 33,37.50004503,127.0912188
658,라피아컴퍼니,서울 강동구 성안로7길 49 201호,37.50004503,127.0912188
659,장보는강아지와고양이 강동둔촌점,서울 강동구 천호대로 1224,37.53554726,127.146896
660,도그버디,서울 송파구 백제고분로48길 40,37.5102437,127.117241
661,화이트 애견용품할인마트 2호점,서울 강동구 고덕로14길 61,37.5519276,127.1312078
662,씨애플산호프랙농장,서울 강동구 성안로 27,37.5262853,127.129599
663,배부른강아지,서울 강동구 천호대로167길 26 하이브2 101호,37.53720324,127.1332667
664,눈치보지말개,서울 강동구 천호대로 1077 래미안강동팰리스 상가 102동 107호,37.53725665,127.1314376
665,와이엘홀딩스,서울 강남구 선릉로 659 301호,37.53725665,127.1314376
666,기프트펫 석촌동점,서울 송파구 송파대로37길 84,37.49916976,127.1031976
667,개냥밥,서울 송파구 가락로5길 8 1층,37.50021535,127.1021928
668,두나펫코리아,서울 강동구 구천면로41길 79,37.54740659,127.1299635
669,스윗비,서울 강동구 상암로 81,37.54829496,127.1320939
670,한스클럽,서울 송파구 가락로 45,37.49941086,127.1014346
671,폴리파크 둔촌점,서울 강동구 양재대로 1404,37.53127465,127.1379838
672,하울링,서울 강동구 양재대로89길 67 1층,37.52725676,127.1318795
673,러브펫멀티펫샵 길동점,서울 강동구 양재대로114길 30,37.53736217,127.1416321
674,커즈펫 천호점,서울 강동구 상암로 74-1,37.54836407,127.1312788
675,워크앤런,서울 송파구 중대로 158 2층,37.49618372,127.124951
676,한국애견,서울 송파구 가락로 69,37.50013139,127.1038287
677,개코네 길동점,서울 강동구 양재대로124길 41,37.54279749,127.1445018
678,미밍코,서울 강동구 성안로 163 4층,37.53775913,127.1352721
679,개밥,서울 송파구 가락로 69,37.50013139,127.1038287
680,이츠독,서울 강동구 천중로 201,37.54108461,127.142564
681,강남펫스타일,서울 강남구 언주로79길 5 301호,37.54108461,127.142564
682,러브펫 토탈애완용품샵,서울 송파구 마천로 143,37.50461874,127.135506
683,퍼피야호,서울 송파구 삼학사로6길 17,37.49983063,127.0988989
684,명일 애견용품할인마트,서울 강동구 구천면로 440,37.54954732,127.1471959
685,마이펫 둔촌점,서울 강동구 양재대로 1355 1층 8호,37.52739525,127.1356161
686,펫가든 롯데마트송파점,서울 송파구 중대로 80,37.49176204,127.1178428
687,톰&제리,서울 강동구 명일로 106-8,37.52846687,127.1429037
688,장보는강아지와고양이 송파문정점,서울 송파구 새말로 125,37.48310534,127.1278868
689,펫스츄,서울 강동구 양재대로98길 52,37.53033374,127.1405004
690,도그버디명일,서울 강동구 양재대로138길 11 1층,37.54980764,127.1445558
691,러블리퍼피,서울 강동구 풍성로56길 10,37.52870008,127.1349083
692,도그버디 둔촌점,서울 강동구 양재대로 1367 1층,37.52830778,127.1359324
693,냥이네,서울 강동구 상암로41길 46 석정빌딩 201호,37.54814016,127.1412853
694,우츄츄,서울 송파구 송이로17길 41 1층,37.50094248,127.1242562
695,가온온라인유통,서울 강동구 천중로39길 55,37.54352795,127.1396146
696,오마이도기,서울 송파구 송이로26길 16-35,37.49330663,127.1221872
697,대한사료 강남,경기 하남시 동남로438번길 44-2,37.51344426,127.1448416
698,로캣디자인,서울 강동구 상암로49길 33 지층,37.54802411,127.1447812
699,바스펫,서울 강남구 강남대로136길 15 501호,37.49411114,127.0343164
700,애견왕국,경기 하남시 서하남로 9,37.51714962,127.1453628
701,스윗도그,서울 강남구 압구정로 108 108호,37.56782502,127.0250536
702,탐앤드폴,서울 강남구 삼성로 40 소망빌딩 지하1층,37.48894386,127.0666082
703,트망트망,서울 강동구 동남로49길 60-11 1층,37.53321336,127.1465639
704,펫오피스,"서울 송파구 송파대로 260 제일오피스텔 16층 1616, 1617호",37.49313901,127.1188648
705,겟백,경기 하남시 서하남로 23 나동 3층,37.51704421,127.1467466
706,한국프로비던스 동물약품,서울 강남구 테헤란로4길 6 311호,37.57410092,127.0236677
707,바보펫,서울 송파구 정의로7길 13 힐스테이트에코송파,37.48528783,127.1151196
708,예그리나,서울 강동구 상암로 257 1층,37.54682547,127.151141
709,누나스,서울 송파구 법원로4길 10 힐스테이트에코문정 127호,37.48261579,127.1228264
710,수빈샵,서울 송파구 법원로 128 씨동 지 114 에스192호,37.48261579,127.1228264
711,마도로스키친,서울 송파구 송파대로 167,37.4846615,127.1209336
712,행복한강고모,서울 송파구 송파대로22길 24,37.48829531,127.1243587
713,멍멍이와야옹이,서울 송파구 오금로 484 삼우빌딩 1층,37.49364842,127.1426529
714,제이온펫트리밍,서울 송파구 새말로 62,37.48083429,127.1212768
715,야옹아멍멍해봐 송파위례점,서울 송파구 거여동 산 37 B동,37.48776125,127.1430955
716,에스에스오티코리아,서울 송파구 법원로 128 SK V1 메트로시티 C동 1408호,37.48684563,127.12049
717,레드펫,서울 송파구 충민로 181,37.48600974,127.133433
718,야옹멍멍,경기 하남시 서하남로95번길 37 1층,37.51555427,127.1563253
719,애견용품할인마트,서울 송파구 마천로41길 22,37.49689463,127.1499473
720,펫앤미,서울 송파구 충민로 5 송파한화오벨리스크 C동 205호,37.48012994,127.1196368
721,몰리스펫샵 가든5점,서울 송파구 충민로 10 1층,37.47861732,127.1191067
722,네발라이프,서울 송파구 새말로 62 송파푸르지오시티 상가 1층 148호,37.48083429,127.1212768
723,톰앤스누피,서울 송파구 새말로 62 송파푸르지오시티 1층 129호,37.48083429,127.1212768
724,맥앤우피,서울 송파구 새말로 62,37.48083429,127.1212768
725,씨유펫 송파거여점,서울 송파구 성내천로 134 1층,37.49898404,127.143217
726,비글C&M,서울 송파구 법원로 92 403호,37.54073091,126.9958483
727,식탐창고,서울 송파구 송이로31길 4-11,37.48803873,127.132459
728,씨유펫 구리교문점,경기 구리시 장자대로13번길 61,37.59048112,127.1326908
729,멍멍키친 야옹키친,서울 송파구 새말로17길 6 2층,37.48601862,127.1313777
730,마그네틱플랜,서울 송파구 충민로 5 송파한화오벨리스크 D-1017,37.48012994,127.1196368
731,펫클럽 상일점,서울 강동구 천호대로 1459,37.54601649,127.1703168
732,애완용품 전문점,서울 송파구 마천로45길 37,37.4989879,127.1515333
733,제이에스코리아,경기 하남시 감초로200번길 79-26,37.53015451,127.1686077
734,애견시대,서울 송파구 새말로 183,37.4864537,127.132519
735,퍼플빈,서울 송파구 충민로 66 가든파이브 테크노관 T-7125,37.47761484,127.1249618
736,레드펫,서울 강동구 천호대로 1459,37.54601649,127.1703168
737,애견용품할인점,경기 구리시 이문안로 105,37.59182973,127.1432447
738,커먼독,서울 서초구 논현로1길 21,37.47172074,127.050338
739,강아지와사람들,서울 강남구 양재대로 339,37.4723696,127.0517062
740,꼬랑지,서울 송파구 마천로57길 22-1,37.49537351,127.1536277
741,와이엘홀딩스,서울 강남구 선릉로 659 301호,37.62232368,127.0796462
742,장보는강아지와고양이 하계점,서울 노원구 한글비석로 127 1층,37.639458,127.0755232
743,바스펫,서울 강남구 강남대로136길 15 501호,37.51679333,127.0617625
744,뭉투샵,서울 노원구 공릉로58나길 20-5 1층,37.63663388,127.0739396
745,플러쉬퍼피코리아,서울 강남구 테헤란로88길 10 805호,37.50424935,127.0217889
746,댕댕아카데미,서울 노원구 동일로207길 50 북부여성창업보육센터 209호,37.64282684,127.0612846
747,개편한세상,서울 도봉구 삼양로 628,37.65910078,127.0141431
748,아따네베이커리수제간식,서울 도봉구 해등로 190 상가 147호,37.65821667,127.0357594
749,푼푼하개,서울 도봉구 도봉로141길 55 1층,37.66159444,127.0389221
750,펫쌤 방학점,서울 도봉구 도당로 61,37.66365227,127.0346118
751,쓸모연구소,서울 도봉구 도봉로143길 36,37.66188036,127.0401561
752,아이엠독,서울 노원구 동일로 1363 명지프라자 2층,37.65044033,127.0612805
753,펫클럽 창동점,서울 도봉구 마들로11길 20 농협하나로클럽,37.65511059,127.0508313
754,애완용품 할인마트,서울 도봉구 도당로 61,37.66365227,127.0346118
755,펫델,서울 도봉구 방학로 203 1층 107호,37.66175904,127.0296483
756,뽀뽀펫,서울 도봉구 방학로 131,37.66253324,127.0378816
757,도그빠,서울 노원구 덕릉로 459-14 미도상가 2층 206호,37.64579056,127.0603607
758,펫모아,서울 도봉구 도당로17길 4,37.66678123,127.0382785
759,애완용품할인매장,서울 도봉구 도봉로153길 13,37.66981008,127.042693
760,모어라이크,서울 노원구 노원로 547 1층 4호,37.66098457,127.0579838
761,스타일멍멍 도봉점,서울 도봉구 방학동 718-6,37.66838006,127.0448251
762,캣앤독,서울 도봉구 도봉로154길 18,37.67111706,127.0450583
763,앤고양이병원,서울 노원구 노원로 408,37.65312889,127.0681305
764,애견용품할인매장,서울 도봉구 도봉로169나길 92,37.67559446,127.0434224
765,폴리파크 상계점,서울 노원구 동일로 1598,37.67105614,127.0563999
766,에이미펫,서울 노원구 한글비석로47길 67,37.66109528,127.0667251
767,다니맘,서울 노원구 한글비석로23길 26,37.65969337,127.0710165
768,태강이네 멍멍마켓,서울 노원구 노원로30길 58-3 1층,37.65531037,127.0702439
769,나는펫 상계점,서울 노원구 상계로12길 56,37.6558105,127.0701066
770,와이타운,서울 노원구 상계로26길 13 201호,37.65808001,127.0709677
771,펫클럽 상계점,서울 노원구 상계로 182 상계역 410-08호,37.66090389,127.0735754
772,도봉동물약품,서울 도봉구 도봉산4길 27-15,37.68853789,127.0414779
773,지연이네 강아지수제간식,서울 도봉구 도봉동 83-1,37.59296999,127.0574352
774,봄봄펫,서울 노원구 덕릉로83길 14-7 2층 201호,37.66032062,127.0746748
775,개껌무는가게,서울 노원구 덕릉로119가길 35,37.67001523,127.0798245
776,엘.로이펫(L.ROY pet),서울 노원구 동일로236길 33,37.67398032,127.0574136
777,블랑쉬,서울 노원구 한글비석로 396 상계벽산아파트 복합상가 108동 238호,37.66230302,127.0735817
778,포포네 간식,서울 노원구 한글비석로 332,37.65710729,127.0779928
779,우아케이크,서울 노원구 동일로243길 29 1층,37.6784299,127.0533761
780,펫클럽 장암점,경기 의정부시 동일로 199 1층 102호,37.70677796,127.0572081
781,펫클럽 갈매점,경기 구리시 산마루로 6 갈매중심타워오피스텔 117호,37.63170914,127.1151452
782,펫플렉스,경기 의정부시 평화로 171-1,37.70719518,127.0479608
783,지연이네 강아지수제간식,서울 도봉구 도봉동 83-1,37.66188036,127.0401561
784,장보는강아지와고양이 별내점,경기 남양주시 두물로27번길 15 101호,37.65710177,127.1267979
785,야옹아 멍멍해봐 남양주 별내점,경기 남양주시 별내중앙로 84,37.65020177,127.1206269
786,펫마트 애완용품할인마트 호원점,경기 의정부시 신흥로 158,37.73025093,127.0439378
787,펫클럽 장암2호점,경기 의정부시 회룡로 178 발곡프라자 1층 108호,37.72638805,127.0534565
788,꼬비언니,경기 남양주시 덕송2로 70-7 602호,37.66800779,127.1184778
789,펫츠야,경기 남양주시 두물로11번길 40-19 풍전프라자 1층,37.65757255,127.1255211
790,댕댕블리,경기 남양주시 별내동 830-4,37.66680293,127.1159165
791,듀펫러브도그 호원점,경기 의정부시 평화로 399-8 상가 1층 103호,37.7278705,127.0477965
792,봉구의간식 별래점,경기 남양주시 별내중앙로 53,37.6470531,127.1235001
793,해피몽애견샵,경기 의정부시 신곡로 57,37.73179792,127.0563739
794,피마트,경기 남양주시 두물로39번길 57 1층,37.65839364,127.1291711
795,럭키펫,경기 구리시 금강로 110,37.64145941,127.1231828
796,마시꾸멍,경기 구리시 갈매중앙로55번길 10,37.62982683,127.1154894
797,더블콤마,경기 남양주시 두물로39번길 52,37.65898466,127.1288604
798,꼬모프랑쉬,경기 남양주시 두물로39번길 30-7,37.65860385,127.1284191
799,빙아이스크림&애견용품,경기 의정부시 경의로55번길 16 1층,37.73379418,127.0416858
800,펫클럽 별내점,경기 남양주시 별내면 송산로 641-1,37.69678114,127.1261217
801,이쁘당개,경기 구리시 갈매중앙로 70,37.63053607,127.1171414
802,코쿠모노,경기 구리시 갈매순환로204번길 26-14 101호,37.63724239,127.1226224
803,베이지앤브라운,경기 남양주시 두물로39번길 46 1층 101호,37.65912435,127.1286664
804,펫스타 별내,경기 남양주시 별내중앙로 10 아이플레이스 243호,37.64484653,127.127292
805,영양한스푼,경기 구리시 갈매순환로204번길 8-58,37.6374153,127.1240808
806,춘자키친,경기 의정부시 태평로63번길 23 1층,37.73838136,127.0502851
807,도그버디 의정부제일점,경기 의정부시 태평로73번길 20,37.74012663,127.0500679
808,바버펫,경기 의정부시 시민로 228-1,37.73561724,127.0601533
809,바램과믿음,경기 구리시 갈매순환로126번길 49 101호,37.62993362,127.1221739
810,더블컴퍼니,경기 남양주시 별내동 33 4층,37.65619968,127.1331258
811,듀펫러브도그 의정부지하상가점,경기 의정부시 시민로 지하 100 의정부지하상가 서부 나열 217호,37.73924561,127.0475838
812,멈뭄베이크,경기 의정부시 신흥로274번길 17 1층,37.74051988,127.0442529
813,지연이네 강아지수제간식,서울 도봉구 도봉동 83-1,37.66175904,127.0296483
814,장보는강아지와고양이 구리본점,경기 구리시 동구릉로 434,37.63615712,127.1406679
815,봉스왈왈,경기 남양주시 퇴계원읍 퇴계원로 65,37.65250266,127.1424743
816,펫글로비즈,경기 구리시 동구릉로395번길 87,37.63429283,127.1380433
817,반하개,경기 남양주시 퇴계원읍 퇴계원로 69 1층,37.65290302,127.1427314
818,페그너티,경기 남양주시 퇴계원읍 퇴계원로 102-2,37.65545412,127.1448992
819,아이앤지펫케어,경기 구리시 동구릉로460번길 14,37.63857607,127.1403742
820,아마존 애견용품할인마트,경기 구리시 경춘로 128,37.60064391,127.1294675
821,애완용품할인매장,경기 구리시 동구릉로53번길 4 112호,37.60538038,127.1336233
822,구름펫,경기 구리시 동구릉로53번길 67,37.60763365,127.131871
823,DC클럽,경기 구리시 동구릉로 70,37.60628041,127.1346245
824,펫클럽 수택점,경기 구리시 경춘로 188 113호,37.60030498,127.1363318
825,도그버디 구리점,경기 구리시 안골로57번길 36-6,37.59881844,127.1371855
826,메토요,경기 구리시 동구릉로136번길 33 2층 201호,37.61131431,127.1399825
827,마이펫하우스,경기 구리시 건원대로 56 삼보아파트 종합상가 106호,37.60780939,127.1404976
828,쩡쓰퍼피,경기 구리시 검배로15번길 18,37.59928519,127.142995
829,지니펫,경기 구리시 벌말로 163,37.59118405,127.1493733
830,도그컷,경기 남양주시 미금로 43,37.60873462,127.1519127
831,오구오구내새끼,경기 남양주시 다산중앙로20번길 10-34 1층,37.61439514,127.1564147
832,견생냥품 무인24시 남양주다산역점,경기 남양주시 다산중앙로123번길 11,37.62362153,127.1522032
833,펫클럽 진건점,경기 남양주시 진건읍 진관로363번길 103,37.64116629,127.1549293
834,포독스,경기 남양주시 다산순환로 397-84 1층 101호,37.62073704,127.1598208
835,지미니몰,경기 구리시 수택천로16번길 78,37.5962463,127.1483468
836,도그니티,경기 남양주시 다산중앙로123번길 22-26,37.62486975,127.1524235
837,주니박스펫스토어,경기 남양주시 다산중앙로171번길 32 120호-1,37.62876956,127.1488332
838,댕댕아밥먹자,경기 남양주시 도농로 24 부영애시앙 사랑관 1층 54호,37.60820447,127.1577538
839,펫클럽 수석점,경기 남양주시 강변북로 656-1,37.58863547,127.1705469
840,도도,경기 남양주시 진건읍 진관로303번길 77,37.6355508,127.1561081
841,아마레펫,경기 남양주시 다산지금로123번길 19,37.60313574,127.1769074
842,대한사료,경기 남양주시 경춘로 651,37.61833825,127.1817998
843,펫플러스,서울 강동구 구천면로 192 3416호,37.54802411,127.1447812
844,라피아컴퍼니,서울 강동구 성안로7길 49 201호,37.54352795,127.1396146
845,펫플러스,서울 강동구 구천면로 192 3416호,37.54591313,127.1238995
846,펫라밸,서울 송파구 석촌호수로 188 104호,37.51555427,127.1563253
847,반려동물생활연구소 잠실본점,"서울 송파구 올림픽로12길 45 1,2층",37.50900737,127.0843702
848,장보는강아지와고양이 위례점,경기 하남시 위례대로 190 1층 118호,37.4785918,127.1482712
849,기프트펫,서울 송파구 위례광장로 136 위례아이파크 상가C동 113호,37.4771944,127.1422812
850,리프패럿,"경기 하남시 미사강변대로 76 미사베스트프라자 2층 203,204호",37.55663947,127.187643
851,수빈샵,서울 송파구 법원로 128 씨동 지 114 에스192호,37.53644261,127.0628569
852,멍식당,경기 하남시 미사강변대로 62 바토프라자 111호,37.55541397,127.1871105
853,레몬펫,경기 하남시 조정대로 45 미사센텀비즈 F1042호,37.55068518,127.1844759
854,비글C&M,서울 송파구 법원로 92 403호,37.52525477,127.0472324
855,장보는강아지와고양이 하남점,경기 하남시 덕풍로65번길 2,37.55117607,127.2058806
856,하나무,경기 하남시 미사강변대로 84 미사탑프라자 건물 뒷편 1층 102호,37.5574071,127.1879983
857,페페,경기 하남시 미사강변서로 25 F동 8층 844호,37.55265997,127.1828084
858,위대한컴퍼니,경기 하남시 조정대로 45,37.55068518,127.1844759
859,씨유펫 위례점,경기 성남시 수정구 위례광장로 104 위례한화오벨리스크센트럴스퀘어 1층 1012호,37.47305134,127.1412629
860,베프 본점,경기 성남시 수정구 위례광장로 310 우성트램타워 A동 113호,37.47270892,127.142939
861,닥터루디,경기 하남시 미사강변서로 16,37.55181303,127.18449
862,아띠지기,경기 하남시 조정대로 35 미사하우스디엘타워 608호,37.55031248,127.1833502
863,아무도없개 위례점,경기 성남시 수정구 위례광장로 70 상가동 1층 122호,37.47073283,127.1412171
864,리틀프렌즈,경기 하남시 풍산동 490-2 F동 230호,37.55176224,127.1844756
865,플러쉬퍼피코리아,서울 강남구 테헤란로88길 10 805호,37.53785143,127.0542785
866,씨유펫 하남 미사점,경기 하남시 미사강변중앙로 161,37.56109452,127.1906939
867,장보는강아지와고양이 하남신장점,경기 하남시 신장동로 41 1층,37.54346079,127.2121674
868,다우리,경기 성남시 수정구 위례서일로1길 22-6,37.46742516,127.1383719
869,도그클럽,경기 하남시 덕풍공원로 43,37.53943173,127.1978834
870,수수,경기 하남시 조정대로 150 아이테코 3층 364호,37.5535257,127.1946694
871,수쌀롱,경기 성남시 수정구 위례서일로1길 22-6 1층 101호,37.46742516,127.1383719
872,아로펫,경기 하남시 하남대로887번길 25,37.54363036,127.2006712
873,페페,경기 하남시 고골로 199-17,37.50825982,127.1959211
874,도기스쿨,경기 하남시 하남대로861번안길 16,37.54269901,127.2009293
875,퍼피하우스,경기 하남시 신장로 164,37.54038358,127.2011677
876,어바웃도그,경기 성남시 수정구 위례순환로4길 9 1층,37.46930489,127.1483645
877,도담퍼피,경기 하남시 덕풍공원로87번길 20,37.53748419,127.201046
878,호야펫,경기 하남시 미사강변한강로158번길 48,37.57514999,127.1900451
879,그룸앤먼치,경기 성남시 수정구 위례광장로 12 위례역푸르지오6단지 상가 115호,37.46676779,127.1421594
880,와이엘홀딩스,서울 강남구 선릉로 659 301호,37.57178489,127.0562164
881,동부유통애견용품,경기 하남시 대성로 323,37.53631298,127.2077626
882,캣독캣독,경기 성남시 수정구 복정로106번길 5-4,37.46274582,127.1276728
883,서현사료,경기 하남시 신장로 70,37.53579491,127.2097489
884,리베댕,경기 성남시 수정구 창곡동 564 위례역푸르지오5단지 5A-113호,37.46654985,127.1410226
885,펫클럽 하남점,경기 하남시 미사대로 570 2층,37.55590251,127.2081476
886,도도한독스 하남미사강변점,경기 하남시 망월동 400-3,37.55590251,127.2081476
887,우리동물약품,경기 하남시 신장로 70,37.53579491,127.2097489
888,개이득 성남위례점,경기 성남시 수정구 위례서일로 26 라크리움 지하 B111호,37.46473826,127.1386734
889,강남펫스타일,서울 강남구 언주로79길 5 301호,37.46473826,127.1386734
890,애견용품,경기 성남시 수정구 복정로118번길 15-1,37.46378549,127.1285146
891,강남애니펫샵,경기 하남시 신평로 168,37.54714391,127.2114516
892,동부유통,경기 하남시 하남대로 798,37.54092122,127.2090927
893,삼팔오도씨,경기 하남시 신장1로34번길 52 101호,37.53729173,127.2125225
894,반려동물생활연구소 잠실본점,"서울 송파구 올림픽로12길 45 1,2층",37.51034564,127.1081353
895,펫라밸,서울 송파구 석촌호수로 188 104호,37.5036311,127.0877991
896,수빈샵,서울 송파구 법원로 128 씨동 지 114 에스192호,37.51375196,127.1044469
897,비글C&M,서울 송파구 법원로 92 403호,37.49313901,127.1188648
898,라피아컴퍼니,서울 강동구 성안로7길 49 201호,37.53127465,127.1379838
899,펫플러스,서울 강동구 구천면로 192 3416호,37.52846687,127.1429037
900,플러쉬퍼피코리아,서울 강남구 테헤란로88길 10 805호,37.4785918,127.1482712
901,강남펫스타일,서울 강남구 언주로79길 5 301호,37.54980764,127.1445558
902,와이엘홀딩스,서울 강남구 선릉로 659 301호,37.55414673,127.0750078
903,벨벳케어,서울 서초구 샘마을길 3-4,37.45770985,127.0708633
904,댕청미,경기 성남시 수정구 복정로20번길 22 1층,37.45526707,127.1295727
905,디디테이블,서울 서초구 동산로16길 10 1층,37.47191465,127.0470302
906,한국프로비던스 동물약품,서울 강남구 테헤란로4길 6 311호,37.50874658,127.0260601
907,집에가야돼,경기 성남시 수정구 성남대로1390번길 10 지하1층,37.45396281,127.1277914
908,바스펫,서울 강남구 강남대로136길 15 501호,37.58070281,127.0923521
909,펫클럽 양재점,서울 서초구 청계산로 10 농협하나로클럽,37.4632288,127.0435302
910,스윗도그,서울 강남구 압구정로 108 108호,37.4632288,127.0435302
911,강남펫스타일,서울 강남구 언주로79길 5 301호,37.50774069,127.0268964
912,와이엘홀딩스,서울 강남구 선릉로 659 301호,37.53360328,127.0283258
913,한국프로비던스 동물약품,서울 강남구 테헤란로4길 6 311호,37.50861513,127.0597651
914,바스펫,서울 강남구 강남대로136길 15 501호,37.50861513,127.0597651
915,스윗도그,서울 강남구 압구정로 108 108호,37.4723696,127.0517062
916,플러쉬퍼피코리아,서울 강남구 테헤란로88길 10 805호,37.4723696,127.0517062
917,반려동물생활연구소 잠실본점,"서울 송파구 올림픽로12길 45 1,2층",37.50345513,127.0840862
918,펫라밸,서울 송파구 석촌호수로 188 104호,37.50424935,127.0217889
919,퍼리굿,서울 서초구 매헌로 31-3 백림빌딩 501호,37.4636301,127.0345814
920,오구오구,서울 서초구 양재대로2길 8 1층 109호,37.45972494,127.0244643
921,수빈샵,서울 송파구 법원로 128 씨동 지 114 에스192호,37.53221554,127.0091589
922,펫트코리아,경기 성남시 수정구 적푸리로 30,37.43375954,127.0841856
923,비글C&M,서울 송파구 법원로 92 403호,37.54820923,127.0548744
924,라피아컴퍼니,서울 강동구 성안로7길 49 201호,37.54664371,127.0194815
925,빛돌커뮤니케이션,경기 과천시 양지마을로 23,37.44944406,126.9964026
926,펫플러스,서울 강동구 구천면로 192 3416호,37.46654985,127.1410226
927,한국프로비던스 동물약품,서울 강남구 테헤란로4길 6 311호,37.47921186,127.0498447
928,강남펫스타일,서울 강남구 언주로79길 5 301호,37.49806958,127.0523705
929,바스펫,서울 강남구 강남대로136길 15 501호,37.51208293,127.0434517
930,플러쉬퍼피코리아,서울 강남구 테헤란로88길 10 805호,37.51468645,127.0291413
931,와이엘홀딩스,서울 강남구 선릉로 659 301호,37.51468645,127.0291413
932,반려동물생활연구소 잠실본점,"서울 송파구 올림픽로12길 45 1,2층",37.51679333,127.0617625
933,스윗도그,서울 강남구 압구정로 108 108호,37.52593808,127.0374727
934,펫라밸,서울 송파구 석촌호수로 188 104호,37.53376476,127.0672417
935,수빈샵,서울 송파구 법원로 128 씨동 지 114 에스192호,37.48083429,127.1212768
936,비글C&M,서울 송파구 법원로 92 403호,37.48684563,127.12049
937,펫클럽 신림점,서울 관악구 남부순환로 1552 1층,37.4831237,126.9230078
938,펫하우스할인매장,서울 관악구 신림로 153,37.47270434,126.9329167
939,강사모 애완용품도매아울렛,서울 관악구 문성로 226,37.4791812,126.9288225
940,수족관 애완용품할인매장,서울 관악구 난곡로 244,37.4759007,126.9165398
941,프란다스의개,서울 관악구 호암로 581,37.46936493,126.9326027
942,강아지본부 신대방점,서울 관악구 신사로 112,37.48766314,126.9147142
943,수니앤도그,서울 관악구 법원단지21길 1,37.47492698,126.9226349
944,러브스카이,서울 관악구 남부순환로161가길 17,37.48496179,126.9178402
945,댄스로우,서울 관악구 난곡로59길 5 지하1층,37.48001536,126.9139396
946,모찌,서울 관악구 대학길 96 1층,37.46644869,126.9374709
947,헬로독하이캣,서울 관악구 신림로 108,37.4711305,126.937598
948,미즈미스터펫,서울 관악구 조원로 128 지하,37.48510638,126.9166442
949,애견용품도매위드독,서울 관악구 난곡로24가길 5,37.46980591,126.9209992
950,펫아이돌,서울 관악구 난곡로9길 24 102호,37.46427919,126.9179541
951,우리애견,서울 관악구 남부순환로 1538,37.48284737,126.9215088
952,올프로무역,서울 관악구 문성로 226,37.4791812,126.9288225
953,메이드바이핸드,서울 동작구 노량진1동 215-30,37.49599171,126.9837229
954,펫마트 시흥점,서울 금천구 시흥대로 272 1층,37.45792046,126.8997054
955,해피팡팡,서울 금천구 시흥대로 343,37.4642459,126.8971617
956,도기랑냥이랑 독산점,서울 금천구 독산로 221,37.46677423,126.9015068
957,윙크펫,서울 금천구 독산로 143-1 1층,37.46019183,126.9046169
958,파트너펫,서울 금천구 독산로 61,37.45288483,126.9058855
959,도그코리아,서울 구로구 디지털로32길 30,37.48338954,126.8965199
960,블라썸독,서울 금천구 벚꽃로 30 금천롯데캐슬골드파크 2차 142호,37.45822291,126.8937104
961,도깨비펫 구로본점,서울 구로구 구로동로26길 115,37.49013219,126.8904785
962,펫츠비,서울 금천구 벚꽃로 298 대륭포스트타워6차,37.48144017,126.8838717
963,오야오야,서울 금천구 벚꽃로 30 롯데캐슬골드파크2차상가 131호,37.45822291,126.8937104
964,꼬누꼬삐아,서울 구로구 디지털로32가길 18 HK타워 903호,37.48269113,126.8984477
965,몽하우스,서울 금천구 시흥대로 78,37.44093894,126.9037858
966,도그앤캣용품점,서울 구로구 구로동로18길 13,37.48817523,126.8854641
967,멍이냥이얌얌,서울 금천구 벚꽃로 30 롯데캐슬 골드파크 2차 205동 209호,37.45822291,126.8937104
968,미밍코 마리오아울렛점,서울 금천구 디지털로9길 23 1층,37.47872057,126.8864768
969,슈퍼패드,서울 구로구 디지털로27길 36 B01호,37.48374217,126.8925563
970,포켄스코리아,서울 금천구 가산디지털1로 142 가산 더스카이밸리1차 412호,37.47840471,126.8833586
971,씨유펫 독산점,서울 금천구 시흥대로 475 1층 102호,37.47611063,126.8982576
972,단추말이,경기 광명시 신촌북로 19 2층,37.45083546,126.8918665
973,아이넷글로벌,서울 금천구 디지털로9길 47 304-2호,37.53746075,126.959374
974,왈츠컴퍼니,서울 금천구 가산디지털1로 45 1201-3호,37.50762897,127.0091866
975,반하츠,경기 광명시 신촌로15번길 29,37.44963906,126.8890142
976,슬기로운펫생활,서울 금천구 시흥대로 165,37.44790332,126.9007227
977,독독독 광명본점,경기 광명시 오리로 643,37.45861986,126.8774787
978,바우미우,서울 금천구 가산디지털1로 88 IT프리미어타워 8층 802호,37.47388666,126.8854564
979,펫펄스,서울 금천구 가산디지털1로 131,37.47704782,126.8822155
980,릴라러브스잇,서울 금천구 가산디지털1로 205 KCC웰츠밸리 703호,37.48393878,126.8795739
981,댕댕공방,경기 광명시 안현로 19 1층,37.46452696,126.8745306
982,캣글루,서울 금천구 가산디지털2로 108 뉴T캐슬 303호,37.47789556,126.8806648
983,한스애견용품,서울 금천구 시흥대로 46 1동 207호,37.43777673,126.9037818
984,털연구소,서울 금천구 가산디지털2로 169-37 B동 706호,37.48171957,126.8755485
985,도그에몽,경기 광명시 광덕산로 5,37.4703881,126.8691914
986,우미펫,경기 광명시 오리로 643,37.45861986,126.8774787
987,한국프로비던스 동물약품,서울 강남구 테헤란로4길 6 311호,37.52856503,126.8961119
988,킹스펫,경기 광명시 도덕공원로 69-1,37.47488203,126.8641302
989,이레펫 광명소하본점,경기 광명시 기아로 6,37.43635942,126.8803802
990,멍멍닷컴,경기 광명시 기아로13번길 13-1 지하1층,37.43770828,126.88095
991,멍박사 광명점,경기 광명시 오리로 897,37.47658775,126.8629014
992,스윗도그,서울 강남구 압구정로 108 108호,37.4959614,127.0368673
993,메이드바이핸드,서울 동작구 노량진1동 215-30,37.47949473,126.979248
994,도그버디 고척점,서울 구로구 고척로32길 3,37.50245091,126.8492413
995,강아지고양이편의점 개봉점,서울 구로구 개봉로 17 성림빌딩,37.48717436,126.8561108
996,메이드바이핸드,서울 동작구 노량진1동 215-30,37.53632967,126.9608121
997,애완용품왕도소매,서울 구로구 서해안로28길 8,37.49288636,126.8428651
998,라니펫,서울 서대문구 남가좌동 277-2,37.53442461,126.8354771
999,우리강아지,서울 구로구 고척로21나길 42,37.50243191,126.8433588
1000,폴리파크 광명사거리점,경기 광명시 오리로 970 크로앙스 B층 1127~1132호,37.47946062,126.8556443
1001,개밥그릇 개봉3동점,서울 구로구 개봉로3길 18,37.48645077,126.855309
1002,아이넷글로벌,서울 금천구 디지털로9길 47 304-2호,37.48645077,126.855309
1003,개밥그릇 4동점,경기 광명시 오리로949번길 11,37.47747802,126.8571083
1004,빙고네애견용품,경기 광명시 광명로 877,37.4779125,126.8531511
1005,이뻐해줄개,경기 광명시 새터로 108-2,37.4767914,126.8579644
1006,왈츠컴퍼니,서울 금천구 가산디지털1로 45 1201-3호,37.4831187,126.941641
1007,펫피파니,경기 부천시 역곡로482번길 47 1층,37.52680873,126.8186199
1008,진스펫하우스,경기 광명시 광명로832번길 17,37.47297828,126.8535643
1009,강사모애견백화점,경기 부천시 성지로 89-1,37.52710561,126.8110356
1010,대산애견,경기 광명시 광명로848번길 74-8,37.46906495,126.8517081
1011,펫블라썸,서울 은평구 응암동 126-21 B102호,37.45822291,126.8937104
1012,아라교역,경기 광명시 금오로 840-1 1층,37.47372213,126.8402018
1013,펫코디디자인연구소,경기 부천시 까치로20번길 24-39 1층,37.50708861,126.8107107
1014,아이넷글로벌,서울 금천구 디지털로9길 47 304-2호,37.47704782,126.8822155
1015,애견용품아울렛,경기 부천시 안곡로 239-5,37.48922144,126.8170799
1016,왈츠컴퍼니,서울 금천구 가산디지털1로 45 1201-3호,37.5216464,126.8320543
1017,장보는강아지와고양이 광명점,경기 광명시 금하로 237,37.45320905,126.8599093
1018,펫하우스,경기 부천시 역곡로26번길 25,37.48802731,126.8119023
1019,루미펫,경기 부천시 지봉로 131,37.48918235,126.8135165
1020,와우펫애니멀인터네셔널,경기 부천시 양지로 205,37.46779857,126.8241747
1021,엔젤하우스,경기 부천시 범안로21번길 92,37.47883852,126.8109675
1022,도미나켄넬 &도미나펫,경기 부천시 역곡로57번길 32 디아이빌아파트 상가 1층,37.48979057,126.8076989
1023,아이넷글로벌,서울 금천구 디지털로9길 47 304-2호,37.56439845,126.8396576
1024,버드펠리스,경기 부천시 부천로 238 경창빌딩 B동 4층,37.50538635,126.7869118
1025,뉴트리웰 인천대리점,경기 부천시 성오로101번길 27,37.52237391,126.7990806
1026,허니펫,경기 부천시 여월로 27 여월휴먼시아 511동 601호,37.51100342,126.8014085
1027,왈츠컴퍼니,서울 금천구 가산디지털1로 45 1201-3호,37.56445431,126.9240029
1028,애왕용품할인마트 강남펫직영점,경기 부천시 소안로74번길 21,37.48130875,126.8043979
1029,폴리파크 원미점,경기 부천시 부천로 132,37.49605464,126.7857096
1030,펫마트 부천점,경기 부천시 부천로 100,37.49304345,126.7850516
1031,천군맘마,경기 부천시 경인옛로 108-1 2층,37.48029487,126.8038676
1032,간식먹개,경기 부천시 소삼로 47-1 푸르지오상가 B동 122호,37.47948201,126.7968999
1033,스카겐코리아,경기 부천시 부천로198번길 36 춘의테크노파크 101동 1103호,37.50180967,126.7888855
1034,메이드바이핸드,서울 동작구 노량진1동 215-30,37.56215623,126.926723
1035,캣글루,경기 부천시 조마루로385번길 122 21층 스타트업 하이브,37.5015884,126.791535
1036,펫북,경기 부천시 조마루로 424-6,37.49706216,126.7906428
1037,리본독,경기 부천시 원미로 53 1층,37.48736954,126.7895038
1038,에코노블,경기 부천시 조마루로385번길 50-6 4층,37.49946601,126.7880007
1039,애니멀케어,경기 부천시 수도로 88-35 화일빌딩 2층,37.51387933,126.7769276
1040,스토어봄 부천지사,경기 부천시 옥산로 136,37.50557846,126.7804728
1041,멍멍이이발소,경기 부천시 은성로67번길 13,37.47587573,126.7982173
1042,개린이유치원,경기 부천시 부흥로 447 1층,37.48729309,126.7892719
1043,드림펫,경기 부천시 소사로 306,37.48536561,126.7944633
1044,라니펫,서울 서대문구 남가좌동 277-2,37.48536561,126.7944633
1045,모모모해,경기 부천시 소사로160번길 94,37.47248089,126.8008062
1046,펫편의점,경기 부천시 부일로 519 화신오피스텔 101호,37.48537092,126.7880384
1047,펫클럽 부천점,경기 부천시 신흥로470번길 5,37.52503572,126.7779384
1048,춤추는강아지 소사점,경기 부천시 소사로 156,37.4721806,126.795749
1049,멍식당,경기 부천시 부흥로373번길 63 1층,37.4943021,126.7841796
1050,프레시봄 부천점,경기 부천시 옥산로 138,37.50572126,126.7804676
1051,에코앤세이브,경기 부천시 산업로7번길 73,37.53141653,126.7801133
1052,도그싸롱,서울 강서구 금낭화로17길 3,37.57513185,126.8114528
1053,라니펫,서울 서대문구 남가좌동 277-2,37.50306231,126.9010444
1054,펫랜드 부천점,경기 부천시 도약로 239,37.51086261,126.7754151
1055,펫블라썸,서울 은평구 응암동 126-21 B102호,37.52517752,126.9248767
